index,Country,City,Population,Latitude,Longitude,Messages,Answers,LatitudeLLM,LongitudeLLM,Error
93,ae,abu dhabi,603687,24.466667,54.36666700000001,"[{'role': 'system', 'content': 'Answer in json format only: {""latitude"": < e.g. ""14.832185"" >, ""longitude"": < e.g. ""4.212666"" >}. No explanation, just the answer!'}, {'role': 'user', 'content': 'What are the latitude and longitude of abu dhabi, United Arab Emirates?'}]","{""latitude"": ""24.463661"", ""longitude"": ""54.366667""}",24.463661,54.366667,0.3329595475261173
242,ae,dubai,1137376,25.258172,55.304717,"[{'role': 'system', 'content': 'Answer in json format only: {""latitude"": < e.g. ""14.832185"" >, ""longitude"": < e.g. ""4.212666"" >}. No explanation, just the answer!'}, {'role': 'user', 'content': 'What are the latitude and longitude of dubai, United Arab Emirates?'}]","{""latitude"": 25.276853, ""longitude"": 55.296175}",25.276853,55.296175,2.2411753924579716
490,ae,sharjah,543942,25.35731,55.403304000000006,"[{'role': 'system', 'content': 'Answer in json format only: {""latitude"": < e.g. ""14.832185"" >, ""longitude"": < e.g. ""4.212666"" >}. No explanation, just the answer!'}, {'role': 'user', 'content': 'What are the latitude and longitude of sharjah, United Arab Emirates?'}]","{""latitude"": 25.365556, ""longitude"": 55.457778}",25.365556,55.457778,5.558532313083344
6644,af,baglan,108481,36.130684,68.708286,"[{'role': 'system', 'content': 'Answer in json format only: {""latitude"": < e.g. ""14.832185"" >, ""longitude"": < e.g. ""4.212666"" >}. No explanation, just the answer!'}, {'role': 'user', 'content': 'What are the latitude and longitude of baglan, Afghanistan?'}]","{""latitude"": 34.6433, ""longitude"": 62.2556}",34.6433,62.2556,608.9095634542023
24457,af,gardez,103732,33.597439,69.225922,"[{'role': 'system', 'content': 'Answer in json format only: {""latitude"": < e.g. ""14.832185"" >, ""longitude"": < e.g. ""4.212666"" >}. No explanation, just the answer!'}, {'role': 'user', 'content': 'What are the latitude and longitude of gardez, Afghanistan?'}]","{""latitude"": 33.7782, ""longitude"": 69.4667}",33.7782,69.4667,30.006594859859113
25037,af,gazni,143049,33.550833000000004,68.4225,"[{'role': 'system', 'content': 'Answer in json format only: {""latitude"": < e.g. ""14.832185"" >, ""longitude"": < e.g. ""4.212666"" >}. No explanation, just the answer!'}, {'role': 'user', 'content': 'What are the latitude and longitude of gazni, Afghanistan?'}]","{""latitude"": 33.3356, ""longitude"": 68.8212}",33.3356,68.8212,44.093413364427384
29709,af,herat,272880,34.348167,62.199673,"[{'role': 'system', 'content': 'Answer in json format only: {""latitude"": < e.g. ""14.832185"" >, ""longitude"": < e.g. ""4.212666"" >}. No explanation, just the answer!'}, {'role': 'user', 'content': 'What are the latitude and longitude of herat, Afghanistan?'}]","{""latitude"": 34.333333, ""longitude"": 62.15}",34.333333,62.15,4.857810716249224
30969,af,jalalabad,200389,34.426468,70.45153,"[{'role': 'system', 'content': 'Answer in json format only: {""latitude"": < e.g. ""14.832185"" >, ""longitude"": < e.g. ""4.212666"" >}. No explanation, just the answer!'}, {'role': 'user', 'content': 'What are the latitude and longitude of jalalabad, Afghanistan?'}]","{""latitude"": 34.427347, ""longitude"": 70.446932}",34.427347,70.446932,0.43375042956814597
32756,af,kabul,3043589,34.516667,69.18333299999999,"[{'role': 'system', 'content': 'Answer in json format only: {""latitude"": < e.g. ""14.832185"" >, ""longitude"": < e.g. ""4.212666"" >}. No explanation, just the answer!'}, {'role': 'user', 'content': 'What are the latitude and longitude of kabul, Afghanistan?'}]","{""latitude"": 34.5167, ""longitude"": 69.1833}",34.5167,69.1833,0.004752123176392785
63360,af,qandahar,391230,31.613323,65.710126,"[{'role': 'system', 'content': 'Answer in json format only: {""latitude"": < e.g. ""14.832185"" >, ""longitude"": < e.g. ""4.212666"" >}. No explanation, just the answer!'}, {'role': 'user', 'content': 'What are the latitude and longitude of qandahar, Afghanistan?'}]","{""latitude"": 31.6299, ""longitude"": 65.7264}",31.6299,65.7264,2.4005416261035
66589,af,qunduz,161943,36.728955,68.857001,"[{'role': 'system', 'content': 'Answer in json format only: {""latitude"": < e.g. ""14.832185"" >, ""longitude"": < e.g. ""4.212666"" >}. No explanation, just the answer!'}, {'role': 'user', 'content': 'What are the latitude and longitude of qunduz, Afghanistan?'}]","{""latitude"": 36.7272, ""longitude"": 68.8294}",36.7272,68.8294,2.473212241547138
92530,al,durres,122034,41.3230556,19.4413889,"[{'role': 'system', 'content': 'Answer in json format only: {""latitude"": < e.g. ""14.832185"" >, ""longitude"": < e.g. ""4.212666"" >}. No explanation, just the answer!'}, {'role': 'user', 'content': 'What are the latitude and longitude of durres, Albania?'}]","{""latitude"": 41.317278, ""longitude"": 19.464292}",41.317278,19.464292,2.022109203307244
92635,al,elbasan,100903,41.1125,20.082222199999997,"[{'role': 'system', 'content': 'Answer in json format only: {""latitude"": < e.g. ""14.832185"" >, ""longitude"": < e.g. ""4.212666"" >}. No explanation, just the answer!'}, {'role': 'user', 'content': 'What are the latitude and longitude of elbasan, Albania?'}]","{""latitude"": 41.116667, ""longitude"": 20.183333}",41.116667,20.183333,8.504825548326766
102871,al,tirana,374801,41.3275,19.8188889,"[{'role': 'system', 'content': 'Answer in json format only: {""latitude"": < e.g. ""14.832185"" >, ""longitude"": < e.g. ""4.212666"" >}. No explanation, just the answer!'}, {'role': 'user', 'content': 'What are the latitude and longitude of tirana, Albania?'}]","{""latitude"": 41.327169, ""longitude"": 19.819487}",41.327169,19.819487,0.06211698146610384
105669,am,gyumri,148383,40.789444399999994,43.8475,"[{'role': 'system', 'content': 'Answer in json format only: {""latitude"": < e.g. ""14.832185"" >, ""longitude"": < e.g. ""4.212666"" >}. No explanation, just the answer!'}, {'role': 'user', 'content': 'What are the latitude and longitude of gyumri, Armenia?'}]","{""latitude"": 40.7617, ""longitude"": 43.8431}",40.7617,43.8431,3.1033139535718806
107254,am,vanadzor,101099,40.8127778,44.4883333,"[{'role': 'system', 'content': 'Answer in json format only: {""latitude"": < e.g. ""14.832185"" >, ""longitude"": < e.g. ""4.212666"" >}. No explanation, just the answer!'}, {'role': 'user', 'content': 'What are the latitude and longitude of vanadzor, Armenia?'}]","{""latitude"": 40.7775, ""longitude"": 44.476944}",40.7775,44.476944,4.033792518984519
107461,am,yerevan,1093499,40.1811111,44.513611100000006,"[{'role': 'system', 'content': 'Answer in json format only: {""latitude"": < e.g. ""14.832185"" >, ""longitude"": < e.g. ""4.212666"" >}. No explanation, just the answer!'}, {'role': 'user', 'content': 'What are the latitude and longitude of yerevan, Armenia?'}]","{""latitude"": 40.1833, ""longitude"": 44.5167}",40.1833,44.5167,0.35816217817470797
108559,ao,benguela,151235,-12.578333,13.407222,"[{'role': 'system', 'content': 'Answer in json format only: {""latitude"": < e.g. ""14.832185"" >, ""longitude"": < e.g. ""4.212666"" >}. No explanation, just the answer!'}, {'role': 'user', 'content': 'What are the latitude and longitude of benguela, Angola?'}]","{""latitude"": -12.491339, ""longitude"": 13.417779}",-12.491339,13.417779,9.692004345092192
115986,ao,huambo,226177,-12.776111,15.739167000000002,"[{'role': 'system', 'content': 'Answer in json format only: {""latitude"": < e.g. ""14.832185"" >, ""longitude"": < e.g. ""4.212666"" >}. No explanation, just the answer!'}, {'role': 'user', 'content': 'What are the latitude and longitude of huambo, Angola?'}]","{""latitude"": -12.014444, ""longitude"": 15.736111}",-12.014444,15.736111,84.26042606870779
116642,ao,kuito,113624,-12.383333,16.933332999999998,"[{'role': 'system', 'content': 'Answer in json format only: {""latitude"": < e.g. ""14.832185"" >, ""longitude"": < e.g. ""4.212666"" >}. No explanation, just the answer!'}, {'role': 'user', 'content': 'What are the latitude and longitude of kuito, Angola?'}]","{""latitude"": -11.3333, ""longitude"": 17.0833}",-11.3333,17.0833,117.29958976499283
116936,ao,lobito,207957,-12.319722,13.599722,"[{'role': 'system', 'content': 'Answer in json format only: {""latitude"": < e.g. ""14.832185"" >, ""longitude"": < e.g. ""4.212666"" >}. No explanation, just the answer!'}, {'role': 'user', 'content': 'What are the latitude and longitude of lobito, Angola?'}]","{""latitude"": -9.991611, ""longitude"": 12.241111}",-9.991611,12.241111,297.2191122863171
117135,ao,luanda,2776125,-8.836803999999999,13.233173999999998,"[{'role': 'system', 'content': 'Answer in json format only: {""latitude"": < e.g. ""14.832185"" >, ""longitude"": < e.g. ""4.212666"" >}. No explanation, just the answer!'}, {'role': 'user', 'content': 'What are the latitude and longitude of luanda, Angola?'}]","{""latitude"": -8.8167, ""longitude"": 13.2333}",-8.8167,13.2333,2.2235541507149144
117180,ao,lubango,102541,-14.916667000000002,13.5,"[{'role': 'system', 'content': 'Answer in json format only: {""latitude"": < e.g. ""14.832185"" >, ""longitude"": < e.g. ""4.212666"" >}. No explanation, just the answer!'}, {'role': 'user', 'content': 'What are the latitude and longitude of lubango, Angola?'}]","{""latitude"": -9.96, ""longitude"": 15.7333}",-9.96,15.7333,599.658659834475
127933,ar,bahia blanca,282950,-38.719595,-62.272431999999995,"[{'role': 'system', 'content': 'Answer in json format only: {""latitude"": < e.g. ""14.832185"" >, ""longitude"": < e.g. ""4.212666"" >}. No explanation, just the answer!'}, {'role': 'user', 'content': 'What are the latitude and longitude of bahia blanca, Argentina?'}]","{""latitude"": -38.783333, ""longitude"": -62.283333}",-38.783333,-62.283333,7.138775596857571
128679,ar,catamarca,213601,-28.469574,-65.785239,"[{'role': 'system', 'content': 'Answer in json format only: {""latitude"": < e.g. ""14.832185"" >, ""longitude"": < e.g. ""4.212666"" >}. No explanation, just the answer!'}, {'role': 'user', 'content': 'What are the latitude and longitude of catamarca, Argentina?'}]","{""latitude"": -28.684, ""longitude"": -65.787}",-28.684,-65.787,23.76520407914617
129279,ar,comodoro rivadavia,142597,-45.864135,-67.496558,"[{'role': 'system', 'content': 'Answer in json format only: {""latitude"": < e.g. ""14.832185"" >, ""longitude"": < e.g. ""4.212666"" >}. No explanation, just the answer!'}, {'role': 'user', 'content': 'What are the latitude and longitude of comodoro rivadavia, Argentina?'}]","{""latitude"": -45.0167, ""longitude"": -67.4914}",-45.0167,-67.4914,94.18511603074784
129295,ar,concordia,155686,-31.392959,-58.02089,"[{'role': 'system', 'content': 'Answer in json format only: {""latitude"": < e.g. ""14.832185"" >, ""longitude"": < e.g. ""4.212666"" >}. No explanation, just the answer!'}, {'role': 'user', 'content': 'What are the latitude and longitude of concordia, Argentina?'}]","{""latitude"": -51.5123, ""longitude"": -72.9508}",-51.5123,-72.9508,2547.86796087245
129336,ar,cordoba,1441007,-31.413496,-64.18105200000001,"[{'role': 'system', 'content': 'Answer in json format only: {""latitude"": < e.g. ""14.832185"" >, ""longitude"": < e.g. ""4.212666"" >}. No explanation, just the answer!'}, {'role': 'user', 'content': 'What are the latitude and longitude of cordoba, Argentina?'}]","{""latitude"": -31.4157, ""longitude"": -64.1795}",-31.4157,-64.1795,0.2854764656184892
129422,ar,corrientes,390481,-27.480596,-58.834099,"[{'role': 'system', 'content': 'Answer in json format only: {""latitude"": < e.g. ""14.832185"" >, ""longitude"": < e.g. ""4.212666"" >}. No explanation, just the answer!'}, {'role': 'user', 'content': 'What are the latitude and longitude of corrientes, Argentina?'}]","{""latitude"": -28.4167, ""longitude"": -59.1}",-28.4167,-59.1,106.98693151286483
130450,ar,formosa,248756,-26.177534,-58.178139,"[{'role': 'system', 'content': 'Answer in json format only: {""latitude"": < e.g. ""14.832185"" >, ""longitude"": < e.g. ""4.212666"" >}. No explanation, just the answer!'}, {'role': 'user', 'content': 'What are the latitude and longitude of formosa, Argentina?'}]","{""latitude"": -25.7833, ""longitude"": -61.3333}",-25.7833,-61.3333,318.9358859156388
131309,ar,jujuy,277150,-24.194565,-65.297116,"[{'role': 'system', 'content': 'Answer in json format only: {""latitude"": < e.g. ""14.832185"" >, ""longitude"": < e.g. ""4.212666"" >}. No explanation, just the answer!'}, {'role': 'user', 'content': 'What are the latitude and longitude of jujuy, Argentina?'}]","{""latitude"": -24.166667, ""longitude"": -66.133333}",-24.166667,-66.133333,85.02343082703942
131741,ar,la plata,684318,-34.921454,-57.954533,"[{'role': 'system', 'content': 'Answer in json format only: {""latitude"": < e.g. ""14.832185"" >, ""longitude"": < e.g. ""4.212666"" >}. No explanation, just the answer!'}, {'role': 'user', 'content': 'What are the latitude and longitude of la plata, Argentina?'}]","{""latitude"": -34.8383, ""longitude"": -58.3356}",-34.8383,-58.3356,36.0383314911576
131795,ar,la rioja,178497,-29.411047999999997,-66.850668,"[{'role': 'system', 'content': 'Answer in json format only: {""latitude"": < e.g. ""14.832185"" >, ""longitude"": < e.g. ""4.212666"" >}. No explanation, just the answer!'}, {'role': 'user', 'content': 'What are the latitude and longitude of la rioja, Argentina?'}]","{""latitude"": -29.066667, ""longitude"": -68.833333}",-29.066667,-68.833333,196.48347545346672
132571,ar,mar del plata,645771,-38.002278,-57.557539,"[{'role': 'system', 'content': 'Answer in json format only: {""latitude"": < e.g. ""14.832185"" >, ""longitude"": < e.g. ""4.212666"" >}. No explanation, just the answer!'}, {'role': 'user', 'content': 'What are the latitude and longitude of mar del plata, Argentina?'}]","{""latitude"": -38.000001, ""longitude"": -57.533333}",-38.000001,-57.533333,2.1410094808764804
132705,ar,mendoza,973047,-32.890845,-68.82717099999999,"[{'role': 'system', 'content': 'Answer in json format only: {""latitude"": < e.g. ""14.832185"" >, ""longitude"": < e.g. ""4.212666"" >}. No explanation, just the answer!'}, {'role': 'user', 'content': 'What are the latitude and longitude of mendoza, Argentina?'}]","{""latitude"": -32.895335, ""longitude"": -68.837722}",-32.895335,-68.837722,1.105687501125324
132712,ar,mercedes,126559,-33.674359,-65.461405,"[{'role': 'system', 'content': 'Answer in json format only: {""latitude"": < e.g. ""14.832185"" >, ""longitude"": < e.g. ""4.212666"" >}. No explanation, just the answer!'}, {'role': 'user', 'content': 'What are the latitude and longitude of mercedes, Argentina?'}]","{""latitude"": -32.9159, ""longitude"": -60.8487}",-32.9159,-60.8487,437.74764312277915
133003,ar,neuquen,359037,-38.951606,-68.059102,"[{'role': 'system', 'content': 'Answer in json format only: {""latitude"": < e.g. ""14.832185"" >, ""longitude"": < e.g. ""4.212666"" >}. No explanation, just the answer!'}, {'role': 'user', 'content': 'What are the latitude and longitude of neuquen, Argentina?'}]","{""latitude"": -38.968206, ""longitude"": -68.024071}",-38.968206,-68.024071,3.5518055513854963
133317,ar,parana,299257,-31.731966999999997,-60.523802,"[{'role': 'system', 'content': 'Answer in json format only: {""latitude"": < e.g. ""14.832185"" >, ""longitude"": < e.g. ""4.212666"" >}. No explanation, just the answer!'}, {'role': 'user', 'content': 'What are the latitude and longitude of parana, Argentina?'}]","{""latitude"": -31.6895, ""longitude"": -58.3897}",-31.6895,-58.3897,202.34009758076996
133624,ar,posadas,313438,-27.367077,-55.896078,"[{'role': 'system', 'content': 'Answer in json format only: {""latitude"": < e.g. ""14.832185"" >, ""longitude"": < e.g. ""4.212666"" >}. No explanation, just the answer!'}, {'role': 'user', 'content': 'What are the latitude and longitude of posadas, Argentina?'}]","{""latitude"": -27.38667, ""longitude"": -59.95833}",-27.38667,-59.95833,401.8336047296537
134159,ar,resistencia,406967,-27.460559999999997,-58.983886,"[{'role': 'system', 'content': 'Answer in json format only: {""latitude"": < e.g. ""14.832185"" >, ""longitude"": < e.g. ""4.212666"" >}. No explanation, just the answer!'}, {'role': 'user', 'content': 'What are the latitude and longitude of resistencia, Argentina?'}]","{""latitude"": -27.433333, ""longitude"": -58.983333}",-27.433333,-58.983333,3.0175352477458706
134212,ar,rio cuarto,174058,-33.130671,-64.349918,"[{'role': 'system', 'content': 'Answer in json format only: {""latitude"": < e.g. ""14.832185"" >, ""longitude"": < e.g. ""4.212666"" >}. No explanation, just the answer!'}, {'role': 'user', 'content': 'What are the latitude and longitude of rio cuarto, Argentina?'}]","{""latitude"": -32.978783, ""longitude"": -68.393087}",-32.978783,-68.393087,377.96569590475775
134317,ar,rosario,1218497,-32.946818,-60.639317000000005,"[{'role': 'system', 'content': 'Answer in json format only: {""latitude"": < e.g. ""14.832185"" >, ""longitude"": < e.g. ""4.212666"" >}. No explanation, just the answer!'}, {'role': 'user', 'content': 'What are the latitude and longitude of rosario, Argentina?'}]","{""latitude"": -32.9465, ""longitude"": -60.6615}",-32.9465,-60.6615,2.074618973897558
134402,ar,salta,548288,-24.785895999999997,-65.411664,"[{'role': 'system', 'content': 'Answer in json format only: {""latitude"": < e.g. ""14.832185"" >, ""longitude"": < e.g. ""4.212666"" >}. No explanation, just the answer!'}, {'role': 'user', 'content': 'What are the latitude and longitude of salta, Argentina?'}]","{""latitude"": -24.783333, ""longitude"": -65.416667}",-24.783333,-65.416667,0.5801431795018285
134483,ar,san carlos de bariloche,110044,-41.140293,-71.301369,"[{'role': 'system', 'content': 'Answer in json format only: {""latitude"": < e.g. ""14.832185"" >, ""longitude"": < e.g. ""4.212666"" >}. No explanation, just the answer!'}, {'role': 'user', 'content': 'What are the latitude and longitude of san carlos de bariloche, Argentina?'}]","{""latitude"": -41.157539, ""longitude"": -71.332881}",-41.157539,-71.332881,3.265866835497473
134640,ar,san juan,469958,-31.5375,-68.536389,"[{'role': 'system', 'content': 'Answer in json format only: {""latitude"": < e.g. ""14.832185"" >, ""longitude"": < e.g. ""4.212666"" >}. No explanation, just the answer!'}, {'role': 'user', 'content': 'What are the latitude and longitude of san juan, Argentina?'}]","{""latitude"": -31.523043, ""longitude"": -68.521479}",-31.523043,-68.521479,2.1388444165977107
134659,ar,san luis,184869,-33.295012,-66.335627,"[{'role': 'system', 'content': 'Answer in json format only: {""latitude"": < e.g. ""14.832185"" >, ""longitude"": < e.g. ""4.212666"" >}. No explanation, just the answer!'}, {'role': 'user', 'content': 'What are the latitude and longitude of san luis, Argentina?'}]","{""latitude"": -35.383333, ""longitude"": -61.55}",-35.383333,-61.55,497.48180988298014
134678,ar,san martin,107554,-33.081031,-68.468138,"[{'role': 'system', 'content': 'Answer in json format only: {""latitude"": < e.g. ""14.832185"" >, ""longitude"": < e.g. ""4.212666"" >}. No explanation, just the answer!'}, {'role': 'user', 'content': 'What are the latitude and longitude of san martin, Argentina?'}]","{""latitude"": -31.256666, ""longitude"": -62.183333}",-31.256666,-62.183333,626.2188156156667
134703,ar,san nicolas,130705,-33.335784000000004,-60.225233,"[{'role': 'system', 'content': 'Answer in json format only: {""latitude"": < e.g. ""14.832185"" >, ""longitude"": < e.g. ""4.212666"" >}. No explanation, just the answer!'}, {'role': 'user', 'content': 'What are the latitude and longitude of san nicolas, Argentina?'}]","{""latitude"": -33.64527778, ""longitude"": -60.35361111}",-33.64527778,-60.35361111,36.34110706083708
134735,ar,san rafael,125033,-34.617717,-68.330066,"[{'role': 'system', 'content': 'Answer in json format only: {""latitude"": < e.g. ""14.832185"" >, ""longitude"": < e.g. ""4.212666"" >}. No explanation, just the answer!'}, {'role': 'user', 'content': 'What are the latitude and longitude of san rafael, Argentina?'}]","{""latitude"": -31.483333, ""longitude"": -60.666667}",-31.483333,-60.666667,795.3839947474052
134802,ar,santa fe,456044,-31.629484,-60.701036,"[{'role': 'system', 'content': 'Answer in json format only: {""latitude"": < e.g. ""14.832185"" >, ""longitude"": < e.g. ""4.212666"" >}. No explanation, just the answer!'}, {'role': 'user', 'content': 'What are the latitude and longitude of santa fe, Argentina?'}]","{""latitude"": -31.6233, ""longitude"": -60.6972}",-31.6233,-60.6972,0.7762814472710243
134880,ar,santiago del estero,407636,-27.795112,-64.261489,"[{'role': 'system', 'content': 'Answer in json format only: {""latitude"": < e.g. ""14.832185"" >, ""longitude"": < e.g. ""4.212666"" >}. No explanation, just the answer!'}, {'role': 'user', 'content': 'What are the latitude and longitude of santiago del estero, Argentina?'}]","{""latitude"": -26.933333, ""longitude"": -64.333333}",-26.933333,-64.333333,95.75726633219936
135204,ar,tandil,100127,-37.321674,-59.133164,"[{'role': 'system', 'content': 'Answer in json format only: {""latitude"": < e.g. ""14.832185"" >, ""longitude"": < e.g. ""4.212666"" >}. No explanation, just the answer!'}, {'role': 'user', 'content': 'What are the latitude and longitude of tandil, Argentina?'}]","{""latitude"": -35.414861, ""longitude"": -60.066499}",-35.414861,-60.066499,227.5627204046515
135381,ar,trelew,107883,-43.250075,-65.313295,"[{'role': 'system', 'content': 'Answer in json format only: {""latitude"": < e.g. ""14.832185"" >, ""longitude"": < e.g. ""4.212666"" >}. No explanation, just the answer!'}, {'role': 'user', 'content': 'What are the latitude and longitude of trelew, Argentina?'}]","{""latitude"": -43.304722, ""longitude"": -65.296111}",-43.304722,-65.296111,6.229359442432545
135445,ar,tucuman,828402,-26.824144,-65.2226,"[{'role': 'system', 'content': 'Answer in json format only: {""latitude"": < e.g. ""14.832185"" >, ""longitude"": < e.g. ""4.212666"" >}. No explanation, just the answer!'}, {'role': 'user', 'content': 'What are the latitude and longitude of tucuman, Argentina?'}]","{""latitude"": -26.89215, ""longitude"": -65.2232}",-26.89215,-65.2232,7.535388634622766
139363,at,graz,222326,47.066666999999995,15.45,"[{'role': 'system', 'content': 'Answer in json format only: {""latitude"": < e.g. ""14.832185"" >, ""longitude"": < e.g. ""4.212666"" >}. No explanation, just the answer!'}, {'role': 'user', 'content': 'What are the latitude and longitude of graz, Austria?'}]","{""latitude"": 47.066667, ""longitude"": 15.433333}",47.066667,15.433333,1.2660477025190715
140951,at,innsbruck,112467,47.266667,11.4,"[{'role': 'system', 'content': 'Answer in json format only: {""latitude"": < e.g. ""14.832185"" >, ""longitude"": < e.g. ""4.212666"" >}. No explanation, just the answer!'}, {'role': 'user', 'content': 'What are the latitude and longitude of innsbruck, Austria?'}]","{""latitude"": 47.258158, ""longitude"": 11.397421}",47.258158,11.397421,0.9659225865110029
142702,at,linz,181163,48.3,14.3,"[{'role': 'system', 'content': 'Answer in json format only: {""latitude"": < e.g. ""14.832185"" >, ""longitude"": < e.g. ""4.212666"" >}. No explanation, just the answer!'}, {'role': 'user', 'content': 'What are the latitude and longitude of linz, Austria?'}]","{""latitude"": 48.310469, ""longitude"": 14.28413}",48.310469,14.28413,1.655656727413959
146657,at,salzburg,145310,47.8,13.033333,"[{'role': 'system', 'content': 'Answer in json format only: {""latitude"": < e.g. ""14.832185"" >, ""longitude"": < e.g. ""4.212666"" >}. No explanation, just the answer!'}, {'role': 'user', 'content': 'What are the latitude and longitude of salzburg, Austria?'}]","{""latitude"": ""47.7933"", ""longitude"": ""13.0456""}",47.7933,13.0456,1.183024885211702
149599,at,vienna,1569315,48.2,16.366667,"[{'role': 'system', 'content': 'Answer in json format only: {""latitude"": < e.g. ""14.832185"" >, ""longitude"": < e.g. ""4.212666"" >}. No explanation, just the answer!'}, {'role': 'user', 'content': 'What are the latitude and longitude of vienna, Austria?'}]","{""latitude"": 48.2089, ""longitude"": 16.3734}",48.2089,16.3734,1.1089771483383817
150905,au,adelaide,1074168,-34.928661,138.598633,"[{'role': 'system', 'content': 'Answer in json format only: {""latitude"": < e.g. ""14.832185"" >, ""longitude"": < e.g. ""4.212666"" >}. No explanation, just the answer!'}, {'role': 'user', 'content': 'What are the latitude and longitude of adelaide, Australia?'}]","{""latitude"": -34.928597, ""longitude"": 138.600445}",-34.928597,138.600445,0.16570984068248854
150938,au,albury,104261,-36.074940000000005,146.923935,"[{'role': 'system', 'content': 'Answer in json format only: {""latitude"": < e.g. ""14.832185"" >, ""longitude"": < e.g. ""4.212666"" >}. No explanation, just the answer!'}, {'role': 'user', 'content': 'What are the latitude and longitude of albury, Australia?'}]","{""latitude"": ""-36.0947"", ""longitude"": ""146.9493""}",-36.0947,146.9493,3.1664777908199015
152164,au,brisbane,1843459,-27.471009999999996,153.024292,"[{'role': 'system', 'content': 'Answer in json format only: {""latitude"": < e.g. ""14.832185"" >, ""longitude"": < e.g. ""4.212666"" >}. No explanation, just the answer!'}, {'role': 'user', 'content': 'What are the latitude and longitude of brisbane, Australia?'}]","{""latitude"": ""-27.47012"", ""longitude"": ""153.02105""}",-27.47012,153.02105,0.3352674794604546
152534,au,cairns,154318,-16.92304,145.766251,"[{'role': 'system', 'content': 'Answer in json format only: {""latitude"": < e.g. ""14.832185"" >, ""longitude"": < e.g. ""4.212666"" >}. No explanation, just the answer!'}, {'role': 'user', 'content': 'What are the latitude and longitude of cairns, Australia?'}]","{""latitude"": ""-16.9243"", ""longitude"": ""145.78""}",-16.9243,145.78,1.471287821299253
152621,au,canberra,324025,-35.27603,149.13435,"[{'role': 'system', 'content': 'Answer in json format only: {""latitude"": < e.g. ""14.832185"" >, ""longitude"": < e.g. ""4.212666"" >}. No explanation, just the answer!'}, {'role': 'user', 'content': 'What are the latitude and longitude of canberra, Australia?'}]","{""latitude"": -35.283372, ""longitude"": 149.129059}",-35.283372,149.129059,0.9461593049226256
154465,au,geelong,150438,-38.153461,144.358093,"[{'role': 'system', 'content': 'Answer in json format only: {""latitude"": < e.g. ""14.832185"" >, ""longitude"": < e.g. ""4.212666"" >}. No explanation, just the answer!'}, {'role': 'user', 'content': 'What are the latitude and longitude of geelong, Australia?'}]","{""latitude"": -38.150116, ""longitude"": 144.368519}",-38.150116,144.368519,0.9863980656942456
154704,au,gold coast,501175,-28.000290000000003,153.430878,"[{'role': 'system', 'content': 'Answer in json format only: {""latitude"": < e.g. ""14.832185"" >, ""longitude"": < e.g. ""4.212666"" >}. No explanation, just the answer!'}, {'role': 'user', 'content': 'What are the latitude and longitude of gold coast, Australia?'}]","{""latitude"": ""-28.0000"", ""longitude"": ""153.3333""}",-28.0,153.3333,9.597995054215199
155251,au,hobart,204863,-42.883209,147.331665,"[{'role': 'system', 'content': 'Answer in json format only: {""latitude"": < e.g. ""14.832185"" >, ""longitude"": < e.g. ""4.212666"" >}. No explanation, just the answer!'}, {'role': 'user', 'content': 'What are the latitude and longitude of hobart, Australia?'}]","{""latitude"": -42.88297, ""longitude"": 147.32945}",-42.88297,147.32945,0.18289274117702
156937,au,melbourne,3730212,-37.813938,144.963425,"[{'role': 'system', 'content': 'Answer in json format only: {""latitude"": < e.g. ""14.832185"" >, ""longitude"": < e.g. ""4.212666"" >}. No explanation, just the answer!'}, {'role': 'user', 'content': 'What are the latitude and longitude of melbourne, Australia?'}]","{""latitude"": -37.7749, ""longitude"": 144.3943}",-37.7749,144.3943,50.31371199771745
157956,au,newcastle,497961,-32.927792,151.78448500000002,"[{'role': 'system', 'content': 'Answer in json format only: {""latitude"": < e.g. ""14.832185"" >, ""longitude"": < e.g. ""4.212666"" >}. No explanation, just the answer!'}, {'role': 'user', 'content': 'What are the latitude and longitude of newcastle, Australia?'}]","{""latitude"": -32.927264, ""longitude"": 151.793608}",-32.927264,151.793608,0.8552769256640176
158599,au,perth,1446715,-31.952240000000003,115.861397,"[{'role': 'system', 'content': 'Answer in json format only: {""latitude"": < e.g. ""14.832185"" >, ""longitude"": < e.g. ""4.212666"" >}. No explanation, just the answer!'}, {'role': 'user', 'content': 'What are the latitude and longitude of perth, Australia?'}]","{""latitude"": -31.952351, ""longitude"": 115.858870}",-31.952351,115.85887,0.23922456684300514
159856,au,sydney,4394585,-33.861481,151.205475,"[{'role': 'system', 'content': 'Answer in json format only: {""latitude"": < e.g. ""14.832185"" >, ""longitude"": < e.g. ""4.212666"" >}. No explanation, just the answer!'}, {'role': 'user', 'content': 'What are the latitude and longitude of sydney, Australia?'}]","{""latitude"": ""-33.865143"", ""longitude"": ""151.209900""}",-33.865143,151.2099,0.5767527721995176
160351,au,townsville,138959,-19.26639,146.805695,"[{'role': 'system', 'content': 'Answer in json format only: {""latitude"": < e.g. ""14.832185"" >, ""longitude"": < e.g. ""4.212666"" >}. No explanation, just the answer!'}, {'role': 'user', 'content': 'What are the latitude and longitude of townsville, Australia?'}]","{""latitude"": ""-19.266667"", ""longitude"": ""146.85""}",-19.266667,146.85,4.657585802678906
161339,au,wollongong,260918,-34.424,150.893448,"[{'role': 'system', 'content': 'Answer in json format only: {""latitude"": < e.g. ""14.832185"" >, ""longitude"": < e.g. ""4.212666"" >}. No explanation, just the answer!'}, {'role': 'user', 'content': 'What are the latitude and longitude of wollongong, Australia?'}]","{""latitude"": -34.433333, ""longitude"": 150.883333}",-34.433333,150.883333,1.3915127674357908
163345,az,baku,1116513,40.395278000000005,49.882222,"[{'role': 'system', 'content': 'Answer in json format only: {""latitude"": < e.g. ""14.832185"" >, ""longitude"": < e.g. ""4.212666"" >}. No explanation, just the answer!'}, {'role': 'user', 'content': 'What are the latitude and longitude of baku, Azerbaijan?'}]","{""latitude"": 40.369176, ""longitude"": 49.826878}",40.369176,49.826878,5.521493370023283
173521,ba,banja luka,221100,44.775833299999995,17.1855556,"[{'role': 'system', 'content': 'Answer in json format only: {""latitude"": < e.g. ""14.832185"" >, ""longitude"": < e.g. ""4.212666"" >}. No explanation, just the answer!'}, {'role': 'user', 'content': 'What are the latitude and longitude of banja luka, Bosnia and Herzegovina?'}]","{""latitude"": ""44.769722"", ""longitude"": ""17.197222""}",44.769722,17.197222,1.1463199471853993
182374,ba,mostar,104517,43.3433333,17.8080556,"[{'role': 'system', 'content': 'Answer in json format only: {""latitude"": < e.g. ""14.832185"" >, ""longitude"": < e.g. ""4.212666"" >}. No explanation, just the answer!'}, {'role': 'user', 'content': 'What are the latitude and longitude of mostar, Bosnia and Herzegovina?'}]","{""latitude"": 43.358333, ""longitude"": 17.922222}",43.358333,17.922222,9.404915912936412
185607,ba,sarajevo,696726,43.85,18.3833333,"[{'role': 'system', 'content': 'Answer in json format only: {""latitude"": < e.g. ""14.832185"" >, ""longitude"": < e.g. ""4.212666"" >}. No explanation, just the answer!'}, {'role': 'user', 'content': 'What are the latitude and longitude of sarajevo, Bosnia and Herzegovina?'}]","{""latitude"": 43.85, ""longitude"": 18.43}",43.85,18.43,3.75237532415779
187624,ba,tuzla,142484,44.5427778,18.6694444,"[{'role': 'system', 'content': 'Answer in json format only: {""latitude"": < e.g. ""14.832185"" >, ""longitude"": < e.g. ""4.212666"" >}. No explanation, just the answer!'}, {'role': 'user', 'content': 'What are the latitude and longitude of tuzla, Bosnia and Herzegovina?'}]","{""latitude"": 44.513333, ""longitude"": 18.716667}",44.513333,18.716667,4.979639518878426
188922,ba,zenica,164422,44.2013889,17.9063889,"[{'role': 'system', 'content': 'Answer in json format only: {""latitude"": < e.g. ""14.832185"" >, ""longitude"": < e.g. ""4.212666"" >}. No explanation, just the answer!'}, {'role': 'user', 'content': 'What are the latitude and longitude of zenica, Bosnia and Herzegovina?'}]","{""latitude"": 44.210833, ""longitude"": 18.0025}",44.210833,18.0025,7.753313464095
192688,bd,barisal,280437,22.7,90.3666667,"[{'role': 'system', 'content': 'Answer in json format only: {""latitude"": < e.g. ""14.832185"" >, ""longitude"": < e.g. ""4.212666"" >}. No explanation, just the answer!'}, {'role': 'user', 'content': 'What are the latitude and longitude of barisal, Bangladesh?'}]","{""latitude"": 22.7782, ""longitude"": 90.3733}",22.7782,90.3733,8.686661166675393
193449,bd,bhairab bazar,105470,24.0666667,90.9666667,"[{'role': 'system', 'content': 'Answer in json format only: {""latitude"": < e.g. ""14.832185"" >, ""longitude"": < e.g. ""4.212666"" >}. No explanation, just the answer!'}, {'role': 'user', 'content': 'What are the latitude and longitude of bhairab bazar, Bangladesh?'}]","{""latitude"": ""24.136412"", ""longitude"": ""91.183684""}",24.136412,91.183684,23.37773806064075
195401,bd,chandpur,120183,23.15,90.7166667,"[{'role': 'system', 'content': 'Answer in json format only: {""latitude"": < e.g. ""14.832185"" >, ""longitude"": < e.g. ""4.212666"" >}. No explanation, just the answer!'}, {'role': 'user', 'content': 'What are the latitude and longitude of chandpur, Bangladesh?'}]","{""latitude"": 23.2667, ""longitude"": 90.1833}",23.2667,90.1833,56.10660525340204
198311,bd,dhaka,6493177,23.7230556,90.4086111,"[{'role': 'system', 'content': 'Answer in json format only: {""latitude"": < e.g. ""14.832185"" >, ""longitude"": < e.g. ""4.212666"" >}. No explanation, just the answer!'}, {'role': 'user', 'content': 'What are the latitude and longitude of dhaka, Bangladesh?'}]","{""latitude"": 23.8103, ""longitude"": 90.4192}",23.8103,90.4192,9.722840070847916
198891,bd,dinajpur,206251,25.6333333,88.6333333,"[{'role': 'system', 'content': 'Answer in json format only: {""latitude"": < e.g. ""14.832185"" >, ""longitude"": < e.g. ""4.212666"" >}. No explanation, just the answer!'}, {'role': 'user', 'content': 'What are the latitude and longitude of dinajpur, Bangladesh?'}]","{""latitude"": 25.6231, ""longitude"": 88.6559}",25.6231,88.6559,2.5341134420651215
199526,bd,faridpur,112200,23.6,89.83333329999999,"[{'role': 'system', 'content': 'Answer in json format only: {""latitude"": < e.g. ""14.832185"" >, ""longitude"": < e.g. ""4.212666"" >}. No explanation, just the answer!'}, {'role': 'user', 'content': 'What are the latitude and longitude of faridpur, Bangladesh?'}]","{""latitude"": 23.5786, ""longitude"": 89.8184}",23.5786,89.8184,2.8179391773595746
200104,bd,gazipur,132249,23.8,90.65,"[{'role': 'system', 'content': 'Answer in json format only: {""latitude"": < e.g. ""14.832185"" >, ""longitude"": < e.g. ""4.212666"" >}. No explanation, just the answer!'}, {'role': 'user', 'content': 'What are the latitude and longitude of gazipur, Bangladesh?'}]","{""latitude"": 23.9254, ""longitude"": 90.3803}",23.9254,90.3803,30.782815608911665
202157,bd,jamalpur,167914,24.9166667,89.9333333,"[{'role': 'system', 'content': 'Answer in json format only: {""latitude"": < e.g. ""14.832185"" >, ""longitude"": < e.g. ""4.212666"" >}. No explanation, just the answer!'}, {'role': 'user', 'content': 'What are the latitude and longitude of jamalpur, Bangladesh?'}]","{""latitude"": 24.927515, ""longitude"": 89.949128}",24.927515,89.949128,1.9973993728591044
205021,bd,khulna,1342429,22.8,89.55,"[{'role': 'system', 'content': 'Answer in json format only: {""latitude"": < e.g. ""14.832185"" >, ""longitude"": < e.g. ""4.212666"" >}. No explanation, just the answer!'}, {'role': 'user', 'content': 'What are the latitude and longitude of khulna, Bangladesh?'}]","{""latitude"": 23.8408, ""longitude"": 89.5671}",23.8408,89.5671,115.2803398267734
208581,bd,narayanganj,223773,23.6233333,90.5011111,"[{'role': 'system', 'content': 'Answer in json format only: {""latitude"": < e.g. ""14.832185"" >, ""longitude"": < e.g. ""4.212666"" >}. No explanation, just the answer!'}, {'role': 'user', 'content': 'What are the latitude and longitude of narayanganj, Bangladesh?'}]","{""latitude"": 23.623583, ""longitude"": 90.480556}",23.623583,90.480556,2.0977406464542465
208651,bd,narsingdi,281110,23.9208333,90.7180556,"[{'role': 'system', 'content': 'Answer in json format only: {""latitude"": < e.g. ""14.832185"" >, ""longitude"": < e.g. ""4.212666"" >}. No explanation, just the answer!'}, {'role': 'user', 'content': 'What are the latitude and longitude of narsingdi, Bangladesh?'}]","{""latitude"": 23.9144, ""longitude"": 90.4155}",23.9144,90.4155,30.813369096084795
208758,bd,nawabganj,142373,24.6,88.2833333,"[{'role': 'system', 'content': 'Answer in json format only: {""latitude"": < e.g. ""14.832185"" >, ""longitude"": < e.g. ""4.212666"" >}. No explanation, just the answer!'}, {'role': 'user', 'content': 'What are the latitude and longitude of nawabganj, Bangladesh?'}]","{""latitude"": 24.7667, ""longitude"": 88.5667}",24.7667,88.5667,34.10907605638388
209466,bd,pabna,137904,24.0,89.25,"[{'role': 'system', 'content': 'Answer in json format only: {""latitude"": < e.g. ""14.832185"" >, ""longitude"": < e.g. ""4.212666"" >}. No explanation, just the answer!'}, {'role': 'user', 'content': 'What are the latitude and longitude of pabna, Bangladesh?'}]","{""latitude"": 24.049722, ""longitude"": 89.358333}",24.049722,89.358333,12.320309690351039
211478,bd,rajshahi,700206,24.3666667,88.6,"[{'role': 'system', 'content': 'Answer in json format only: {""latitude"": < e.g. ""14.832185"" >, ""longitude"": < e.g. ""4.212666"" >}. No explanation, just the answer!'}, {'role': 'user', 'content': 'What are the latitude and longitude of rajshahi, Bangladesh?'}]","{""latitude"": 24.373889, ""longitude"": 88.586111}",24.373889,88.586111,1.6203929445221086
211735,bd,rangpur,285586,25.75,89.25,"[{'role': 'system', 'content': 'Answer in json format only: {""latitude"": < e.g. ""14.832185"" >, ""longitude"": < e.g. ""4.212666"" >}. No explanation, just the answer!'}, {'role': 'user', 'content': 'What are the latitude and longitude of rangpur, Bangladesh?'}]","{""latitude"": 25.752572, ""longitude"": 89.232406}",25.752572,89.232406,1.7880133712146073
213021,bd,satkhira,128933,22.7166667,89.1,"[{'role': 'system', 'content': 'Answer in json format only: {""latitude"": < e.g. ""14.832185"" >, ""longitude"": < e.g. ""4.212666"" >}. No explanation, just the answer!'}, {'role': 'user', 'content': 'What are the latitude and longitude of satkhira, Bangladesh?'}]","{""latitude"": 23.0061, ""longitude"": 89.2243}",23.0061,89.2243,34.497647251107274
213353,bd,sherpur,107431,25.0166667,90.0166667,"[{'role': 'system', 'content': 'Answer in json format only: {""latitude"": < e.g. ""14.832185"" >, ""longitude"": < e.g. ""4.212666"" >}. No explanation, just the answer!'}, {'role': 'user', 'content': 'What are the latitude and longitude of sherpur, Bangladesh?'}]","{""latitude"": 24.028398, ""longitude"": 90.3314}",24.028398,90.3314,114.01791512008747
213705,bd,sirajganj,167501,24.45,89.7166667,"[{'role': 'system', 'content': 'Answer in json format only: {""latitude"": < e.g. ""14.832185"" >, ""longitude"": < e.g. ""4.212666"" >}. No explanation, just the answer!'}, {'role': 'user', 'content': 'What are the latitude and longitude of sirajganj, Bangladesh?'}]","{""latitude"": ""24.471944"", ""longitude"": ""89.893611""}",24.471944,89.893611,18.10359444614483
215372,bd,tungi,337620,23.89,90.4058333,"[{'role': 'system', 'content': 'Answer in json format only: {""latitude"": < e.g. ""14.832185"" >, ""longitude"": < e.g. ""4.212666"" >}. No explanation, just the answer!'}, {'role': 'user', 'content': 'What are the latitude and longitude of tungi, Bangladesh?'}]","{""latitude"": ""24.2626"", ""longitude"": ""90.6624""}",24.2626,90.6624,48.824633598037316
216365,be,antwerp,459805,51.216667,4.4166669999999995,"[{'role': 'system', 'content': 'Answer in json format only: {""latitude"": < e.g. ""14.832185"" >, ""longitude"": < e.g. ""4.212666"" >}. No explanation, just the answer!'}, {'role': 'user', 'content': 'What are the latitude and longitude of antwerp, Belgium?'}]","{""latitude"": 51.221420, ""longitude"": 4.402380}",51.22142,4.40238,1.1295946132902954
218048,be,brugge,116709,51.216667,3.233333,"[{'role': 'system', 'content': 'Answer in json format only: {""latitude"": < e.g. ""14.832185"" >, ""longitude"": < e.g. ""4.212666"" >}. No explanation, just the answer!'}, {'role': 'user', 'content': 'What are the latitude and longitude of brugge, Belgium?'}]","{""latitude"": 51.204444, ""longitude"": 3.224722}",51.204444,3.224722,1.4870232521901083
218097,be,brussels,1019022,50.833333,4.3333330000000005,"[{'role': 'system', 'content': 'Answer in json format only: {""latitude"": < e.g. ""14.832185"" >, ""longitude"": < e.g. ""4.212666"" >}. No explanation, just the answer!'}, {'role': 'user', 'content': 'What are the latitude and longitude of brussels, Belgium?'}]","{""latitude"": 50.850327, ""longitude"": 4.351705}",50.850327,4.351705,2.2909749537040236
218440,be,charleroi,200132,50.416667,4.433333,"[{'role': 'system', 'content': 'Answer in json format only: {""latitude"": < e.g. ""14.832185"" >, ""longitude"": < e.g. ""4.212666"" >}. No explanation, just the answer!'}, {'role': 'user', 'content': 'What are the latitude and longitude of charleroi, Belgium?'}]","{""latitude"": 50.41717, ""longitude"": 4.45765}",50.41717,4.45765,1.7292078012311367
220688,be,gent,231493,51.05,3.716667,"[{'role': 'system', 'content': 'Answer in json format only: {""latitude"": < e.g. ""14.832185"" >, ""longitude"": < e.g. ""4.212666"" >}. No explanation, just the answer!'}, {'role': 'user', 'content': 'What are the latitude and longitude of gent, Belgium?'}]","{""latitude"": 51.0561, ""longitude"": 3.7209}",51.0561,3.7209,0.7406894748966671
224980,be,liege,182597,50.633333,5.566667,"[{'role': 'system', 'content': 'Answer in json format only: {""latitude"": < e.g. ""14.832185"" >, ""longitude"": < e.g. ""4.212666"" >}. No explanation, just the answer!'}, {'role': 'user', 'content': 'What are the latitude and longitude of liege, Belgium?'}]","{""latitude"": 50.64585, ""longitude"": 5.55546}",50.64585,5.55546,1.602282013964343
226408,be,namur,106284,50.466667,4.866667,"[{'role': 'system', 'content': 'Answer in json format only: {""latitude"": < e.g. ""14.832185"" >, ""longitude"": < e.g. ""4.212666"" >}. No explanation, just the answer!'}, {'role': 'user', 'content': 'What are the latitude and longitude of namur, Belgium?'}]","{""latitude"": ""50.466667"", ""longitude"": ""4.866667""}",50.466667,4.866667,0.0
233219,bf,bobo dioulasso,370809,11.2,-4.3,"[{'role': 'system', 'content': 'Answer in json format only: {""latitude"": < e.g. ""14.832185"" >, ""longitude"": < e.g. ""4.212666"" >}. No explanation, just the answer!'}, {'role': 'user', 'content': 'What are the latitude and longitude of bobo dioulasso, Burkina Faso?'}]","{""latitude"": ""11.199302"", ""longitude"": ""-4.281139""}",11.199302,-4.281139,2.0613195449336956
238758,bf,ouagadougou,1031330,12.3702778,-1.5247222,"[{'role': 'system', 'content': 'Answer in json format only: {""latitude"": < e.g. ""14.832185"" >, ""longitude"": < e.g. ""4.212666"" >}. No explanation, just the answer!'}, {'role': 'user', 'content': 'What are the latitude and longitude of ouagadougou, Burkina Faso?'}]","{""latitude"": ""12.343056"", ""longitude"": ""1.516667""}",12.343056,1.516667,330.7854478355201
245134,bg,burgas,188554,42.5,27.4666667,"[{'role': 'system', 'content': 'Answer in json format only: {""latitude"": < e.g. ""14.832185"" >, ""longitude"": < e.g. ""4.212666"" >}. No explanation, just the answer!'}, {'role': 'user', 'content': 'What are the latitude and longitude of burgas, Bulgaria?'}]","{""latitude"": 42.5125, ""longitude"": 27.4858}",42.5125,27.4858,2.097868886849556
256587,bg,pleven,132542,43.4166667,24.6166667,"[{'role': 'system', 'content': 'Answer in json format only: {""latitude"": < e.g. ""14.832185"" >, ""longitude"": < e.g. ""4.212666"" >}. No explanation, just the answer!'}, {'role': 'user', 'content': 'What are the latitude and longitude of pleven, Bulgaria?'}]","{""latitude"": 43.633333, ""longitude"": 25.216667}",43.633333,25.216667,54.15058704418758
256601,bg,plovdiv,332088,42.15,24.75,"[{'role': 'system', 'content': 'Answer in json format only: {""latitude"": < e.g. ""14.832185"" >, ""longitude"": < e.g. ""4.212666"" >}. No explanation, just the answer!'}, {'role': 'user', 'content': 'What are the latitude and longitude of plovdiv, Bulgaria?'}]","{""latitude"": 42.150000, ""longitude"": 24.733333}",42.15,24.733333,1.3776258904622163
257831,bg,ruse,157519,43.8563889,25.9708333,"[{'role': 'system', 'content': 'Answer in json format only: {""latitude"": < e.g. ""14.832185"" >, ""longitude"": < e.g. ""4.212666"" >}. No explanation, just the answer!'}, {'role': 'user', 'content': 'What are the latitude and longitude of ruse, Bulgaria?'}]","{""latitude"": 43.933333, ""longitude"": 25.966667}",43.933333,25.966667,8.555824745042347
259122,bg,sofia,1062065,42.6833333,23.3166667,"[{'role': 'system', 'content': 'Answer in json format only: {""latitude"": < e.g. ""14.832185"" >, ""longitude"": < e.g. ""4.212666"" >}. No explanation, just the answer!'}, {'role': 'user', 'content': 'What are the latitude and longitude of sofia, Bulgaria?'}]","{""latitude"": 42.697374, ""longitude"": 23.322964}",42.697374,23.322964,1.642890861798356
259464,bg,stara zagora,137760,42.4327778,25.6419444,"[{'role': 'system', 'content': 'Answer in json format only: {""latitude"": < e.g. ""14.832185"" >, ""longitude"": < e.g. ""4.212666"" >}. No explanation, just the answer!'}, {'role': 'user', 'content': 'What are the latitude and longitude of stara zagora, Bulgaria?'}]","{""latitude"": 42.45, ""longitude"": 25.635556}",42.45,25.635556,1.9839653426963442
261386,bg,varna,307952,43.216666700000005,27.9166667,"[{'role': 'system', 'content': 'Answer in json format only: {""latitude"": < e.g. ""14.832185"" >, ""longitude"": < e.g. ""4.212666"" >}. No explanation, just the answer!'}, {'role': 'user', 'content': 'What are the latitude and longitude of varna, Bulgaria?'}]","{""latitude"": 43.204166, ""longitude"": 27.916667}",43.204166,27.916667,1.3887882294888634
263132,bh,manama,147097,26.2361111,50.5830556,"[{'role': 'system', 'content': 'Answer in json format only: {""latitude"": < e.g. ""14.832185"" >, ""longitude"": < e.g. ""4.212666"" >}. No explanation, just the answer!'}, {'role': 'user', 'content': 'What are the latitude and longitude of manama, Bahrain?'}]","{""latitude"": 26.231302, ""longitude"": 50.579354}",26.231302,50.579354,0.6485985785698142
263354,bi,bujumbura,330539,-3.3761111000000006,29.36,"[{'role': 'system', 'content': 'Answer in json format only: {""latitude"": < e.g. ""14.832185"" >, ""longitude"": < e.g. ""4.212666"" >}. No explanation, just the answer!'}, {'role': 'user', 'content': 'What are the latitude and longitude of bujumbura, Burundi?'}]","{""latitude"": -3.366667, ""longitude"": 29.45}",-3.366667,29.45,10.055903765965454
265311,bj,abomey-calavi,385823,6.45,2.35,"[{'role': 'system', 'content': 'Answer in json format only: {""latitude"": < e.g. ""14.832185"" >, ""longitude"": < e.g. ""4.212666"" >}. No explanation, just the answer!'}, {'role': 'user', 'content': 'What are the latitude and longitude of abomey-calavi, Benin?'}]","{""latitude"": 6.450277, ""longitude"": 2.279167}",6.450277,2.279167,7.835571666891124
266100,bj,bohicon,125116,7.2,2.0666667000000003,"[{'role': 'system', 'content': 'Answer in json format only: {""latitude"": < e.g. ""14.832185"" >, ""longitude"": < e.g. ""4.212666"" >}. No explanation, just the answer!'}, {'role': 'user', 'content': 'What are the latitude and longitude of bohicon, Benin?'}]","{""latitude"": ""6.8853"", ""longitude"": ""1.6447""}",6.8853,1.6447,58.178730585628756
266298,bj,cotonou,690584,6.35,2.4333332999999997,"[{'role': 'system', 'content': 'Answer in json format only: {""latitude"": < e.g. ""14.832185"" >, ""longitude"": < e.g. ""4.212666"" >}. No explanation, just the answer!'}, {'role': 'user', 'content': 'What are the latitude and longitude of cotonou, Benin?'}]","{""latitude"": 6.3500, ""longitude"": 2.4167}",6.35,2.4167,1.8403258688024688
266526,bj,djougou,202834,9.705,1.6669444,"[{'role': 'system', 'content': 'Answer in json format only: {""latitude"": < e.g. ""14.832185"" >, ""longitude"": < e.g. ""4.212666"" >}. No explanation, just the answer!'}, {'role': 'user', 'content': 'What are the latitude and longitude of djougou, Benin?'}]","{""latitude"": ""9.715556"", ""longitude"": ""1.535833""}",9.715556,1.535833,14.434817537864648
267254,bj,kandi,109705,11.134166699999998,2.9386111,"[{'role': 'system', 'content': 'Answer in json format only: {""latitude"": < e.g. ""14.832185"" >, ""longitude"": < e.g. ""4.212666"" >}. No explanation, just the answer!'}, {'role': 'user', 'content': 'What are the latitude and longitude of kandi, Benin?'}]","{""latitude"": ""10.099169"", ""longitude"": ""1.840278""}",10.099169,1.840278,165.98421430298254
268441,bj,parakou,163759,9.35,2.6166667,"[{'role': 'system', 'content': 'Answer in json format only: {""latitude"": < e.g. ""14.832185"" >, ""longitude"": < e.g. ""4.212666"" >}. No explanation, just the answer!'}, {'role': 'user', 'content': 'What are the latitude and longitude of parakou, Benin?'}]","{""latitude"": ""9.461111"", ""longitude"": ""2.521111""}",9.461111,2.521111,16.16091911195731
272945,bo,cochabamba,900440,-17.3833333,-66.15,"[{'role': 'system', 'content': 'Answer in json format only: {""latitude"": < e.g. ""14.832185"" >, ""longitude"": < e.g. ""4.212666"" >}. No explanation, just the answer!'}, {'role': 'user', 'content': 'What are the latitude and longitude of cochabamba, Bolivia, Plurinational State of?'}]","{""latitude"": -17.383333, ""longitude"": -66.166667}",-17.383333,-66.166667,1.7711517625405624
279504,bo,la paz,812819,-16.5,-68.15,"[{'role': 'system', 'content': 'Answer in json format only: {""latitude"": < e.g. ""14.832185"" >, ""longitude"": < e.g. ""4.212666"" >}. No explanation, just the answer!'}, {'role': 'user', 'content': 'What are the latitude and longitude of la paz, Bolivia, Plurinational State of?'}]","{""latitude"": -16.508333, ""longitude"": -68.116667}",-16.508333,-68.116667,3.6762321041443373
281038,bo,oruro,208687,-17.9833333,-67.15,"[{'role': 'system', 'content': 'Answer in json format only: {""latitude"": < e.g. ""14.832185"" >, ""longitude"": < e.g. ""4.212666"" >}. No explanation, just the answer!'}, {'role': 'user', 'content': 'What are the latitude and longitude of oruro, Bolivia, Plurinational State of?'}]","{""latitude"": -17.525816, ""longitude"": -66.477207}",-17.525816,-66.477207,87.49220692330117
282003,bo,potosi,141254,-19.5836111,-65.7530556,"[{'role': 'system', 'content': 'Answer in json format only: {""latitude"": < e.g. ""14.832185"" >, ""longitude"": < e.g. ""4.212666"" >}. No explanation, just the answer!'}, {'role': 'user', 'content': 'What are the latitude and longitude of potosi, Bolivia, Plurinational State of?'}]","{""latitude"": -19.0172, ""longitude"": -65.7603}",-19.0172,-65.7603,62.703891538106156
283929,bo,sucre,224846,-19.0430556,-65.25916670000001,"[{'role': 'system', 'content': 'Answer in json format only: {""latitude"": < e.g. ""14.832185"" >, ""longitude"": < e.g. ""4.212666"" >}. No explanation, just the answer!'}, {'role': 'user', 'content': 'What are the latitude and longitude of sucre, Bolivia, Plurinational State of?'}]","{""latitude"": -19.039444, ""longitude"": -65.293611}",-19.039444,-65.293611,3.647787795826617
284361,bo,tarija,159275,-21.5166667,-64.75,"[{'role': 'system', 'content': 'Answer in json format only: {""latitude"": < e.g. ""14.832185"" >, ""longitude"": < e.g. ""4.212666"" >}. No explanation, just the answer!'}, {'role': 'user', 'content': 'What are the latitude and longitude of tarija, Bolivia, Plurinational State of?'}]","{""latitude"": -21.479167, ""longitude"": -64.781111}",-21.479167,-64.781111,5.256677318648445
286495,br,alagoinhas,122692,-12.116667,-38.433333000000005,"[{'role': 'system', 'content': 'Answer in json format only: {""latitude"": < e.g. ""14.832185"" >, ""longitude"": < e.g. ""4.212666"" >}. No explanation, just the answer!'}, {'role': 'user', 'content': 'What are the latitude and longitude of alagoinhas, Brazil?'}]","{""latitude"": -12.1108, ""longitude"": -38.4719}",-12.1108,-38.4719,4.24815091263417
287137,br,americana,196026,-22.740278,-47.334444,"[{'role': 'system', 'content': 'Answer in json format only: {""latitude"": < e.g. ""14.832185"" >, ""longitude"": < e.g. ""4.212666"" >}. No explanation, just the answer!'}, {'role': 'user', 'content': 'What are the latitude and longitude of americana, Brazil?'}]","{""latitude"": -22.416667, ""longitude"": -45.733333}",-22.416667,-45.733333,168.50875964468662
287217,br,ananindeua,433956,-1.366667,-48.383333,"[{'role': 'system', 'content': 'Answer in json format only: {""latitude"": < e.g. ""14.832185"" >, ""longitude"": < e.g. ""4.212666"" >}. No explanation, just the answer!'}, {'role': 'user', 'content': 'What are the latitude and longitude of ananindeua, Brazil?'}]","{""latitude"": -3.3122, ""longitude"": -43.2192}",-3.3122,-43.2192,613.3316980720142
287221,br,anapolis,319592,-16.333333,-48.966667,"[{'role': 'system', 'content': 'Answer in json format only: {""latitude"": < e.g. ""14.832185"" >, ""longitude"": < e.g. ""4.212666"" >}. No explanation, just the answer!'}, {'role': 'user', 'content': 'What are the latitude and longitude of anapolis, Brazil?'}]","{""latitude"": -15.755556, ""longitude"": -47.533333}",-15.755556,-47.533333,166.1733085162709
287350,br,angra dos reis,153637,-23.0,-44.3,"[{'role': 'system', 'content': 'Answer in json format only: {""latitude"": < e.g. ""14.832185"" >, ""longitude"": < e.g. ""4.212666"" >}. No explanation, just the answer!'}, {'role': 'user', 'content': 'What are the latitude and longitude of angra dos reis, Brazil?'}]","{""latitude"": -23.050000, ""longitude"": -44.666667}",-23.05,-44.666667,37.990392151452895
287602,br,apucarana,107086,-23.55,-51.483333,"[{'role': 'system', 'content': 'Answer in json format only: {""latitude"": < e.g. ""14.832185"" >, ""longitude"": < e.g. ""4.212666"" >}. No explanation, just the answer!'}, {'role': 'user', 'content': 'What are the latitude and longitude of apucarana, Brazil?'}]","{""latitude"": -23.617795, ""longitude"": -51.482098}",-23.617795,-51.482098,7.5095069898250175
287654,br,aracaju,490184,-10.916667,-37.066666999999995,"[{'role': 'system', 'content': 'Answer in json format only: {""latitude"": < e.g. ""14.832185"" >, ""longitude"": < e.g. ""4.212666"" >}. No explanation, just the answer!'}, {'role': 'user', 'content': 'What are the latitude and longitude of aracaju, Brazil?'}]","{""latitude"": -10.928100, ""longitude"": -37.053291}",-10.9281,-37.053291,1.9332371957938748
287674,br,aracatuba,170028,-21.2,-50.416667,"[{'role': 'system', 'content': 'Answer in json format only: {""latitude"": < e.g. ""14.832185"" >, ""longitude"": < e.g. ""4.212666"" >}. No explanation, just the answer!'}, {'role': 'user', 'content': 'What are the latitude and longitude of aracatuba, Brazil?'}]","{""latitude"": ""-21.286138"", ""longitude"": ""-51.272844""}",-21.286138,-51.272844,89.38230459553559
287705,br,araguaina,114959,-7.16,-48.0575,"[{'role': 'system', 'content': 'Answer in json format only: {""latitude"": < e.g. ""14.832185"" >, ""longitude"": < e.g. ""4.212666"" >}. No explanation, just the answer!'}, {'role': 'user', 'content': 'What are the latitude and longitude of araguaina, Brazil?'}]","{""latitude"": -9.293611, ""longitude"": -47.682222}",-9.293611,-47.682222,239.56616047841786
287748,br,arapiraca,166566,-9.75,-36.65,"[{'role': 'system', 'content': 'Answer in json format only: {""latitude"": < e.g. ""14.832185"" >, ""longitude"": < e.g. ""4.212666"" >}. No explanation, just the answer!'}, {'role': 'user', 'content': 'What are the latitude and longitude of arapiraca, Brazil?'}]","{""latitude"": -9.023898, ""longitude"": -36.633328}",-9.023898,-36.633328,80.33053982577357
287785,br,araraquara,185191,-21.783333,-48.166667,"[{'role': 'system', 'content': 'Answer in json format only: {""latitude"": < e.g. ""14.832185"" >, ""longitude"": < e.g. ""4.212666"" >}. No explanation, just the answer!'}, {'role': 'user', 'content': 'What are the latitude and longitude of araraquara, Brazil?'}]","{""latitude"": -22.0158, ""longitude"": -47.2906}",-22.0158,-47.2906,94.11637400940776
287796,br,araras,107465,-22.366667,-47.383333,"[{'role': 'system', 'content': 'Answer in json format only: {""latitude"": < e.g. ""14.832185"" >, ""longitude"": < e.g. ""4.212666"" >}. No explanation, just the answer!'}, {'role': 'user', 'content': 'What are the latitude and longitude of araras, Brazil?'}]","{""latitude"": ""-14.832185"", ""longitude"": ""-54.533333""}",-14.832185,-54.533333,1124.190915122514
287808,br,araruama,109638,-22.883333,-42.333333,"[{'role': 'system', 'content': 'Answer in json format only: {""latitude"": < e.g. ""14.832185"" >, ""longitude"": < e.g. ""4.212666"" >}. No explanation, just the answer!'}, {'role': 'user', 'content': 'What are the latitude and longitude of araruama, Brazil?'}]","{""latitude"": -22.854944, ""longitude"": -42.072755}",-22.854944,-42.072755,26.924971067056575
287843,br,araucaria,111303,-25.583333,-49.416667,"[{'role': 'system', 'content': 'Answer in json format only: {""latitude"": < e.g. ""14.832185"" >, ""longitude"": < e.g. ""4.212666"" >}. No explanation, just the answer!'}, {'role': 'user', 'content': 'What are the latitude and longitude of araucaria, Brazil?'}]","{""latitude"": -28.848238, ""longitude"": -50.832987}",-28.848238,-50.832987,388.0171419415563
288237,br,atibaia,110970,-23.124167,-46.562222,"[{'role': 'system', 'content': 'Answer in json format only: {""latitude"": < e.g. ""14.832185"" >, ""longitude"": < e.g. ""4.212666"" >}. No explanation, just the answer!'}, {'role': 'user', 'content': 'What are the latitude and longitude of atibaia, Brazil?'}]","{""latitude"": -23.030778, ""longitude"": -46.859734}",-23.030778,-46.859734,32.19089208907367
289373,br,barbacena,122213,-21.233333,-43.766667,"[{'role': 'system', 'content': 'Answer in json format only: {""latitude"": < e.g. ""14.832185"" >, ""longitude"": < e.g. ""4.212666"" >}. No explanation, just the answer!'}, {'role': 'user', 'content': 'What are the latitude and longitude of barbacena, Brazil?'}]","{""latitude"": -21.2467, ""longitude"": -43.7697}",-21.2467,-43.7697,1.5131128898832649
289774,br,barra mansa,164054,-22.533333,-44.183333000000005,"[{'role': 'system', 'content': 'Answer in json format only: {""latitude"": < e.g. ""14.832185"" >, ""longitude"": < e.g. ""4.212666"" >}. No explanation, just the answer!'}, {'role': 'user', 'content': 'What are the latitude and longitude of barra mansa, Brazil?'}]","{""latitude"": -22.693611, ""longitude"": -44.235556}",-22.693611,-44.235556,18.543292490643765
289858,br,barreiras,158296,-12.133333,-45.0,"[{'role': 'system', 'content': 'Answer in json format only: {""latitude"": < e.g. ""14.832185"" >, ""longitude"": < e.g. ""4.212666"" >}. No explanation, just the answer!'}, {'role': 'user', 'content': 'What are the latitude and longitude of barreiras, Brazil?'}]","{""latitude"": -12.111111, ""longitude"": -44.233333}",-12.111111,-44.233333,83.49043555798953
289947,br,barretos,101222,-20.55,-48.55,"[{'role': 'system', 'content': 'Answer in json format only: {""latitude"": < e.g. ""14.832185"" >, ""longitude"": < e.g. ""4.212666"" >}. No explanation, just the answer!'}, {'role': 'user', 'content': 'What are the latitude and longitude of barretos, Brazil?'}]","{""latitude"": -21.633333, ""longitude"": -48.366667}",-21.633333,-48.366667,121.44796201547902
290085,br,barueri,251999,-23.516667,-46.883333,"[{'role': 'system', 'content': 'Answer in json format only: {""latitude"": < e.g. ""14.832185"" >, ""longitude"": < e.g. ""4.212666"" >}. No explanation, just the answer!'}, {'role': 'user', 'content': 'What are the latitude and longitude of barueri, Brazil?'}]","{""latitude"": -23.499722, ""longitude"": -46.894722}",-23.499722,-46.894722,2.2079369261636246
290170,br,bauru,335031,-22.316667,-49.066666999999995,"[{'role': 'system', 'content': 'Answer in json format only: {""latitude"": < e.g. ""14.832185"" >, ""longitude"": < e.g. ""4.212666"" >}. No explanation, just the answer!'}, {'role': 'user', 'content': 'What are the latitude and longitude of bauru, Brazil?'}]","{""latitude"": ""-22.035556"", ""longitude"": ""-49.038056""}",-22.035556,-49.038056,31.267713280277494
290296,br,belem,1407737,-1.45,-48.483333,"[{'role': 'system', 'content': 'Answer in json format only: {""latitude"": < e.g. ""14.832185"" >, ""longitude"": < e.g. ""4.212666"" >}. No explanation, just the answer!'}, {'role': 'user', 'content': 'What are the latitude and longitude of belem, Brazil?'}]","{""latitude"": -1.452235, ""longitude"": -48.491205}",-1.452235,-48.491205,0.9102200804710778
290328,br,belford roxo,466101,-22.761995,-43.404654,"[{'role': 'system', 'content': 'Answer in json format only: {""latitude"": < e.g. ""14.832185"" >, ""longitude"": < e.g. ""4.212666"" >}. No explanation, just the answer!'}, {'role': 'user', 'content': 'What are the latitude and longitude of belford roxo, Brazil?'}]","{""latitude"": -7.823133, ""longitude"": -35.359567}",-7.823133,-35.359567,1863.8823087754038
290377,br,belo horizonte,2373255,-19.916667,-43.933333000000005,"[{'role': 'system', 'content': 'Answer in json format only: {""latitude"": < e.g. ""14.832185"" >, ""longitude"": < e.g. ""4.212666"" >}. No explanation, just the answer!'}, {'role': 'user', 'content': 'What are the latitude and longitude of belo horizonte, Brazil?'}]","{""latitude"": -19.923889, ""longitude"": -43.938611}",-19.923889,-43.938611,0.9718904682911182
290530,br,betim,384038,-19.966667,-44.216667,"[{'role': 'system', 'content': 'Answer in json format only: {""latitude"": < e.g. ""14.832185"" >, ""longitude"": < e.g. ""4.212666"" >}. No explanation, just the answer!'}, {'role': 'user', 'content': 'What are the latitude and longitude of betim, Brazil?'}]","{""latitude"": -19.684169, ""longitude"": -44.260493}",-19.684169,-44.260493,31.6083603288614
290583,br,birigui,102279,-21.3,-50.316666999999995,"[{'role': 'system', 'content': 'Answer in json format only: {""latitude"": < e.g. ""14.832185"" >, ""longitude"": < e.g. ""4.212666"" >}. No explanation, just the answer!'}, {'role': 'user', 'content': 'What are the latitude and longitude of birigui, Brazil?'}]","{""latitude"": -21.304168, ""longitude"": -50.515011}",-21.304168,-50.515011,20.585299552727907
290615,br,blumenau,293955,-26.9222,-49.0615,"[{'role': 'system', 'content': 'Answer in json format only: {""latitude"": < e.g. ""14.832185"" >, ""longitude"": < e.g. ""4.212666"" >}. No explanation, just the answer!'}, {'role': 'user', 'content': 'What are the latitude and longitude of blumenau, Brazil?'}]","{""latitude"": ""-26.9289"", ""longitude"": ""-48.9597""}",-26.9289,-48.9597,10.138010629343075
290752,br,boa vista,235159,2.816667,-60.666667,"[{'role': 'system', 'content': 'Answer in json format only: {""latitude"": < e.g. ""14.832185"" >, ""longitude"": < e.g. ""4.212666"" >}. No explanation, just the answer!'}, {'role': 'user', 'content': 'What are the latitude and longitude of boa vista, Brazil?'}]","{""latitude"": ""-15.198611"", ""longitude"": ""-47.667778""}",-15.198611,-47.667778,2453.923191041475
291339,br,botucatu,113865,-22.866667,-48.433333000000005,"[{'role': 'system', 'content': 'Answer in json format only: {""latitude"": < e.g. ""14.832185"" >, ""longitude"": < e.g. ""4.212666"" >}. No explanation, just the answer!'}, {'role': 'user', 'content': 'What are the latitude and longitude of botucatu, Brazil?'}]","{""latitude"": -22.845278, ""longitude"": -48.217222}",-22.845278,-48.217222,22.305803741876097
291377,br,braganca paulista,125099,-22.95,-46.566666999999995,"[{'role': 'system', 'content': 'Answer in json format only: {""latitude"": < e.g. ""14.832185"" >, ""longitude"": < e.g. ""4.212666"" >}. No explanation, just the answer!'}, {'role': 'user', 'content': 'What are the latitude and longitude of braganca paulista, Brazil?'}]","{""latitude"": -23.1843, ""longitude"": -46.3903}",-23.1843,-46.3903,31.62110585066582
291406,br,brasilia,2207812,-15.783333,-47.916667,"[{'role': 'system', 'content': 'Answer in json format only: {""latitude"": < e.g. ""14.832185"" >, ""longitude"": < e.g. ""4.212666"" >}. No explanation, just the answer!'}, {'role': 'user', 'content': 'What are the latitude and longitude of brasilia, Brazil?'}]","{""latitude"": -15.794722, ""longitude"": -47.882222}",-15.794722,-47.882222,3.8998871830826616
291934,br,cabo frio,108241,-22.883333,-42.016667,"[{'role': 'system', 'content': 'Answer in json format only: {""latitude"": < e.g. ""14.832185"" >, ""longitude"": < e.g. ""4.212666"" >}. No explanation, just the answer!'}, {'role': 'user', 'content': 'What are the latitude and longitude of cabo frio, Brazil?'}]","{""latitude"": -23.257778, ""longitude"": -44.979444}",-23.257778,-44.979444,306.40630700394195
292114,br,cachoeirinha,121086,-29.95,-51.083333,"[{'role': 'system', 'content': 'Answer in json format only: {""latitude"": < e.g. ""14.832185"" >, ""longitude"": < e.g. ""4.212666"" >}. No explanation, just the answer!'}, {'role': 'user', 'content': 'What are the latitude and longitude of cachoeirinha, Brazil?'}]","{""latitude"": -29.937222, ""longitude"": -51.270556}",-29.937222,-51.270556,18.130069931460152
292124,br,cachoeiro de itapemirim,187023,-20.85,-41.1,"[{'role': 'system', 'content': 'Answer in json format only: {""latitude"": < e.g. ""14.832185"" >, ""longitude"": < e.g. ""4.212666"" >}. No explanation, just the answer!'}, {'role': 'user', 'content': 'What are the latitude and longitude of cachoeiro de itapemirim, Brazil?'}]","{""latitude"": -21.0496, ""longitude"": -40.8178}",-21.0496,-40.8178,36.73963509739546
292593,br,camacari,188763,-12.483333,-38.216667,"[{'role': 'system', 'content': 'Answer in json format only: {""latitude"": < e.g. ""14.832185"" >, ""longitude"": < e.g. ""4.212666"" >}. No explanation, just the answer!'}, {'role': 'user', 'content': 'What are the latitude and longitude of camacari, Brazil?'}]","{""latitude"": -12.609444, ""longitude"": -38.624722}",-12.609444,-38.624722,46.48947569307207
292623,br,camaragibe,148966,-8.016667,-34.966667,"[{'role': 'system', 'content': 'Answer in json format only: {""latitude"": < e.g. ""14.832185"" >, ""longitude"": < e.g. ""4.212666"" >}. No explanation, just the answer!'}, {'role': 'user', 'content': 'What are the latitude and longitude of camaragibe, Brazil?'}]","{""latitude"": ""-9.65"", ""longitude"": ""-35.93""}",-9.65,-35.93,209.43550398971476
292800,br,campina grande,348943,-7.216667,-35.883333,"[{'role': 'system', 'content': 'Answer in json format only: {""latitude"": < e.g. ""14.832185"" >, ""longitude"": < e.g. ""4.212666"" >}. No explanation, just the answer!'}, {'role': 'user', 'content': 'What are the latitude and longitude of campina grande, Brazil?'}]","{""latitude"": -7.2135, ""longitude"": -34.9223}",-7.2135,-34.9223,106.1407503975317
292817,br,campinas,1031573,-22.9,-47.083333,"[{'role': 'system', 'content': 'Answer in json format only: {""latitude"": < e.g. ""14.832185"" >, ""longitude"": < e.g. ""4.212666"" >}. No explanation, just the answer!'}, {'role': 'user', 'content': 'What are the latitude and longitude of campinas, Brazil?'}]","{""latitude"": -22.896944, ""longitude"": -47.082222}",-22.896944,-47.082222,0.3571100591883706
292945,br,campo grande,729164,-20.45,-54.61666700000001,"[{'role': 'system', 'content': 'Answer in json format only: {""latitude"": < e.g. ""14.832185"" >, ""longitude"": < e.g. ""4.212666"" >}. No explanation, just the answer!'}, {'role': 'user', 'content': 'What are the latitude and longitude of campo grande, Brazil?'}]","{""latitude"": -17.458333, ""longitude"": -56.283333}",-17.458333,-56.283333,374.7864417327967
293013,br,campos,387422,-21.75,-41.3,"[{'role': 'system', 'content': 'Answer in json format only: {""latitude"": < e.g. ""14.832185"" >, ""longitude"": < e.g. ""4.212666"" >}. No explanation, just the answer!'}, {'role': 'user', 'content': 'What are the latitude and longitude of campos, Brazil?'}]","{""latitude"": -5.343589, ""longitude"": -43.30693}",-5.343589,-43.30693,1828.0866295370615
293304,br,canoas,328297,-29.933333,-51.183333000000005,"[{'role': 'system', 'content': 'Answer in json format only: {""latitude"": < e.g. ""14.832185"" >, ""longitude"": < e.g. ""4.212666"" >}. No explanation, just the answer!'}, {'role': 'user', 'content': 'What are the latitude and longitude of canoas, Brazil?'}]","{""latitude"": -29.859722, ""longitude"": -51.212778}",-29.859722,-51.212778,8.641242246673826
293813,br,carapicuiba,361120,-23.516667,-46.833333,"[{'role': 'system', 'content': 'Answer in json format only: {""latitude"": < e.g. ""14.832185"" >, ""longitude"": < e.g. ""4.212666"" >}. No explanation, just the answer!'}, {'role': 'user', 'content': 'What are the latitude and longitude of carapicuiba, Brazil?'}]","{""latitude"": -23.398894, ""longitude"": -46.621171}",-23.398894,-46.621171,25.29896354957324
293874,br,cariacica,330681,-20.266667,-40.416667,"[{'role': 'system', 'content': 'Answer in json format only: {""latitude"": < e.g. ""14.832185"" >, ""longitude"": < e.g. ""4.212666"" >}. No explanation, just the answer!'}, {'role': 'user', 'content': 'What are the latitude and longitude of cariacica, Brazil?'}]","{""latitude"": ""-6.908472"", ""longitude"": ""-39.033611""}",-6.908472,-39.033611,1485.4715526277703
294094,br,caruaru,235375,-8.283333,-35.966667,"[{'role': 'system', 'content': 'Answer in json format only: {""latitude"": < e.g. ""14.832185"" >, ""longitude"": < e.g. ""4.212666"" >}. No explanation, just the answer!'}, {'role': 'user', 'content': 'What are the latitude and longitude of caruaru, Brazil?'}]","{""latitude"": -8.325, ""longitude"": -35.994}",-8.325,-35.994,5.5047468982359185
294164,br,cascavel,257174,-24.95,-53.466667,"[{'role': 'system', 'content': 'Answer in json format only: {""latitude"": < e.g. ""14.832185"" >, ""longitude"": < e.g. ""4.212666"" >}. No explanation, just the answer!'}, {'role': 'user', 'content': 'What are the latitude and longitude of cascavel, Brazil?'}]","{""latitude"": -24.92, ""longitude"": -53.62}",-24.92,-53.62,15.839634856258645
294217,br,castanhal,137410,-1.3,-47.916667,"[{'role': 'system', 'content': 'Answer in json format only: {""latitude"": < e.g. ""14.832185"" >, ""longitude"": < e.g. ""4.212666"" >}. No explanation, just the answer!'}, {'role': 'user', 'content': 'What are the latitude and longitude of castanhal, Brazil?'}]","{""latitude"": -1.7147, ""longitude"": -48.2811}",-1.7147,-48.2811,61.21592020864475
294279,br,catanduva,109615,-21.133333,-48.966667,"[{'role': 'system', 'content': 'Answer in json format only: {""latitude"": < e.g. ""14.832185"" >, ""longitude"": < e.g. ""4.212666"" >}. No explanation, just the answer!'}, {'role': 'user', 'content': 'What are the latitude and longitude of catanduva, Brazil?'}]","{""latitude"": -22.0178, ""longitude"": -48.6514}",-22.0178,-48.6514,103.23174215741862
294394,br,caucaia,275023,-3.7,-38.65,"[{'role': 'system', 'content': 'Answer in json format only: {""latitude"": < e.g. ""14.832185"" >, ""longitude"": < e.g. ""4.212666"" >}. No explanation, just the answer!'}, {'role': 'user', 'content': 'What are the latitude and longitude of caucaia, Brazil?'}]","{""latitude"": -3.5717, ""longitude"": -38.5483}",-3.5717,-38.5483,18.13657859183837
294448,br,caxias,117393,-4.8333330000000005,-43.35,"[{'role': 'system', 'content': 'Answer in json format only: {""latitude"": < e.g. ""14.832185"" >, ""longitude"": < e.g. ""4.212666"" >}. No explanation, just the answer!'}, {'role': 'user', 'content': 'What are the latitude and longitude of caxias, Brazil?'}]","{""latitude"": ""-12.9667"", ""longitude"": ""-44.8667""}",-12.9667,-44.8667,914.88141257564
294452,br,caxias do sul,381277,-29.1689,-51.1785,"[{'role': 'system', 'content': 'Answer in json format only: {""latitude"": < e.g. ""14.832185"" >, ""longitude"": < e.g. ""4.212666"" >}. No explanation, just the answer!'}, {'role': 'user', 'content': 'What are the latitude and longitude of caxias do sul, Brazil?'}]","{""latitude"": -29.208889, ""longitude"": -51.939444}",-29.208889,-51.939444,74.14281791414669
294733,br,chapeco,160160,-27.083333000000003,-52.983332999999995,"[{'role': 'system', 'content': 'Answer in json format only: {""latitude"": < e.g. ""14.832185"" >, ""longitude"": < e.g. ""4.212666"" >}. No explanation, just the answer!'}, {'role': 'user', 'content': 'What are the latitude and longitude of chapeco, Brazil?'}]","{""latitude"": -27.127758, ""longitude"": -52.586667}",-27.127758,-52.586667,39.641018693987135
295132,br,colatina,101193,-19.533333,-40.616667,"[{'role': 'system', 'content': 'Answer in json format only: {""latitude"": < e.g. ""14.832185"" >, ""longitude"": < e.g. ""4.212666"" >}. No explanation, just the answer!'}, {'role': 'user', 'content': 'What are the latitude and longitude of colatina, Brazil?'}]","{""latitude"": -19.270838, ""longitude"": -80.812378}",-19.270838,-80.812378,4212.126043241947
295256,br,colombo,217002,-25.283333,-49.233333,"[{'role': 'system', 'content': 'Answer in json format only: {""latitude"": < e.g. ""14.832185"" >, ""longitude"": < e.g. ""4.212666"" >}. No explanation, just the answer!'}, {'role': 'user', 'content': 'What are the latitude and longitude of colombo, Brazil?'}]","{""latitude"": -4.998217, ""longitude"": -55.761475}",-4.998217,-55.761475,2350.5121283427793
295658,br,conselheiro lafaiete,111598,-20.666667,-43.8,"[{'role': 'system', 'content': 'Answer in json format only: {""latitude"": < e.g. ""14.832185"" >, ""longitude"": < e.g. ""4.212666"" >}. No explanation, just the answer!'}, {'role': 'user', 'content': 'What are the latitude and longitude of conselheiro lafaiete, Brazil?'}]","{""latitude"": -21.854722, ""longitude"": -43.549167}",-21.854722,-43.549167,134.0933002069846
295690,br,contagem,627132,-19.916667,-44.1,"[{'role': 'system', 'content': 'Answer in json format only: {""latitude"": < e.g. ""14.832185"" >, ""longitude"": < e.g. ""4.212666"" >}. No explanation, just the answer!'}, {'role': 'user', 'content': 'What are the latitude and longitude of contagem, Brazil?'}]","{""latitude"": -19.847194, ""longitude"": -44.017083}",-19.847194,-44.017083,11.599654307875829
295838,br,coronel fabriciano,100918,-19.516667,-42.633333,"[{'role': 'system', 'content': 'Answer in json format only: {""latitude"": < e.g. ""14.832185"" >, ""longitude"": < e.g. ""4.212666"" >}. No explanation, just the answer!'}, {'role': 'user', 'content': 'What are the latitude and longitude of coronel fabriciano, Brazil?'}]","{""latitude"": -19.511673, ""longitude"": -42.75083}",-19.511673,-42.75083,12.345384476856934
296040,br,cotia,174832,-23.616667,-46.933333000000005,"[{'role': 'system', 'content': 'Answer in json format only: {""latitude"": < e.g. ""14.832185"" >, ""longitude"": < e.g. ""4.212666"" >}. No explanation, just the answer!'}, {'role': 'user', 'content': 'What are the latitude and longitude of cotia, Brazil?'}]","{""latitude"": -23.173655, ""longitude"": -46.944251}",-23.173655,-46.944251,49.07608142897267
296122,br,criciuma,161957,-28.666666999999997,-49.383333,"[{'role': 'system', 'content': 'Answer in json format only: {""latitude"": < e.g. ""14.832185"" >, ""longitude"": < e.g. ""4.212666"" >}. No explanation, just the answer!'}, {'role': 'user', 'content': 'What are the latitude and longitude of criciuma, Brazil?'}]","{""latitude"": -27.216667, ""longitude"": -49.512778}",-27.216667,-49.512778,161.19103649483273
296288,br,cubatao,118412,-23.883333,-46.416667,"[{'role': 'system', 'content': 'Answer in json format only: {""latitude"": < e.g. ""14.832185"" >, ""longitude"": < e.g. ""4.212666"" >}. No explanation, just the answer!'}, {'role': 'user', 'content': 'What are the latitude and longitude of cubatao, Brazil?'}]","{""latitude"": -23.908904, ""longitude"": -46.562317}",-23.908904,-46.562317,15.099995588292783
296299,br,cuiaba,521961,-15.583332999999998,-56.083333,"[{'role': 'system', 'content': 'Answer in json format only: {""latitude"": < e.g. ""14.832185"" >, ""longitude"": < e.g. ""4.212666"" >}. No explanation, just the answer!'}, {'role': 'user', 'content': 'What are the latitude and longitude of cuiaba, Brazil?'}]","{""latitude"": -15.605333, ""longitude"": -56.0825}",-15.605333,-56.0825,2.436039120282795
296424,br,curitiba,1718433,-25.416667,-49.25,"[{'role': 'system', 'content': 'Answer in json format only: {""latitude"": < e.g. ""14.832185"" >, ""longitude"": < e.g. ""4.212666"" >}. No explanation, just the answer!'}, {'role': 'user', 'content': 'What are the latitude and longitude of curitiba, Brazil?'}]","{""latitude"": -25.424983, ""longitude"": -49.270166}",-25.424983,-49.270166,2.228136832256084
296749,br,diadema,390641,-23.7,-46.616667,"[{'role': 'system', 'content': 'Answer in json format only: {""latitude"": < e.g. ""14.832185"" >, ""longitude"": < e.g. ""4.212666"" >}. No explanation, just the answer!'}, {'role': 'user', 'content': 'What are the latitude and longitude of diadema, Brazil?'}]","{""latitude"": -23.95244, ""longitude"": -46.50482}",-23.95244,-46.50482,30.192394419142385
296806,br,divinopolis,193835,-20.15,-44.9,"[{'role': 'system', 'content': 'Answer in json format only: {""latitude"": < e.g. ""14.832185"" >, ""longitude"": < e.g. ""4.212666"" >}. No explanation, just the answer!'}, {'role': 'user', 'content': 'What are the latitude and longitude of divinopolis, Brazil?'}]","{""latitude"": ""-18.8763"", ""longitude"": ""-44.9467""}",-18.8763,-44.9467,141.08161523097831
296959,br,dourados,162206,-22.216667,-54.8,"[{'role': 'system', 'content': 'Answer in json format only: {""latitude"": < e.g. ""14.832185"" >, ""longitude"": < e.g. ""4.212666"" >}. No explanation, just the answer!'}, {'role': 'user', 'content': 'What are the latitude and longitude of dourados, Brazil?'}]","{""latitude"": -22.153289, ""longitude"": -54.764398}",-22.153289,-54.764398,7.920411971158194
297018,br,duque de caxias,818339,-22.790321,-43.325009,"[{'role': 'system', 'content': 'Answer in json format only: {""latitude"": < e.g. ""14.832185"" >, ""longitude"": < e.g. ""4.212666"" >}. No explanation, just the answer!'}, {'role': 'user', 'content': 'What are the latitude and longitude of duque de caxias, Brazil?'}]","{""latitude"": -22.8228, ""longitude"": -43.2753}",-22.8228,-43.2753,6.243613350685872
297108,br,embu,221737,-23.65,-46.85,"[{'role': 'system', 'content': 'Answer in json format only: {""latitude"": < e.g. ""14.832185"" >, ""longitude"": < e.g. ""4.212666"" >}. No explanation, just the answer!'}, {'role': 'user', 'content': 'What are the latitude and longitude of embu, Brazil?'}]","{""latitude"": -22.84, ""longitude"": -49.313611}",-22.84,-49.313611,267.5950945457133
297401,br,esmeraldas,103252,-19.75,-44.316666999999995,"[{'role': 'system', 'content': 'Answer in json format only: {""latitude"": < e.g. ""14.832185"" >, ""longitude"": < e.g. ""4.212666"" >}. No explanation, just the answer!'}, {'role': 'user', 'content': 'What are the latitude and longitude of esmeraldas, Brazil?'}]","{""latitude"": -1.142451, ""longitude"": -48.301132}",-1.142451,-48.301132,2103.647819654061
299013,br,feira de santana,481926,-12.25,-38.95,"[{'role': 'system', 'content': 'Answer in json format only: {""latitude"": < e.g. ""14.832185"" >, ""longitude"": < e.g. ""4.212666"" >}. No explanation, just the answer!'}, {'role': 'user', 'content': 'What are the latitude and longitude of feira de santana, Brazil?'}]","{""latitude"": -9.5229, ""longitude"": -38.3223}",-9.5229,-38.3223,309.36173186473303
299106,br,ferraz de vasconcelos,167904,-23.533333,-46.366667,"[{'role': 'system', 'content': 'Answer in json format only: {""latitude"": < e.g. ""14.832185"" >, ""longitude"": < e.g. ""4.212666"" >}. No explanation, just the answer!'}, {'role': 'user', 'content': 'What are the latitude and longitude of ferraz de vasconcelos, Brazil?'}]","{""latitude"": -23.282821, ""longitude"": -46.451672}",-23.282821,-46.451672,29.07279552920388
299308,br,florianopolis,412731,-27.583333000000003,-48.566666999999995,"[{'role': 'system', 'content': 'Answer in json format only: {""latitude"": < e.g. ""14.832185"" >, ""longitude"": < e.g. ""4.212666"" >}. No explanation, just the answer!'}, {'role': 'user', 'content': 'What are the latitude and longitude of florianopolis, Brazil?'}]","{""latitude"": -27.5907, ""longitude"": -48.5333}",-27.5907,-48.5333,3.3941065329084847
299430,br,fortaleza,2416920,-3.316667,-41.416667,"[{'role': 'system', 'content': 'Answer in json format only: {""latitude"": < e.g. ""14.832185"" >, ""longitude"": < e.g. ""4.212666"" >}. No explanation, just the answer!'}, {'role': 'user', 'content': 'What are the latitude and longitude of fortaleza, Brazil?'}]","{""latitude"": -3.737777, ""longitude"": -38.549722}",-3.737777,-38.549722,321.93103046531627
299479,br,foz do iguacu,293526,-25.55,-54.583333,"[{'role': 'system', 'content': 'Answer in json format only: {""latitude"": < e.g. ""14.832185"" >, ""longitude"": < e.g. ""4.212666"" >}. No explanation, just the answer!'}, {'role': 'user', 'content': 'What are the latitude and longitude of foz do iguacu, Brazil?'}]","{""latitude"": -25.574755, ""longitude"": -54.436224}",-25.574755,-54.436224,15.034585635672466
299515,br,franca,305047,-20.533333,-47.4,"[{'role': 'system', 'content': 'Answer in json format only: {""latitude"": < e.g. ""14.832185"" >, ""longitude"": < e.g. ""4.212666"" >}. No explanation, just the answer!'}, {'role': 'user', 'content': 'What are the latitude and longitude of franca, Brazil?'}]","{""latitude"": -7.360164, ""longitude"": -35.13265}",-7.360164,-35.13265,1967.7456236292248
299552,br,francisco morato,171793,-23.279503,-46.746403,"[{'role': 'system', 'content': 'Answer in json format only: {""latitude"": < e.g. ""14.832185"" >, ""longitude"": < e.g. ""4.212666"" >}. No explanation, just the answer!'}, {'role': 'user', 'content': 'What are the latitude and longitude of francisco morato, Brazil?'}]","{""latitude"": -15.684544, ""longitude"": -47.727801}",-15.684544,-47.727801,847.0326261786431
299568,br,franco da rocha,108860,-23.324821,-46.718475,"[{'role': 'system', 'content': 'Answer in json format only: {""latitude"": < e.g. ""14.832185"" >, ""longitude"": < e.g. ""4.212666"" >}. No explanation, just the answer!'}, {'role': 'user', 'content': 'What are the latitude and longitude of franco da rocha, Brazil?'}]","{""latitude"": -23.344722, ""longitude"": -51.323056}",-23.344722,-51.323056,470.88638714358433
299862,br,garanhuns,110087,-8.9,-36.483333,"[{'role': 'system', 'content': 'Answer in json format only: {""latitude"": < e.g. ""14.832185"" >, ""longitude"": < e.g. ""4.212666"" >}. No explanation, just the answer!'}, {'role': 'user', 'content': 'What are the latitude and longitude of garanhuns, Brazil?'}]","{""latitude"": -9.142998, ""longitude"": -36.511}",-9.142998,-36.511,27.047575471058735
300160,br,goiania,1171209,-16.666667,-49.266667,"[{'role': 'system', 'content': 'Answer in json format only: {""latitude"": < e.g. ""14.832185"" >, ""longitude"": < e.g. ""4.212666"" >}. No explanation, just the answer!'}, {'role': 'user', 'content': 'What are the latitude and longitude of goiania, Brazil?'}]","{""latitude"": ""-16.671944"", ""longitude"": ""-49.258889""}",-16.671944,-49.258889,1.0146005288622009
300236,br,governador valadares,250882,-18.85,-41.933333000000005,"[{'role': 'system', 'content': 'Answer in json format only: {""latitude"": < e.g. ""14.832185"" >, ""longitude"": < e.g. ""4.212666"" >}. No explanation, just the answer!'}, {'role': 'user', 'content': 'What are the latitude and longitude of governador valadares, Brazil?'}]","{""latitude"": -18.854317, ""longitude"": -41.978909}",-18.854317,-41.978909,4.82672278488366
300331,br,gravatai,238782,-29.9426,-50.9933,"[{'role': 'system', 'content': 'Answer in json format only: {""latitude"": < e.g. ""14.832185"" >, ""longitude"": < e.g. ""4.212666"" >}. No explanation, just the answer!'}, {'role': 'user', 'content': 'What are the latitude and longitude of gravatai, Brazil?'}]","{""latitude"": -29.012211, ""longitude"": -51.110811}",-29.012211,-51.110811,103.75559202895687
300424,br,guaiba,101026,-30.111111,-51.316666999999995,"[{'role': 'system', 'content': 'Answer in json format only: {""latitude"": < e.g. ""14.832185"" >, ""longitude"": < e.g. ""4.212666"" >}. No explanation, just the answer!'}, {'role': 'user', 'content': 'What are the latitude and longitude of guaiba, Brazil?'}]","{""latitude"": -27.9733, ""longitude"": -51.9239}",-27.9733,-51.9239,244.21583783173836
300559,br,guarapari,100927,-20.666667,-40.5,"[{'role': 'system', 'content': 'Answer in json format only: {""latitude"": < e.g. ""14.832185"" >, ""longitude"": < e.g. ""4.212666"" >}. No explanation, just the answer!'}, {'role': 'user', 'content': 'What are the latitude and longitude of guarapari, Brazil?'}]","{""latitude"": -20.771796, ""longitude"": -40.601446}",-20.771796,-40.601446,15.720423824572196
300564,br,guarapuava,150851,-25.383333,-51.45,"[{'role': 'system', 'content': 'Answer in json format only: {""latitude"": < e.g. ""14.832185"" >, ""longitude"": < e.g. ""4.212666"" >}. No explanation, just the answer!'}, {'role': 'user', 'content': 'What are the latitude and longitude of guarapuava, Brazil?'}]","{""latitude"": -25.3018, ""longitude"": -51.5793}",-25.3018,-51.5793,15.84314924630438
300581,br,guaratingueta,105882,-22.815156,-45.18923,"[{'role': 'system', 'content': 'Answer in json format only: {""latitude"": < e.g. ""14.832185"" >, ""longitude"": < e.g. ""4.212666"" >}. No explanation, just the answer!'}, {'role': 'user', 'content': 'What are the latitude and longitude of guaratingueta, Brazil?'}]","{""latitude"": -22.723333, ""longitude"": -45.773889}",-22.723333,-45.773889,60.89705009774848
300644,br,guaruja,310430,-24.0,-46.266667,"[{'role': 'system', 'content': 'Answer in json format only: {""latitude"": < e.g. ""14.832185"" >, ""longitude"": < e.g. ""4.212666"" >}. No explanation, just the answer!'}, {'role': 'user', 'content': 'What are the latitude and longitude of guaruja, Brazil?'}]","{""latitude"": -25.068629, ""longitude"": -47.362528}",-25.068629,-47.362528,162.29694776416747
300647,br,guarulhos,1169601,-23.45068,-46.526175,"[{'role': 'system', 'content': 'Answer in json format only: {""latitude"": < e.g. ""14.832185"" >, ""longitude"": < e.g. ""4.212666"" >}. No explanation, just the answer!'}, {'role': 'user', 'content': 'What are the latitude and longitude of guarulhos, Brazil?'}]","{""latitude"": ""-23.453333"", ""longitude"": ""-46.487222""}",-23.453333,-46.487222,3.990969722212949
300847,br,hortolandia,203537,-22.85,-47.25,"[{'role': 'system', 'content': 'Answer in json format only: {""latitude"": < e.g. ""14.832185"" >, ""longitude"": < e.g. ""4.212666"" >}. No explanation, just the answer!'}, {'role': 'user', 'content': 'What are the latitude and longitude of hortolandia, Brazil?'}]","{""latitude"": -23.106944, ""longitude"": -47.516667}",-23.106944,-47.516667,39.463394740710534
301000,br,ibirite,141376,-20.033333,-44.066666999999995,"[{'role': 'system', 'content': 'Answer in json format only: {""latitude"": < e.g. ""14.832185"" >, ""longitude"": < e.g. ""4.212666"" >}. No explanation, just the answer!'}, {'role': 'user', 'content': 'What are the latitude and longitude of ibirite, Brazil?'}]","{""latitude"": -19.655833, ""longitude"": -41.340278}",-19.655833,-41.340278,288.6252392426726
301233,br,ilheus,155503,-14.816667,-39.033333,"[{'role': 'system', 'content': 'Answer in json format only: {""latitude"": < e.g. ""14.832185"" >, ""longitude"": < e.g. ""4.212666"" >}. No explanation, just the answer!'}, {'role': 'user', 'content': 'What are the latitude and longitude of ilheus, Brazil?'}]","{""latitude"": -14.799983, ""longitude"": -39.054138}",-14.799983,-39.054138,2.9023269849413533
301296,br,imperatriz,218110,-5.533333,-47.483333,"[{'role': 'system', 'content': 'Answer in json format only: {""latitude"": < e.g. ""14.832185"" >, ""longitude"": < e.g. ""4.212666"" >}. No explanation, just the answer!'}, {'role': 'user', 'content': 'What are the latitude and longitude of imperatriz, Brazil?'}]","{""latitude"": ""-5.538888"", ""longitude"": ""-1.333889""}",-5.538888,-1.333889,5112.153905260986
301328,br,indaiatuba,179914,-23.083333,-47.233333,"[{'role': 'system', 'content': 'Answer in json format only: {""latitude"": < e.g. ""14.832185"" >, ""longitude"": < e.g. ""4.212666"" >}. No explanation, just the answer!'}, {'role': 'user', 'content': 'What are the latitude and longitude of indaiatuba, Brazil?'}]","{""latitude"": -23.027245, ""longitude"": -47.192807}",-23.027245,-47.192807,7.4719926464790865
301495,br,ipatinga,228750,-19.5,-42.533333,"[{'role': 'system', 'content': 'Answer in json format only: {""latitude"": < e.g. ""14.832185"" >, ""longitude"": < e.g. ""4.212666"" >}. No explanation, just the answer!'}, {'role': 'user', 'content': 'What are the latitude and longitude of ipatinga, Brazil?'}]","{""latitude"": -19.372222, ""longitude"": -43.151944}",-19.372222,-43.151944,66.48523370731583
301713,br,itaborai,182500,-22.75,-42.866667,"[{'role': 'system', 'content': 'Answer in json format only: {""latitude"": < e.g. ""14.832185"" >, ""longitude"": < e.g. ""4.212666"" >}. No explanation, just the answer!'}, {'role': 'user', 'content': 'What are the latitude and longitude of itaborai, Brazil?'}]","{""latitude"": -21.7299, ""longitude"": -41.5833}",-21.7299,-41.5833,173.95995136598003
301714,br,itabuna,205666,-14.8,-39.266667,"[{'role': 'system', 'content': 'Answer in json format only: {""latitude"": < e.g. ""14.832185"" >, ""longitude"": < e.g. ""4.212666"" >}. No explanation, just the answer!'}, {'role': 'user', 'content': 'What are the latitude and longitude of itabuna, Brazil?'}]","{""latitude"": -14.832185, ""longitude"": -39.742778}",-14.832185,-39.742778,51.37304133524185
301757,br,itaguai,100756,-22.870755,-43.773821000000005,"[{'role': 'system', 'content': 'Answer in json format only: {""latitude"": < e.g. ""14.832185"" >, ""longitude"": < e.g. ""4.212666"" >}. No explanation, just the answer!'}, {'role': 'user', 'content': 'What are the latitude and longitude of itaguai, Brazil?'}]","{""latitude"": -6.313611, ""longitude"": -35.683333}",-6.313611,-35.683333,2027.3203676582755
301822,br,itajai,155719,-26.883333,-48.65,"[{'role': 'system', 'content': 'Answer in json format only: {""latitude"": < e.g. ""14.832185"" >, ""longitude"": < e.g. ""4.212666"" >}. No explanation, just the answer!'}, {'role': 'user', 'content': 'What are the latitude and longitude of itajai, Brazil?'}]","{""latitude"": -26.9173, ""longitude"": -48.6314}",-26.9173,-48.6314,4.1927316984321
301927,br,itapecerica da serra,151608,-23.716667,-46.833333,"[{'role': 'system', 'content': 'Answer in json format only: {""latitude"": < e.g. ""14.832185"" >, ""longitude"": < e.g. ""4.212666"" >}. No explanation, just the answer!'}, {'role': 'user', 'content': 'What are the latitude and longitude of itapecerica da serra, Brazil?'}]","{""latitude"": -23.128592, ""longitude"": -46.888603}",-23.128592,-46.888603,65.3737741796008
301963,br,itapetininga,126245,-23.6,-48.05,"[{'role': 'system', 'content': 'Answer in json format only: {""latitude"": < e.g. ""14.832185"" >, ""longitude"": < e.g. ""4.212666"" >}. No explanation, just the answer!'}, {'role': 'user', 'content': 'What are the latitude and longitude of itapetininga, Brazil?'}]","{""latitude"": -23.428057, ""longitude"": -47.551718}",-23.428057,-47.551718,54.335835213179195
301974,br,itapevi,201752,-23.55,-46.933333000000005,"[{'role': 'system', 'content': 'Answer in json format only: {""latitude"": < e.g. ""14.832185"" >, ""longitude"": < e.g. ""4.212666"" >}. No explanation, just the answer!'}, {'role': 'user', 'content': 'What are the latitude and longitude of itapevi, Brazil?'}]","{""latitude"": -23.5403, ""longitude"": -46.4929}",-23.5403,-46.4929,44.98375343294954
302068,br,itaquaquecetuba,336686,-23.483333,-46.35,"[{'role': 'system', 'content': 'Answer in json format only: {""latitude"": < e.g. ""14.832185"" >, ""longitude"": < e.g. ""4.212666"" >}. No explanation, just the answer!'}, {'role': 'user', 'content': 'What are the latitude and longitude of itaquaquecetuba, Brazil?'}]","{""latitude"": -23.586667, ""longitude"": -46.264722}",-23.586667,-46.264722,14.380714731600982
302192,br,itu,137589,-23.266667,-47.316666999999995,"[{'role': 'system', 'content': 'Answer in json format only: {""latitude"": < e.g. ""14.832185"" >, ""longitude"": < e.g. ""4.212666"" >}. No explanation, just the answer!'}, {'role': 'user', 'content': 'What are the latitude and longitude of itu, Brazil?'}]","{""latitude"": ""-23.0866"", ""longitude"": ""-44.8694""}",-23.0866,-44.8694,251.3615498829672
302254,br,jaboatao,702632,-8.116667,-35.016667,"[{'role': 'system', 'content': 'Answer in json format only: {""latitude"": < e.g. ""14.832185"" >, ""longitude"": < e.g. ""4.212666"" >}. No explanation, just the answer!'}, {'role': 'user', 'content': 'What are the latitude and longitude of jaboatao, Brazil?'}]","{""latitude"": -6.8003, ""longitude"": -35.0288}",-6.8003,-35.0288,145.58718170819154
302331,br,jacarei,213114,-23.316667,-45.966667,"[{'role': 'system', 'content': 'Answer in json format only: {""latitude"": < e.g. ""14.832185"" >, ""longitude"": < e.g. ""4.212666"" >}. No explanation, just the answer!'}, {'role': 'user', 'content': 'What are the latitude and longitude of jacarei, Brazil?'}]","{""latitude"": -22.839723, ""longitude"": -45.83359}",-22.839723,-45.83359,54.5508494852552
302540,br,jandira,113607,-23.516667,-46.9,"[{'role': 'system', 'content': 'Answer in json format only: {""latitude"": < e.g. ""14.832185"" >, ""longitude"": < e.g. ""4.212666"" >}. No explanation, just the answer!'}, {'role': 'user', 'content': 'What are the latitude and longitude of jandira, Brazil?'}]","{""latitude"": -23.3053, ""longitude"": -46.8319}",-23.3053,-46.8319,24.4217601739586
302614,br,jaragua do sul,130132,-26.483333,-49.066666999999995,"[{'role': 'system', 'content': 'Answer in json format only: {""latitude"": < e.g. ""14.832185"" >, ""longitude"": < e.g. ""4.212666"" >}. No explanation, just the answer!'}, {'role': 'user', 'content': 'What are the latitude and longitude of jaragua do sul, Brazil?'}]","{""latitude"": -27.055277, ""longitude"": -52.536389}",-27.055277,-52.536389,350.8443173159786
302909,br,jau,119209,-22.3,-48.55,"[{'role': 'system', 'content': 'Answer in json format only: {""latitude"": < e.g. ""14.832185"" >, ""longitude"": < e.g. ""4.212666"" >}. No explanation, just the answer!'}, {'role': 'user', 'content': 'What are the latitude and longitude of jau, Brazil?'}]","{""latitude"": -14.833333, ""longitude"": -45.216667}",-14.833333,-45.216667,898.1270085388237
302953,br,jequie,127479,-13.85,-40.083333,"[{'role': 'system', 'content': 'Answer in json format only: {""latitude"": < e.g. ""14.832185"" >, ""longitude"": < e.g. ""4.212666"" >}. No explanation, just the answer!'}, {'role': 'user', 'content': 'What are the latitude and longitude of jequie, Brazil?'}]","{""latitude"": -14.0824, ""longitude"": -41.625}",-14.0824,-41.625,168.54911820945577
303022,br,ji-parana,100128,-10.833333,-61.966667,"[{'role': 'system', 'content': 'Answer in json format only: {""latitude"": < e.g. ""14.832185"" >, ""longitude"": < e.g. ""4.212666"" >}. No explanation, just the answer!'}, {'role': 'user', 'content': 'What are the latitude and longitude of ji-parana, Brazil?'}]","{""latitude"": ""-5.934444"", ""longitude"": ""-36.111667""}",-5.934444,-36.111667,2897.275365231557
303185,br,joao pessoa,650896,-7.116667,-34.866667,"[{'role': 'system', 'content': 'Answer in json format only: {""latitude"": < e.g. ""14.832185"" >, ""longitude"": < e.g. ""4.212666"" >}. No explanation, just the answer!'}, {'role': 'user', 'content': 'What are the latitude and longitude of joao pessoa, Brazil?'}]","{""latitude"": -7.111705, ""longitude"": -34.883059}",-7.111705,-34.883059,1.892116667326095
303277,br,joinville,461312,-26.3,-48.833333,"[{'role': 'system', 'content': 'Answer in json format only: {""latitude"": < e.g. ""14.832185"" >, ""longitude"": < e.g. ""4.212666"" >}. No explanation, just the answer!'}, {'role': 'user', 'content': 'What are the latitude and longitude of joinville, Brazil?'}]","{""latitude"": -27.4243, ""longitude"": -53.3109}",-27.4243,-53.3109,462.0359214245873
303467,br,juazeiro do norte,225234,-7.2,-39.333333,"[{'role': 'system', 'content': 'Answer in json format only: {""latitude"": < e.g. ""14.832185"" >, ""longitude"": < e.g. ""4.212666"" >}. No explanation, just the answer!'}, {'role': 'user', 'content': 'What are the latitude and longitude of juazeiro do norte, Brazil?'}]","{""latitude"": -5.808889, ""longitude"": -38.494444}",-5.808889,-38.494444,179.6556272657609
303470,br,juazeiro,137807,-9.5,-40.5,"[{'role': 'system', 'content': 'Answer in json format only: {""latitude"": < e.g. ""14.832185"" >, ""longitude"": < e.g. ""4.212666"" >}. No explanation, just the answer!'}, {'role': 'user', 'content': 'What are the latitude and longitude of juazeiro, Brazil?'}]","{""latitude"": ""9.345033"", ""longitude"": ""-42.368067""}",9.345033,-42.368067,2094.2206598995913
303528,br,juiz de fora,470201,-21.751667,-43.352778,"[{'role': 'system', 'content': 'Answer in json format only: {""latitude"": < e.g. ""14.832185"" >, ""longitude"": < e.g. ""4.212666"" >}. No explanation, just the answer!'}, {'role': 'user', 'content': 'What are the latitude and longitude of juiz de fora, Brazil?'}]","{""latitude"": ""-20.437778"", ""longitude"": ""-44.313611""}",-20.437778,-44.313611,176.43226800763708
303568,br,jundiai,321595,-23.183333,-46.866667,"[{'role': 'system', 'content': 'Answer in json format only: {""latitude"": < e.g. ""14.832185"" >, ""longitude"": < e.g. ""4.212666"" >}. No explanation, just the answer!'}, {'role': 'user', 'content': 'What are the latitude and longitude of jundiai, Brazil?'}]","{""latitude"": ""-22.9353"", ""longitude"": ""-46.9164""}",-22.9353,-46.9164,27.937181341770223
303785,br,lages,164679,-27.8,-50.316666999999995,"[{'role': 'system', 'content': 'Answer in json format only: {""latitude"": < e.g. ""14.832185"" >, ""longitude"": < e.g. ""4.212666"" >}. No explanation, just the answer!'}, {'role': 'user', 'content': 'What are the latitude and longitude of lages, Brazil?'}]","{""latitude"": -22.456944, ""longitude"": -48.426667}",-22.456944,-48.426667,621.7743424316126
304623,br,limeira,289671,-22.561667,-47.402778000000005,"[{'role': 'system', 'content': 'Answer in json format only: {""latitude"": < e.g. ""14.832185"" >, ""longitude"": < e.g. ""4.212666"" >}. No explanation, just the answer!'}, {'role': 'user', 'content': 'What are the latitude and longitude of limeira, Brazil?'}]","{""latitude"": ""-22.271944"", ""longitude"": ""-47.161389""}",-22.271944,-47.161389,40.58281440651777
304697,br,linhares,105084,-19.416667,-40.066666999999995,"[{'role': 'system', 'content': 'Answer in json format only: {""latitude"": < e.g. ""14.832185"" >, ""longitude"": < e.g. ""4.212666"" >}. No explanation, just the answer!'}, {'role': 'user', 'content': 'What are the latitude and longitude of linhares, Brazil?'}]","{""latitude"": -22.915833, ""longitude"": -45.484444}",-22.915833,-45.484444,683.0186347358807
