index,Country,City,Population,Latitude,Longitude,Messages,Answers
93,ae,abu dhabi,603687,24.466667,54.36666700000001,"[{'role': 'system', 'content': 'Answer in json format only: {""latitude"": < e.g. ""14.832185"" >, ""longitude"": < e.g. ""4.212666"" >}. No explanation, just the answer!'}, {'role': 'user', 'content': 'What are the latitude and longitude of abu dhabi?'}]","{""latitude"": ""24.448786"", ""longitude"": ""54.358947""}"
242,ae,dubai,1137376,25.258172,55.304717,"[{'role': 'system', 'content': 'Answer in json format only: {""latitude"": < e.g. ""14.832185"" >, ""longitude"": < e.g. ""4.212666"" >}. No explanation, just the answer!'}, {'role': 'user', 'content': 'What are the latitude and longitude of dubai?'}]","{""latitude"": ""25.276987"", ""longitude"": ""55.296249""}"
490,ae,sharjah,543942,25.35731,55.403304000000006,"[{'role': 'system', 'content': 'Answer in json format only: {""latitude"": < e.g. ""14.832185"" >, ""longitude"": < e.g. ""4.212666"" >}. No explanation, just the answer!'}, {'role': 'user', 'content': 'What are the latitude and longitude of sharjah?'}]","{""latitude"": ""25.35731"", ""longitude"": ""55.403453""}"
6644,af,baglan,108481,36.130684,68.708286,"[{'role': 'system', 'content': 'Answer in json format only: {""latitude"": < e.g. ""14.832185"" >, ""longitude"": < e.g. ""4.212666"" >}. No explanation, just the answer!'}, {'role': 'user', 'content': 'What are the latitude and longitude of baglan?'}]","{""latitude"": ""51.615556"", ""longitude"": ""-3.806111""}"
24457,af,gardez,103732,33.597439,69.225922,"[{'role': 'system', 'content': 'Answer in json format only: {""latitude"": < e.g. ""14.832185"" >, ""longitude"": < e.g. ""4.212666"" >}. No explanation, just the answer!'}, {'role': 'user', 'content': 'What are the latitude and longitude of gardez?'}]","{""latitude"": ""33.597889"", ""longitude"": ""69.226667""}"
25037,af,gazni,143049,33.550833000000004,68.4225,"[{'role': 'system', 'content': 'Answer in json format only: {""latitude"": < e.g. ""14.832185"" >, ""longitude"": < e.g. ""4.212666"" >}. No explanation, just the answer!'}, {'role': 'user', 'content': 'What are the latitude and longitude of gazni?'}]","{""latitude"": ""33.55"", ""longitude"": ""68.416667""}"
29709,af,herat,272880,34.348167,62.199673,"[{'role': 'system', 'content': 'Answer in json format only: {""latitude"": < e.g. ""14.832185"" >, ""longitude"": < e.g. ""4.212666"" >}. No explanation, just the answer!'}, {'role': 'user', 'content': 'What are the latitude and longitude of herat?'}]","{""latitude"": ""34.3482"", ""longitude"": ""62.1997""}"
30969,af,jalalabad,200389,34.426468,70.45153,"[{'role': 'system', 'content': 'Answer in json format only: {""latitude"": < e.g. ""14.832185"" >, ""longitude"": < e.g. ""4.212666"" >}. No explanation, just the answer!'}, {'role': 'user', 'content': 'What are the latitude and longitude of jalalabad?'}]","{""latitude"": ""34.426282"", ""longitude"": ""70.448174""}"
32756,af,kabul,3043589,34.516667,69.18333299999999,"[{'role': 'system', 'content': 'Answer in json format only: {""latitude"": < e.g. ""14.832185"" >, ""longitude"": < e.g. ""4.212666"" >}. No explanation, just the answer!'}, {'role': 'user', 'content': 'What are the latitude and longitude of kabul?'}]","{""latitude"": ""34.528455"", ""longitude"": ""69.171700""}"
63360,af,qandahar,391230,31.613323,65.710126,"[{'role': 'system', 'content': 'Answer in json format only: {""latitude"": < e.g. ""14.832185"" >, ""longitude"": < e.g. ""4.212666"" >}. No explanation, just the answer!'}, {'role': 'user', 'content': 'What are the latitude and longitude of qandahar?'}]","{""latitude"": ""31.613166"", ""longitude"": ""65.710498""}"
66589,af,qunduz,161943,36.728955,68.857001,"[{'role': 'system', 'content': 'Answer in json format only: {""latitude"": < e.g. ""14.832185"" >, ""longitude"": < e.g. ""4.212666"" >}. No explanation, just the answer!'}, {'role': 'user', 'content': 'What are the latitude and longitude of qunduz?'}]","{""latitude"": ""36.7275"", ""longitude"": ""68.8597""}"
92530,al,durres,122034,41.3230556,19.4413889,"[{'role': 'system', 'content': 'Answer in json format only: {""latitude"": < e.g. ""14.832185"" >, ""longitude"": < e.g. ""4.212666"" >}. No explanation, just the answer!'}, {'role': 'user', 'content': 'What are the latitude and longitude of durres?'}]","{""latitude"": ""41.3233"", ""longitude"": ""19.4414""}"
92635,al,elbasan,100903,41.1125,20.082222199999997,"[{'role': 'system', 'content': 'Answer in json format only: {""latitude"": < e.g. ""14.832185"" >, ""longitude"": < e.g. ""4.212666"" >}. No explanation, just the answer!'}, {'role': 'user', 'content': 'What are the latitude and longitude of elbasan?'}]","{""latitude"": ""41.1122"", ""longitude"": ""20.0822""}"
102871,al,tirana,374801,41.3275,19.8188889,"[{'role': 'system', 'content': 'Answer in json format only: {""latitude"": < e.g. ""14.832185"" >, ""longitude"": < e.g. ""4.212666"" >}. No explanation, just the answer!'}, {'role': 'user', 'content': 'What are the latitude and longitude of tirana?'}]","{""latitude"": ""41.327545"", ""longitude"": ""19.818698""}"
105669,am,gyumri,148383,40.789444399999994,43.8475,"[{'role': 'system', 'content': 'Answer in json format only: {""latitude"": < e.g. ""14.832185"" >, ""longitude"": < e.g. ""4.212666"" >}. No explanation, just the answer!'}, {'role': 'user', 'content': 'What are the latitude and longitude of gyumri?'}]","{""latitude"": ""40.7942"", ""longitude"": ""43.8453""}"
107254,am,vanadzor,101099,40.8127778,44.4883333,"[{'role': 'system', 'content': 'Answer in json format only: {""latitude"": < e.g. ""14.832185"" >, ""longitude"": < e.g. ""4.212666"" >}. No explanation, just the answer!'}, {'role': 'user', 'content': 'What are the latitude and longitude of vanadzor?'}]","{""latitude"": ""40.804738"", ""longitude"": ""44.492591""}"
107461,am,yerevan,1093499,40.1811111,44.513611100000006,"[{'role': 'system', 'content': 'Answer in json format only: {""latitude"": < e.g. ""14.832185"" >, ""longitude"": < e.g. ""4.212666"" >}. No explanation, just the answer!'}, {'role': 'user', 'content': 'What are the latitude and longitude of yerevan?'}]","{""latitude"": ""40.1792"", ""longitude"": ""44.4992""}"
108559,ao,benguela,151235,-12.578333,13.407222,"[{'role': 'system', 'content': 'Answer in json format only: {""latitude"": < e.g. ""14.832185"" >, ""longitude"": < e.g. ""4.212666"" >}. No explanation, just the answer!'}, {'role': 'user', 'content': 'What are the latitude and longitude of benguela?'}]","{""latitude"": ""-12.577778"", ""longitude"": ""13.403611""}"
115986,ao,huambo,226177,-12.776111,15.739167000000002,"[{'role': 'system', 'content': 'Answer in json format only: {""latitude"": < e.g. ""14.832185"" >, ""longitude"": < e.g. ""4.212666"" >}. No explanation, just the answer!'}, {'role': 'user', 'content': 'What are the latitude and longitude of huambo?'}]","{""latitude"": ""-12.776389"", ""longitude"": ""15.739722""}"
116642,ao,kuito,113624,-12.383333,16.933332999999998,"[{'role': 'system', 'content': 'Answer in json format only: {""latitude"": < e.g. ""14.832185"" >, ""longitude"": < e.g. ""4.212666"" >}. No explanation, just the answer!'}, {'role': 'user', 'content': 'What are the latitude and longitude of kuito?'}]","{""latitude"": ""-12.383333"", ""longitude"": ""16.933333""}"
116936,ao,lobito,207957,-12.319722,13.599722,"[{'role': 'system', 'content': 'Answer in json format only: {""latitude"": < e.g. ""14.832185"" >, ""longitude"": < e.g. ""4.212666"" >}. No explanation, just the answer!'}, {'role': 'user', 'content': 'What are the latitude and longitude of lobito?'}]","{""latitude"": ""-12.366667"", ""longitude"": ""13.533333""}"
117135,ao,luanda,2776125,-8.836803999999999,13.233173999999998,"[{'role': 'system', 'content': 'Answer in json format only: {""latitude"": < e.g. ""14.832185"" >, ""longitude"": < e.g. ""4.212666"" >}. No explanation, just the answer!'}, {'role': 'user', 'content': 'What are the latitude and longitude of luanda?'}]","{""latitude"": ""-8.83629"", ""longitude"": ""13.23432""}"
117180,ao,lubango,102541,-14.916667000000002,13.5,"[{'role': 'system', 'content': 'Answer in json format only: {""latitude"": < e.g. ""14.832185"" >, ""longitude"": < e.g. ""4.212666"" >}. No explanation, just the answer!'}, {'role': 'user', 'content': 'What are the latitude and longitude of lubango?'}]","{""latitude"": ""-14.91739"", ""longitude"": ""13.48944""}"
127933,ar,bahia blanca,282950,-38.719595,-62.272431999999995,"[{'role': 'system', 'content': 'Answer in json format only: {""latitude"": < e.g. ""14.832185"" >, ""longitude"": < e.g. ""4.212666"" >}. No explanation, just the answer!'}, {'role': 'user', 'content': 'What are the latitude and longitude of bahia blanca?'}]","{""latitude"": ""-38.718056"", ""longitude"": ""-62.272222""}"
128679,ar,catamarca,213601,-28.469574,-65.785239,"[{'role': 'system', 'content': 'Answer in json format only: {""latitude"": < e.g. ""14.832185"" >, ""longitude"": < e.g. ""4.212666"" >}. No explanation, just the answer!'}, {'role': 'user', 'content': 'What are the latitude and longitude of catamarca?'}]","{""latitude"": ""-28.466667"", ""longitude"": ""-65.783333""}"
129279,ar,comodoro rivadavia,142597,-45.864135,-67.496558,"[{'role': 'system', 'content': 'Answer in json format only: {""latitude"": < e.g. ""14.832185"" >, ""longitude"": < e.g. ""4.212666"" >}. No explanation, just the answer!'}, {'role': 'user', 'content': 'What are the latitude and longitude of comodoro rivadavia?'}]","{""latitude"": ""-45.866667"", ""longitude"": ""-67.5""}"
129295,ar,concordia,155686,-31.392959,-58.02089,"[{'role': 'system', 'content': 'Answer in json format only: {""latitude"": < e.g. ""14.832185"" >, ""longitude"": < e.g. ""4.212666"" >}. No explanation, just the answer!'}, {'role': 'user', 'content': 'What are the latitude and longitude of concordia?'}]","{""latitude"": ""14.833333"", ""longitude"": ""4.216667""}"
129336,ar,cordoba,1441007,-31.413496,-64.18105200000001,"[{'role': 'system', 'content': 'Answer in json format only: {""latitude"": < e.g. ""14.832185"" >, ""longitude"": < e.g. ""4.212666"" >}. No explanation, just the answer!'}, {'role': 'user', 'content': 'What are the latitude and longitude of cordoba?'}]","{""latitude"": ""37.8772"", ""longitude"": ""-4.7794""}"
129422,ar,corrientes,390481,-27.480596,-58.834099,"[{'role': 'system', 'content': 'Answer in json format only: {""latitude"": < e.g. ""14.832185"" >, ""longitude"": < e.g. ""4.212666"" >}. No explanation, just the answer!'}, {'role': 'user', 'content': 'What are the latitude and longitude of corrientes?'}]","{""latitude"": ""-27.466667"", ""longitude"": ""-58.816667""}"
130450,ar,formosa,248756,-26.177534,-58.178139,"[{'role': 'system', 'content': 'Answer in json format only: {""latitude"": < e.g. ""14.832185"" >, ""longitude"": < e.g. ""4.212666"" >}. No explanation, just the answer!'}, {'role': 'user', 'content': 'What are the latitude and longitude of formosa?'}]","{""latitude"": ""24.0000"", ""longitude"": ""121.0000""}"
131309,ar,jujuy,277150,-24.194565,-65.297116,"[{'role': 'system', 'content': 'Answer in json format only: {""latitude"": < e.g. ""14.832185"" >, ""longitude"": < e.g. ""4.212666"" >}. No explanation, just the answer!'}, {'role': 'user', 'content': 'What are the latitude and longitude of jujuy?'}]","{""latitude"": ""-24.1853"", ""longitude"": ""-65.2971""}"
131741,ar,la plata,684318,-34.921454,-57.954533,"[{'role': 'system', 'content': 'Answer in json format only: {""latitude"": < e.g. ""14.832185"" >, ""longitude"": < e.g. ""4.212666"" >}. No explanation, just the answer!'}, {'role': 'user', 'content': 'What are the latitude and longitude of la plata?'}]","{""latitude"": ""-34.92145"", ""longitude"": ""-57.95453""}"
131795,ar,la rioja,178497,-29.411047999999997,-66.850668,"[{'role': 'system', 'content': 'Answer in json format only: {""latitude"": < e.g. ""14.832185"" >, ""longitude"": < e.g. ""4.212666"" >}. No explanation, just the answer!'}, {'role': 'user', 'content': 'What are the latitude and longitude of la rioja?'}]","{""latitude"": ""42.466667"", ""longitude"": ""-2.45""}"
132571,ar,mar del plata,645771,-38.002278,-57.557539,"[{'role': 'system', 'content': 'Answer in json format only: {""latitude"": < e.g. ""14.832185"" >, ""longitude"": < e.g. ""4.212666"" >}. No explanation, just the answer!'}, {'role': 'user', 'content': 'What are the latitude and longitude of mar del plata?'}]","{""latitude"": ""-38.005477"", ""longitude"": ""-57.542611""}"
132705,ar,mendoza,973047,-32.890845,-68.82717099999999,"[{'role': 'system', 'content': 'Answer in json format only: {""latitude"": < e.g. ""14.832185"" >, ""longitude"": < e.g. ""4.212666"" >}. No explanation, just the answer!'}, {'role': 'user', 'content': 'What are the latitude and longitude of mendoza?'}]","{""latitude"": ""-32.890182"", ""longitude"": ""-68.845838""}"
132712,ar,mercedes,126559,-33.674359,-65.461405,"[{'role': 'system', 'content': 'Answer in json format only: {""latitude"": < e.g. ""14.832185"" >, ""longitude"": < e.g. ""4.212666"" >}. No explanation, just the answer!'}, {'role': 'user', 'content': 'What are the latitude and longitude of mercedes?'}]","{""latitude"": ""29.967644"", ""longitude"": ""-97.910891""}"
133003,ar,neuquen,359037,-38.951606,-68.059102,"[{'role': 'system', 'content': 'Answer in json format only: {""latitude"": < e.g. ""14.832185"" >, ""longitude"": < e.g. ""4.212666"" >}. No explanation, just the answer!'}, {'role': 'user', 'content': 'What are the latitude and longitude of neuquen?'}]","{""latitude"": ""-38.952117"", ""longitude"": ""-68.059106""}"
133317,ar,parana,299257,-31.731966999999997,-60.523802,"[{'role': 'system', 'content': 'Answer in json format only: {""latitude"": < e.g. ""14.832185"" >, ""longitude"": < e.g. ""4.212666"" >}. No explanation, just the answer!'}, {'role': 'user', 'content': 'What are the latitude and longitude of parana?'}]","{""latitude"": ""-24.733333"", ""longitude"": ""-51.45""}"
133624,ar,posadas,313438,-27.367077,-55.896078,"[{'role': 'system', 'content': 'Answer in json format only: {""latitude"": < e.g. ""14.832185"" >, ""longitude"": < e.g. ""4.212666"" >}. No explanation, just the answer!'}, {'role': 'user', 'content': 'What are the latitude and longitude of posadas?'}]","{""latitude"": ""27.367204"", ""longitude"": ""-55.896593""}"
134159,ar,resistencia,406967,-27.460559999999997,-58.983886,"[{'role': 'system', 'content': 'Answer in json format only: {""latitude"": < e.g. ""14.832185"" >, ""longitude"": < e.g. ""4.212666"" >}. No explanation, just the answer!'}, {'role': 'user', 'content': 'What are the latitude and longitude of resistencia?'}]","{""latitude"": ""-27.451667"", ""longitude"": ""-58.983333""}"
134212,ar,rio cuarto,174058,-33.130671,-64.349918,"[{'role': 'system', 'content': 'Answer in json format only: {""latitude"": < e.g. ""14.832185"" >, ""longitude"": < e.g. ""4.212666"" >}. No explanation, just the answer!'}, {'role': 'user', 'content': 'What are the latitude and longitude of rio cuarto?'}]","{""latitude"": ""-33.130114"", ""longitude"": ""-64.349411""}"
134317,ar,rosario,1218497,-32.946818,-60.639317000000005,"[{'role': 'system', 'content': 'Answer in json format only: {""latitude"": < e.g. ""14.832185"" >, ""longitude"": < e.g. ""4.212666"" >}. No explanation, just the answer!'}, {'role': 'user', 'content': 'What are the latitude and longitude of rosario?'}]","{""latitude"": ""-32.946819"", ""longitude"": ""-60.63932""}"
134402,ar,salta,548288,-24.785895999999997,-65.411664,"[{'role': 'system', 'content': 'Answer in json format only: {""latitude"": < e.g. ""14.832185"" >, ""longitude"": < e.g. ""4.212666"" >}. No explanation, just the answer!'}, {'role': 'user', 'content': 'What are the latitude and longitude of salta?'}]","{""latitude"": ""-24.783333"", ""longitude"": ""-65.416667""}"
134483,ar,san carlos de bariloche,110044,-41.140293,-71.301369,"[{'role': 'system', 'content': 'Answer in json format only: {""latitude"": < e.g. ""14.832185"" >, ""longitude"": < e.g. ""4.212666"" >}. No explanation, just the answer!'}, {'role': 'user', 'content': 'What are the latitude and longitude of san carlos de bariloche?'}]","{""latitude"": ""-41.145569"", ""longitude"": ""-71.308774""}"
134640,ar,san juan,469958,-31.5375,-68.536389,"[{'role': 'system', 'content': 'Answer in json format only: {""latitude"": < e.g. ""14.832185"" >, ""longitude"": < e.g. ""4.212666"" >}. No explanation, just the answer!'}, {'role': 'user', 'content': 'What are the latitude and longitude of san juan?'}]","{""latitude"": ""18.220833"", ""longitude"": ""-66.050547""}"
134659,ar,san luis,184869,-33.295012,-66.335627,"[{'role': 'system', 'content': 'Answer in json format only: {""latitude"": < e.g. ""14.832185"" >, ""longitude"": < e.g. ""4.212666"" >}. No explanation, just the answer!'}, {'role': 'user', 'content': 'What are the latitude and longitude of san luis?'}]","{""latitude"": ""22.138056"", ""longitude"": ""100.983333""}"
134678,ar,san martin,107554,-33.081031,-68.468138,"[{'role': 'system', 'content': 'Answer in json format only: {""latitude"": < e.g. ""14.832185"" >, ""longitude"": < e.g. ""4.212666"" >}. No explanation, just the answer!'}, {'role': 'user', 'content': 'What are the latitude and longitude of san martin?'}]","{""latitude"": ""37.066339"", ""longitude"": ""-121.983006""}"
134703,ar,san nicolas,130705,-33.335784000000004,-60.225233,"[{'role': 'system', 'content': 'Answer in json format only: {""latitude"": < e.g. ""14.832185"" >, ""longitude"": < e.g. ""4.212666"" >}. No explanation, just the answer!'}, {'role': 'user', 'content': 'What are the latitude and longitude of san nicolas?'}]","{""latitude"": ""14.832185"", ""longitude"": ""120.949893""}"
134735,ar,san rafael,125033,-34.617717,-68.330066,"[{'role': 'system', 'content': 'Answer in json format only: {""latitude"": < e.g. ""14.832185"" >, ""longitude"": < e.g. ""4.212666"" >}. No explanation, just the answer!'}, {'role': 'user', 'content': 'What are the latitude and longitude of san rafael?'}]","{""latitude"": ""37.973523"", ""longitude"": ""-122.524586""}"
134802,ar,santa fe,456044,-31.629484,-60.701036,"[{'role': 'system', 'content': 'Answer in json format only: {""latitude"": < e.g. ""14.832185"" >, ""longitude"": < e.g. ""4.212666"" >}. No explanation, just the answer!'}, {'role': 'user', 'content': 'What are the latitude and longitude of santa fe?'}]","{""latitude"": ""35.686965"", ""longitude"": ""-105.937796""}"
134880,ar,santiago del estero,407636,-27.795112,-64.261489,"[{'role': 'system', 'content': 'Answer in json format only: {""latitude"": < e.g. ""14.832185"" >, ""longitude"": < e.g. ""4.212666"" >}. No explanation, just the answer!'}, {'role': 'user', 'content': 'What are the latitude and longitude of santiago del estero?'}]","{""latitude"": ""-27.783333"", ""longitude"": ""-64.266667""}"
135204,ar,tandil,100127,-37.321674,-59.133164,"[{'role': 'system', 'content': 'Answer in json format only: {""latitude"": < e.g. ""14.832185"" >, ""longitude"": < e.g. ""4.212666"" >}. No explanation, just the answer!'}, {'role': 'user', 'content': 'What are the latitude and longitude of tandil?'}]","{""latitude"": ""-37.326111"", ""longitude"": ""-59.133889""}"
135381,ar,trelew,107883,-43.250075,-65.313295,"[{'role': 'system', 'content': 'Answer in json format only: {""latitude"": < e.g. ""14.832185"" >, ""longitude"": < e.g. ""4.212666"" >}. No explanation, just the answer!'}, {'role': 'user', 'content': 'What are the latitude and longitude of trelew?'}]","{""latitude"": ""-43.2552"", ""longitude"": ""-65.3107""}"
135445,ar,tucuman,828402,-26.824144,-65.2226,"[{'role': 'system', 'content': 'Answer in json format only: {""latitude"": < e.g. ""14.832185"" >, ""longitude"": < e.g. ""4.212666"" >}. No explanation, just the answer!'}, {'role': 'user', 'content': 'What are the latitude and longitude of tucuman?'}]","{""latitude"": ""-26.82414"", ""longitude"": ""-65.2226""}"
139363,at,graz,222326,47.066666999999995,15.45,"[{'role': 'system', 'content': 'Answer in json format only: {""latitude"": < e.g. ""14.832185"" >, ""longitude"": < e.g. ""4.212666"" >}. No explanation, just the answer!'}, {'role': 'user', 'content': 'What are the latitude and longitude of graz?'}]","{""latitude"": ""47.0707"", ""longitude"": ""15.4383""}"
140951,at,innsbruck,112467,47.266667,11.4,"[{'role': 'system', 'content': 'Answer in json format only: {""latitude"": < e.g. ""14.832185"" >, ""longitude"": < e.g. ""4.212666"" >}. No explanation, just the answer!'}, {'role': 'user', 'content': 'What are the latitude and longitude of innsbruck?'}]","{""latitude"": ""47.2627"", ""longitude"": ""11.3942""}"
142702,at,linz,181163,48.3,14.3,"[{'role': 'system', 'content': 'Answer in json format only: {""latitude"": < e.g. ""14.832185"" >, ""longitude"": < e.g. ""4.212666"" >}. No explanation, just the answer!'}, {'role': 'user', 'content': 'What are the latitude and longitude of linz?'}]","{""latitude"": ""48.30639"", ""longitude"": ""14.28611""}"
146657,at,salzburg,145310,47.8,13.033333,"[{'role': 'system', 'content': 'Answer in json format only: {""latitude"": < e.g. ""14.832185"" >, ""longitude"": < e.g. ""4.212666"" >}. No explanation, just the answer!'}, {'role': 'user', 'content': 'What are the latitude and longitude of salzburg?'}]","{""latitude"": ""47.798882"", ""longitude"": ""13.046635""}"
149599,at,vienna,1569315,48.2,16.366667,"[{'role': 'system', 'content': 'Answer in json format only: {""latitude"": < e.g. ""14.832185"" >, ""longitude"": < e.g. ""4.212666"" >}. No explanation, just the answer!'}, {'role': 'user', 'content': 'What are the latitude and longitude of vienna?'}]","{""latitude"": ""48.208174"", ""longitude"": ""16.373819""}"
150905,au,adelaide,1074168,-34.928661,138.598633,"[{'role': 'system', 'content': 'Answer in json format only: {""latitude"": < e.g. ""14.832185"" >, ""longitude"": < e.g. ""4.212666"" >}. No explanation, just the answer!'}, {'role': 'user', 'content': 'What are the latitude and longitude of adelaide?'}]","{""latitude"": ""-34.925768"", ""longitude"": ""138.599731""}"
150938,au,albury,104261,-36.074940000000005,146.923935,"[{'role': 'system', 'content': 'Answer in json format only: {""latitude"": < e.g. ""14.832185"" >, ""longitude"": < e.g. ""4.212666"" >}. No explanation, just the answer!'}, {'role': 'user', 'content': 'What are the latitude and longitude of albury?'}]","{""latitude"": ""-36.073333"", ""longitude"": ""146.916667""}"
152164,au,brisbane,1843459,-27.471009999999996,153.024292,"[{'role': 'system', 'content': 'Answer in json format only: {""latitude"": < e.g. ""14.832185"" >, ""longitude"": < e.g. ""4.212666"" >}. No explanation, just the answer!'}, {'role': 'user', 'content': 'What are the latitude and longitude of brisbane?'}]","{""latitude"": ""-27.470125"", ""longitude"": ""153.021072""}"
152534,au,cairns,154318,-16.92304,145.766251,"[{'role': 'system', 'content': 'Answer in json format only: {""latitude"": < e.g. ""14.832185"" >, ""longitude"": < e.g. ""4.212666"" >}. No explanation, just the answer!'}, {'role': 'user', 'content': 'What are the latitude and longitude of cairns?'}]","{""latitude"": ""-16.925278"", ""longitude"": ""145.775278""}"
152621,au,canberra,324025,-35.27603,149.13435,"[{'role': 'system', 'content': 'Answer in json format only: {""latitude"": < e.g. ""14.832185"" >, ""longitude"": < e.g. ""4.212666"" >}. No explanation, just the answer!'}, {'role': 'user', 'content': 'What are the latitude and longitude of canberra?'}]","{""latitude"": ""-35.2833"", ""longitude"": ""149.1281""}"
154465,au,geelong,150438,-38.153461,144.358093,"[{'role': 'system', 'content': 'Answer in json format only: {""latitude"": < e.g. ""14.832185"" >, ""longitude"": < e.g. ""4.212666"" >}. No explanation, just the answer!'}, {'role': 'user', 'content': 'What are the latitude and longitude of geelong?'}]","{""latitude"": ""-38.1493"", ""longitude"": ""144.3597""}"
154704,au,gold coast,501175,-28.000290000000003,153.430878,"[{'role': 'system', 'content': 'Answer in json format only: {""latitude"": < e.g. ""14.832185"" >, ""longitude"": < e.g. ""4.212666"" >}. No explanation, just the answer!'}, {'role': 'user', 'content': 'What are the latitude and longitude of gold coast?'}]","{""latitude"": ""-28.016667"", ""longitude"": ""153.416667""}"
155251,au,hobart,204863,-42.883209,147.331665,"[{'role': 'system', 'content': 'Answer in json format only: {""latitude"": < e.g. ""14.832185"" >, ""longitude"": < e.g. ""4.212666"" >}. No explanation, just the answer!'}, {'role': 'user', 'content': 'What are the latitude and longitude of hobart?'}]","{""latitude"": ""-42.8822"", ""longitude"": ""147.3271""}"
156937,au,melbourne,3730212,-37.813938,144.963425,"[{'role': 'system', 'content': 'Answer in json format only: {""latitude"": < e.g. ""14.832185"" >, ""longitude"": < e.g. ""4.212666"" >}. No explanation, just the answer!'}, {'role': 'user', 'content': 'What are the latitude and longitude of melbourne?'}]","{""latitude"": ""-37.816218"", ""longitude"": ""144.963169""}"
157956,au,newcastle,497961,-32.927792,151.78448500000002,"[{'role': 'system', 'content': 'Answer in json format only: {""latitude"": < e.g. ""14.832185"" >, ""longitude"": < e.g. ""4.212666"" >}. No explanation, just the answer!'}, {'role': 'user', 'content': 'What are the latitude and longitude of newcastle?'}]","{""latitude"": ""54.969855"", ""longitude"": ""-1.62179""}"
158599,au,perth,1446715,-31.952240000000003,115.861397,"[{'role': 'system', 'content': 'Answer in json format only: {""latitude"": < e.g. ""14.832185"" >, ""longitude"": < e.g. ""4.212666"" >}. No explanation, just the answer!'}, {'role': 'user', 'content': 'What are the latitude and longitude of perth?'}]","{""latitude"": ""-31.9551"", ""longitude"": ""115.8586""}"
159856,au,sydney,4394585,-33.861481,151.205475,"[{'role': 'system', 'content': 'Answer in json format only: {""latitude"": < e.g. ""14.832185"" >, ""longitude"": < e.g. ""4.212666"" >}. No explanation, just the answer!'}, {'role': 'user', 'content': 'What are the latitude and longitude of sydney?'}]","{""latitude"": ""-33.8688197"", ""longitude"": ""151.2092955""}"
160351,au,townsville,138959,-19.26639,146.805695,"[{'role': 'system', 'content': 'Answer in json format only: {""latitude"": < e.g. ""14.832185"" >, ""longitude"": < e.g. ""4.212666"" >}. No explanation, just the answer!'}, {'role': 'user', 'content': 'What are the latitude and longitude of townsville?'}]","{""latitude"": ""-19.2582"", ""longitude"": ""146.8169""}"
161339,au,wollongong,260918,-34.424,150.893448,"[{'role': 'system', 'content': 'Answer in json format only: {""latitude"": < e.g. ""14.832185"" >, ""longitude"": < e.g. ""4.212666"" >}. No explanation, just the answer!'}, {'role': 'user', 'content': 'What are the latitude and longitude of wollongong?'}]","{""latitude"": ""-34.424667"", ""longitude"": ""150.893056""}"
163345,az,baku,1116513,40.395278000000005,49.882222,"[{'role': 'system', 'content': 'Answer in json format only: {""latitude"": < e.g. ""14.832185"" >, ""longitude"": < e.g. ""4.212666"" >}. No explanation, just the answer!'}, {'role': 'user', 'content': 'What are the latitude and longitude of baku?'}]","{""latitude"": ""40.366638"", ""longitude"": ""49.835941""}"
173521,ba,banja luka,221100,44.775833299999995,17.1855556,"[{'role': 'system', 'content': 'Answer in json format only: {""latitude"": < e.g. ""14.832185"" >, ""longitude"": < e.g. ""4.212666"" >}. No explanation, just the answer!'}, {'role': 'user', 'content': 'What are the latitude and longitude of banja luka?'}]","{""latitude"": ""44.7722"", ""longitude"": ""17.1917""}"
182374,ba,mostar,104517,43.3433333,17.8080556,"[{'role': 'system', 'content': 'Answer in json format only: {""latitude"": < e.g. ""14.832185"" >, ""longitude"": < e.g. ""4.212666"" >}. No explanation, just the answer!'}, {'role': 'user', 'content': 'What are the latitude and longitude of mostar?'}]","{""latitude"": ""43.343333"", ""longitude"": ""17.807498""}"
185607,ba,sarajevo,696726,43.85,18.3833333,"[{'role': 'system', 'content': 'Answer in json format only: {""latitude"": < e.g. ""14.832185"" >, ""longitude"": < e.g. ""4.212666"" >}. No explanation, just the answer!'}, {'role': 'user', 'content': 'What are the latitude and longitude of sarajevo?'}]","{""latitude"": ""43.856258"", ""longitude"": ""18.413076""}"
187624,ba,tuzla,142484,44.5427778,18.6694444,"[{'role': 'system', 'content': 'Answer in json format only: {""latitude"": < e.g. ""14.832185"" >, ""longitude"": < e.g. ""4.212666"" >}. No explanation, just the answer!'}, {'role': 'user', 'content': 'What are the latitude and longitude of tuzla?'}]","{""latitude"": ""44.53819"", ""longitude"": ""18.6679""}"
188922,ba,zenica,164422,44.2013889,17.9063889,"[{'role': 'system', 'content': 'Answer in json format only: {""latitude"": < e.g. ""14.832185"" >, ""longitude"": < e.g. ""4.212666"" >}. No explanation, just the answer!'}, {'role': 'user', 'content': 'What are the latitude and longitude of zenica?'}]","{""latitude"": ""44.203194"", ""longitude"": ""17.924327""}"
192688,bd,barisal,280437,22.7,90.3666667,"[{'role': 'system', 'content': 'Answer in json format only: {""latitude"": < e.g. ""14.832185"" >, ""longitude"": < e.g. ""4.212666"" >}. No explanation, just the answer!'}, {'role': 'user', 'content': 'What are the latitude and longitude of barisal?'}]","{""latitude"": ""22.701011"", ""longitude"": ""90.374013""}"
193449,bd,bhairab bazar,105470,24.0666667,90.9666667,"[{'role': 'system', 'content': 'Answer in json format only: {""latitude"": < e.g. ""14.832185"" >, ""longitude"": < e.g. ""4.212666"" >}. No explanation, just the answer!'}, {'role': 'user', 'content': 'What are the latitude and longitude of bhairab bazar?'}]","{""latitude"": ""24.066667"", ""longitude"": ""91.616667""}"
195401,bd,chandpur,120183,23.15,90.7166667,"[{'role': 'system', 'content': 'Answer in json format only: {""latitude"": < e.g. ""14.832185"" >, ""longitude"": < e.g. ""4.212666"" >}. No explanation, just the answer!'}, {'role': 'user', 'content': 'What are the latitude and longitude of chandpur?'}]","{""latitude"": ""23.2333"", ""longitude"": ""90.6333""}"
198311,bd,dhaka,6493177,23.7230556,90.4086111,"[{'role': 'system', 'content': 'Answer in json format only: {""latitude"": < e.g. ""14.832185"" >, ""longitude"": < e.g. ""4.212666"" >}. No explanation, just the answer!'}, {'role': 'user', 'content': 'What are the latitude and longitude of dhaka?'}]","{""latitude"": ""23.8103"", ""longitude"": ""90.4125""}"
198891,bd,dinajpur,206251,25.6333333,88.6333333,"[{'role': 'system', 'content': 'Answer in json format only: {""latitude"": < e.g. ""14.832185"" >, ""longitude"": < e.g. ""4.212666"" >}. No explanation, just the answer!'}, {'role': 'user', 'content': 'What are the latitude and longitude of dinajpur?'}]","{""latitude"": ""25.627079"", ""longitude"": ""88.635982""}"
199526,bd,faridpur,112200,23.6,89.83333329999999,"[{'role': 'system', 'content': 'Answer in json format only: {""latitude"": < e.g. ""14.832185"" >, ""longitude"": < e.g. ""4.212666"" >}. No explanation, just the answer!'}, {'role': 'user', 'content': 'What are the latitude and longitude of faridpur?'}]","{""latitude"": ""23.607082"", ""longitude"": ""89.841268""}"
200104,bd,gazipur,132249,23.8,90.65,"[{'role': 'system', 'content': 'Answer in json format only: {""latitude"": < e.g. ""14.832185"" >, ""longitude"": < e.g. ""4.212666"" >}. No explanation, just the answer!'}, {'role': 'user', 'content': 'What are the latitude and longitude of gazipur?'}]","{""latitude"": ""24.0833"", ""longitude"": ""90.4242""}"
202157,bd,jamalpur,167914,24.9166667,89.9333333,"[{'role': 'system', 'content': 'Answer in json format only: {""latitude"": < e.g. ""14.832185"" >, ""longitude"": < e.g. ""4.212666"" >}. No explanation, just the answer!'}, {'role': 'user', 'content': 'What are the latitude and longitude of jamalpur?'}]","{""latitude"": ""24.9177"", ""longitude"": ""89.9374""}"
205021,bd,khulna,1342429,22.8,89.55,"[{'role': 'system', 'content': 'Answer in json format only: {""latitude"": < e.g. ""14.832185"" >, ""longitude"": < e.g. ""4.212666"" >}. No explanation, just the answer!'}, {'role': 'user', 'content': 'What are the latitude and longitude of khulna?'}]","{""latitude"": ""22.813296"", ""longitude"": ""89.563306""}"
208581,bd,narayanganj,223773,23.6233333,90.5011111,"[{'role': 'system', 'content': 'Answer in json format only: {""latitude"": < e.g. ""14.832185"" >, ""longitude"": < e.g. ""4.212666"" >}. No explanation, just the answer!'}, {'role': 'user', 'content': 'What are the latitude and longitude of narayanganj?'}]","{""latitude"": ""23.623344"", ""longitude"": ""90.499819""}"
208651,bd,narsingdi,281110,23.9208333,90.7180556,"[{'role': 'system', 'content': 'Answer in json format only: {""latitude"": < e.g. ""14.832185"" >, ""longitude"": < e.g. ""4.212666"" >}. No explanation, just the answer!'}, {'role': 'user', 'content': 'What are the latitude and longitude of narsingdi?'}]","{""latitude"": ""23.9222"", ""longitude"": ""90.7150""}"
208758,bd,nawabganj,142373,24.6,88.2833333,"[{'role': 'system', 'content': 'Answer in json format only: {""latitude"": < e.g. ""14.832185"" >, ""longitude"": < e.g. ""4.212666"" >}. No explanation, just the answer!'}, {'role': 'user', 'content': 'What are the latitude and longitude of nawabganj?'}]","{""latitude"": ""26.2623"", ""longitude"": ""88.2678""}"
209466,bd,pabna,137904,24.0,89.25,"[{'role': 'system', 'content': 'Answer in json format only: {""latitude"": < e.g. ""14.832185"" >, ""longitude"": < e.g. ""4.212666"" >}. No explanation, just the answer!'}, {'role': 'user', 'content': 'What are the latitude and longitude of pabna?'}]","{""latitude"": ""24.006358"", ""longitude"": ""89.233651""}"
211478,bd,rajshahi,700206,24.3666667,88.6,"[{'role': 'system', 'content': 'Answer in json format only: {""latitude"": < e.g. ""14.832185"" >, ""longitude"": < e.g. ""4.212666"" >}. No explanation, just the answer!'}, {'role': 'user', 'content': 'What are the latitude and longitude of rajshahi?'}]","{""latitude"": ""24.363589"", ""longitude"": ""88.624135""}"
211735,bd,rangpur,285586,25.75,89.25,"[{'role': 'system', 'content': 'Answer in json format only: {""latitude"": < e.g. ""14.832185"" >, ""longitude"": < e.g. ""4.212666"" >}. No explanation, just the answer!'}, {'role': 'user', 'content': 'What are the latitude and longitude of rangpur?'}]","{""latitude"": ""25.746767"", ""longitude"": ""89.251656""}"
213021,bd,satkhira,128933,22.7166667,89.1,"[{'role': 'system', 'content': 'Answer in json format only: {""latitude"": < e.g. ""14.832185"" >, ""longitude"": < e.g. ""4.212666"" >}. No explanation, just the answer!'}, {'role': 'user', 'content': 'What are the latitude and longitude of satkhira?'}]","{""latitude"": ""22.718491"", ""longitude"": ""89.071656""}"
213353,bd,sherpur,107431,25.0166667,90.0166667,"[{'role': 'system', 'content': 'Answer in json format only: {""latitude"": < e.g. ""14.832185"" >, ""longitude"": < e.g. ""4.212666"" >}. No explanation, just the answer!'}, {'role': 'user', 'content': 'What are the latitude and longitude of sherpur?'}]","{""latitude"": ""25.016667"", ""longitude"": ""90.016667""}"
213705,bd,sirajganj,167501,24.45,89.7166667,"[{'role': 'system', 'content': 'Answer in json format only: {""latitude"": < e.g. ""14.832185"" >, ""longitude"": < e.g. ""4.212666"" >}. No explanation, just the answer!'}, {'role': 'user', 'content': 'What are the latitude and longitude of sirajganj?'}]","{""latitude"": ""24.458333"", ""longitude"": ""89.708333""}"
215372,bd,tungi,337620,23.89,90.4058333,"[{'role': 'system', 'content': 'Answer in json format only: {""latitude"": < e.g. ""14.832185"" >, ""longitude"": < e.g. ""4.212666"" >}. No explanation, just the answer!'}, {'role': 'user', 'content': 'What are the latitude and longitude of tungi?'}]","{""latitude"": ""8.733333"", ""longitude"": ""-11.466667""}"
216365,be,antwerp,459805,51.216667,4.4166669999999995,"[{'role': 'system', 'content': 'Answer in json format only: {""latitude"": < e.g. ""14.832185"" >, ""longitude"": < e.g. ""4.212666"" >}. No explanation, just the answer!'}, {'role': 'user', 'content': 'What are the latitude and longitude of antwerp?'}]","{""latitude"": ""51.2206"", ""longitude"": ""4.4025""}"
218048,be,brugge,116709,51.216667,3.233333,"[{'role': 'system', 'content': 'Answer in json format only: {""latitude"": < e.g. ""14.832185"" >, ""longitude"": < e.g. ""4.212666"" >}. No explanation, just the answer!'}, {'role': 'user', 'content': 'What are the latitude and longitude of brugge?'}]","{""latitude"": ""51.2084"", ""longitude"": ""3.2242""}"
218097,be,brussels,1019022,50.833333,4.3333330000000005,"[{'role': 'system', 'content': 'Answer in json format only: {""latitude"": < e.g. ""14.832185"" >, ""longitude"": < e.g. ""4.212666"" >}. No explanation, just the answer!'}, {'role': 'user', 'content': 'What are the latitude and longitude of brussels?'}]","{""latitude"": ""50.85034"", ""longitude"": ""4.35171""}"
218440,be,charleroi,200132,50.416667,4.433333,"[{'role': 'system', 'content': 'Answer in json format only: {""latitude"": < e.g. ""14.832185"" >, ""longitude"": < e.g. ""4.212666"" >}. No explanation, just the answer!'}, {'role': 'user', 'content': 'What are the latitude and longitude of charleroi?'}]","{""latitude"": ""50.41203"", ""longitude"": ""4.443713""}"
220688,be,gent,231493,51.05,3.716667,"[{'role': 'system', 'content': 'Answer in json format only: {""latitude"": < e.g. ""14.832185"" >, ""longitude"": < e.g. ""4.212666"" >}. No explanation, just the answer!'}, {'role': 'user', 'content': 'What are the latitude and longitude of gent?'}]","{""latitude"": ""51.053855"", ""longitude"": ""3.725010""}"
224980,be,liege,182597,50.633333,5.566667,"[{'role': 'system', 'content': 'Answer in json format only: {""latitude"": < e.g. ""14.832185"" >, ""longitude"": < e.g. ""4.212666"" >}. No explanation, just the answer!'}, {'role': 'user', 'content': 'What are the latitude and longitude of liege?'}]","{""latitude"": ""50.633333"", ""longitude"": ""5.566667""}"
226408,be,namur,106284,50.466667,4.866667,"[{'role': 'system', 'content': 'Answer in json format only: {""latitude"": < e.g. ""14.832185"" >, ""longitude"": < e.g. ""4.212666"" >}. No explanation, just the answer!'}, {'role': 'user', 'content': 'What are the latitude and longitude of namur?'}]","{""latitude"": ""50.466667"", ""longitude"": ""4.866667""}"
233219,bf,bobo dioulasso,370809,11.2,-4.3,"[{'role': 'system', 'content': 'Answer in json format only: {""latitude"": < e.g. ""14.832185"" >, ""longitude"": < e.g. ""4.212666"" >}. No explanation, just the answer!'}, {'role': 'user', 'content': 'What are the latitude and longitude of bobo dioulasso?'}]","{""latitude"": ""11.183333"", ""longitude"": ""-4.283333""}"
238758,bf,ouagadougou,1031330,12.3702778,-1.5247222,"[{'role': 'system', 'content': 'Answer in json format only: {""latitude"": < e.g. ""14.832185"" >, ""longitude"": < e.g. ""4.212666"" >}. No explanation, just the answer!'}, {'role': 'user', 'content': 'What are the latitude and longitude of ouagadougou?'}]","{""latitude"": ""12.358333"", ""longitude"": ""-1.535278""}"
245134,bg,burgas,188554,42.5,27.4666667,"[{'role': 'system', 'content': 'Answer in json format only: {""latitude"": < e.g. ""14.832185"" >, ""longitude"": < e.g. ""4.212666"" >}. No explanation, just the answer!'}, {'role': 'user', 'content': 'What are the latitude and longitude of burgas?'}]","{""latitude"": ""42.506893"", ""longitude"": ""27.467681""}"
256587,bg,pleven,132542,43.4166667,24.6166667,"[{'role': 'system', 'content': 'Answer in json format only: {""latitude"": < e.g. ""14.832185"" >, ""longitude"": < e.g. ""4.212666"" >}. No explanation, just the answer!'}, {'role': 'user', 'content': 'What are the latitude and longitude of pleven?'}]","{""latitude"": ""43.41195"", ""longitude"": ""24.61667""}"
256601,bg,plovdiv,332088,42.15,24.75,"[{'role': 'system', 'content': 'Answer in json format only: {""latitude"": < e.g. ""14.832185"" >, ""longitude"": < e.g. ""4.212666"" >}. No explanation, just the answer!'}, {'role': 'user', 'content': 'What are the latitude and longitude of plovdiv?'}]","{""latitude"": ""42.135986"", ""longitude"": ""24.746635""}"
257831,bg,ruse,157519,43.8563889,25.9708333,"[{'role': 'system', 'content': 'Answer in json format only: {""latitude"": < e.g. ""14.832185"" >, ""longitude"": < e.g. ""4.212666"" >}. No explanation, just the answer!'}, {'role': 'user', 'content': 'What are the latitude and longitude of ruse?'}]","{""latitude"": ""43.8564"", ""longitude"": ""25.9708""}"
259122,bg,sofia,1062065,42.6833333,23.3166667,"[{'role': 'system', 'content': 'Answer in json format only: {""latitude"": < e.g. ""14.832185"" >, ""longitude"": < e.g. ""4.212666"" >}. No explanation, just the answer!'}, {'role': 'user', 'content': 'What are the latitude and longitude of sofia?'}]","{""latitude"": ""42.697868"", ""longitude"": ""23.3225""}"
259464,bg,stara zagora,137760,42.4327778,25.6419444,"[{'role': 'system', 'content': 'Answer in json format only: {""latitude"": < e.g. ""14.832185"" >, ""longitude"": < e.g. ""4.212666"" >}. No explanation, just the answer!'}, {'role': 'user', 'content': 'What are the latitude and longitude of stara zagora?'}]","{""latitude"": ""42.4328"", ""longitude"": ""25.6419""}"
261386,bg,varna,307952,43.216666700000005,27.9166667,"[{'role': 'system', 'content': 'Answer in json format only: {""latitude"": < e.g. ""14.832185"" >, ""longitude"": < e.g. ""4.212666"" >}. No explanation, just the answer!'}, {'role': 'user', 'content': 'What are the latitude and longitude of varna?'}]","{""latitude"": ""43.2078"", ""longitude"": ""27.9167""}"
263132,bh,manama,147097,26.2361111,50.5830556,"[{'role': 'system', 'content': 'Answer in json format only: {""latitude"": < e.g. ""14.832185"" >, ""longitude"": < e.g. ""4.212666"" >}. No explanation, just the answer!'}, {'role': 'user', 'content': 'What are the latitude and longitude of manama?'}]","{""latitude"": ""26.228516"", ""longitude"": ""50.584195""}"
263354,bi,bujumbura,330539,-3.3761111000000006,29.36,"[{'role': 'system', 'content': 'Answer in json format only: {""latitude"": < e.g. ""14.832185"" >, ""longitude"": < e.g. ""4.212666"" >}. No explanation, just the answer!'}, {'role': 'user', 'content': 'What are the latitude and longitude of bujumbura?'}]","{""latitude"": ""-3.3822"", ""longitude"": ""29.3644""}"
265311,bj,abomey-calavi,385823,6.45,2.35,"[{'role': 'system', 'content': 'Answer in json format only: {""latitude"": < e.g. ""14.832185"" >, ""longitude"": < e.g. ""4.212666"" >}. No explanation, just the answer!'}, {'role': 'user', 'content': 'What are the latitude and longitude of abomey-calavi?'}]","{""latitude"": ""6.448333"", ""longitude"": ""2.353333""}"
266100,bj,bohicon,125116,7.2,2.0666667000000003,"[{'role': 'system', 'content': 'Answer in json format only: {""latitude"": < e.g. ""14.832185"" >, ""longitude"": < e.g. ""4.212666"" >}. No explanation, just the answer!'}, {'role': 'user', 'content': 'What are the latitude and longitude of bohicon?'}]","{""latitude"": ""7.1780556"", ""longitude"": ""2.0666667""}"
266298,bj,cotonou,690584,6.35,2.4333332999999997,"[{'role': 'system', 'content': 'Answer in json format only: {""latitude"": < e.g. ""14.832185"" >, ""longitude"": < e.g. ""4.212666"" >}. No explanation, just the answer!'}, {'role': 'user', 'content': 'What are the latitude and longitude of cotonou?'}]","{""latitude"": ""6.3703"", ""longitude"": ""2.4274""}"
266526,bj,djougou,202834,9.705,1.6669444,"[{'role': 'system', 'content': 'Answer in json format only: {""latitude"": < e.g. ""14.832185"" >, ""longitude"": < e.g. ""4.212666"" >}. No explanation, just the answer!'}, {'role': 'user', 'content': 'What are the latitude and longitude of djougou?'}]","{""latitude"": ""9.7"", ""longitude"": ""1.666667""}"
267254,bj,kandi,109705,11.134166699999998,2.9386111,"[{'role': 'system', 'content': 'Answer in json format only: {""latitude"": < e.g. ""14.832185"" >, ""longitude"": < e.g. ""4.212666"" >}. No explanation, just the answer!'}, {'role': 'user', 'content': 'What are the latitude and longitude of kandi?'}]","{""latitude"": ""11.133333"", ""longitude"": ""2.933333""}"
268441,bj,parakou,163759,9.35,2.6166667,"[{'role': 'system', 'content': 'Answer in json format only: {""latitude"": < e.g. ""14.832185"" >, ""longitude"": < e.g. ""4.212666"" >}. No explanation, just the answer!'}, {'role': 'user', 'content': 'What are the latitude and longitude of parakou?'}]","{""latitude"": ""9.350000"", ""longitude"": ""2.616667""}"
272945,bo,cochabamba,900440,-17.3833333,-66.15,"[{'role': 'system', 'content': 'Answer in json format only: {""latitude"": < e.g. ""14.832185"" >, ""longitude"": < e.g. ""4.212666"" >}. No explanation, just the answer!'}, {'role': 'user', 'content': 'What are the latitude and longitude of cochabamba?'}]","{""latitude"": ""-17.3848"", ""longitude"": ""-66.1653""}"
279504,bo,la paz,812819,-16.5,-68.15,"[{'role': 'system', 'content': 'Answer in json format only: {""latitude"": < e.g. ""14.832185"" >, ""longitude"": < e.g. ""4.212666"" >}. No explanation, just the answer!'}, {'role': 'user', 'content': 'What are the latitude and longitude of la paz?'}]","{""latitude"": ""-16.492778"", ""longitude"": ""-68.147778""}"
281038,bo,oruro,208687,-17.9833333,-67.15,"[{'role': 'system', 'content': 'Answer in json format only: {""latitude"": < e.g. ""14.832185"" >, ""longitude"": < e.g. ""4.212666"" >}. No explanation, just the answer!'}, {'role': 'user', 'content': 'What are the latitude and longitude of oruro?'}]","{""latitude"": ""-17.966667"", ""longitude"": ""-67.116667""}"
282003,bo,potosi,141254,-19.5836111,-65.7530556,"[{'role': 'system', 'content': 'Answer in json format only: {""latitude"": < e.g. ""14.832185"" >, ""longitude"": < e.g. ""4.212666"" >}. No explanation, just the answer!'}, {'role': 'user', 'content': 'What are the latitude and longitude of potosi?'}]","{""latitude"": ""19.583333"", ""longitude"": ""-65.75""}"
283929,bo,sucre,224846,-19.0430556,-65.25916670000001,"[{'role': 'system', 'content': 'Answer in json format only: {""latitude"": < e.g. ""14.832185"" >, ""longitude"": < e.g. ""4.212666"" >}. No explanation, just the answer!'}, {'role': 'user', 'content': 'What are the latitude and longitude of sucre?'}]","{""latitude"": ""-19.041076"", ""longitude"": ""-65.260645""}"
284361,bo,tarija,159275,-21.5166667,-64.75,"[{'role': 'system', 'content': 'Answer in json format only: {""latitude"": < e.g. ""14.832185"" >, ""longitude"": < e.g. ""4.212666"" >}. No explanation, just the answer!'}, {'role': 'user', 'content': 'What are the latitude and longitude of tarija?'}]","{""latitude"": ""-21.535714"", ""longitude"": ""-64.731944""}"
286495,br,alagoinhas,122692,-12.116667,-38.433333000000005,"[{'role': 'system', 'content': 'Answer in json format only: {""latitude"": < e.g. ""14.832185"" >, ""longitude"": < e.g. ""4.212666"" >}. No explanation, just the answer!'}, {'role': 'user', 'content': 'What are the latitude and longitude of alagoinhas?'}]","{""latitude"": ""-12.135284"", ""longitude"": ""-38.424293""}"
287137,br,americana,196026,-22.740278,-47.334444,"[{'role': 'system', 'content': 'Answer in json format only: {""latitude"": < e.g. ""14.832185"" >, ""longitude"": < e.g. ""4.212666"" >}. No explanation, just the answer!'}, {'role': 'user', 'content': 'What are the latitude and longitude of americana?'}]","{""latitude"": ""22.7392"", ""longitude"": ""47.3319""}"
287217,br,ananindeua,433956,-1.366667,-48.383333,"[{'role': 'system', 'content': 'Answer in json format only: {""latitude"": < e.g. ""14.832185"" >, ""longitude"": < e.g. ""4.212666"" >}. No explanation, just the answer!'}, {'role': 'user', 'content': 'What are the latitude and longitude of ananindeua?'}]","{""latitude"": ""-1.36528"", ""longitude"": ""-48.3725""}"
287221,br,anapolis,319592,-16.333333,-48.966667,"[{'role': 'system', 'content': 'Answer in json format only: {""latitude"": < e.g. ""14.832185"" >, ""longitude"": < e.g. ""4.212666"" >}. No explanation, just the answer!'}, {'role': 'user', 'content': 'What are the latitude and longitude of anapolis?'}]","{""latitude"": ""-16.326670"", ""longitude"": ""-48.952776""}"
287350,br,angra dos reis,153637,-23.0,-44.3,"[{'role': 'system', 'content': 'Answer in json format only: {""latitude"": < e.g. ""14.832185"" >, ""longitude"": < e.g. ""4.212666"" >}. No explanation, just the answer!'}, {'role': 'user', 'content': 'What are the latitude and longitude of angra dos reis?'}]","{""latitude"": ""-22.983333"", ""longitude"": ""-44.316667""}"
287602,br,apucarana,107086,-23.55,-51.483333,"[{'role': 'system', 'content': 'Answer in json format only: {""latitude"": < e.g. ""14.832185"" >, ""longitude"": < e.g. ""4.212666"" >}. No explanation, just the answer!'}, {'role': 'user', 'content': 'What are the latitude and longitude of apucarana?'}]","{""latitude"": ""-23.550278"", ""longitude"": ""-51.460556""}"
287654,br,aracaju,490184,-10.916667,-37.066666999999995,"[{'role': 'system', 'content': 'Answer in json format only: {""latitude"": < e.g. ""14.832185"" >, ""longitude"": < e.g. ""4.212666"" >}. No explanation, just the answer!'}, {'role': 'user', 'content': 'What are the latitude and longitude of aracaju?'}]","{""latitude"": ""-10.917085"", ""longitude"": ""-37.079872""}"
287674,br,aracatuba,170028,-21.2,-50.416667,"[{'role': 'system', 'content': 'Answer in json format only: {""latitude"": < e.g. ""14.832185"" >, ""longitude"": < e.g. ""4.212666"" >}. No explanation, just the answer!'}, {'role': 'user', 'content': 'What are the latitude and longitude of aracatuba?'}]","{""latitude"": ""-21.208889"", ""longitude"": ""-50.432778""}"
287705,br,araguaina,114959,-7.16,-48.0575,"[{'role': 'system', 'content': 'Answer in json format only: {""latitude"": < e.g. ""14.832185"" >, ""longitude"": < e.g. ""4.212666"" >}. No explanation, just the answer!'}, {'role': 'user', 'content': 'What are the latitude and longitude of araguaina?'}]","{""latitude"": ""-7.191667"", ""longitude"": ""-48.204722""}"
287748,br,arapiraca,166566,-9.75,-36.65,"[{'role': 'system', 'content': 'Answer in json format only: {""latitude"": < e.g. ""14.832185"" >, ""longitude"": < e.g. ""4.212666"" >}. No explanation, just the answer!'}, {'role': 'user', 'content': 'What are the latitude and longitude of arapiraca?'}]","{""latitude"": ""-9.748889"", ""longitude"": ""-36.660833""}"
287785,br,araraquara,185191,-21.783333,-48.166667,"[{'role': 'system', 'content': 'Answer in json format only: {""latitude"": < e.g. ""14.832185"" >, ""longitude"": < e.g. ""4.212666"" >}. No explanation, just the answer!'}, {'role': 'user', 'content': 'What are the latitude and longitude of araraquara?'}]","{""latitude"": ""-21.794400"", ""longitude"": ""-48.180350""}"
287796,br,araras,107465,-22.366667,-47.383333,"[{'role': 'system', 'content': 'Answer in json format only: {""latitude"": < e.g. ""14.832185"" >, ""longitude"": < e.g. ""4.212666"" >}. No explanation, just the answer!'}, {'role': 'user', 'content': 'What are the latitude and longitude of araras?'}]","{""latitude"": ""-22.355556"", ""longitude"": ""-47.383333""}"
287808,br,araruama,109638,-22.883333,-42.333333,"[{'role': 'system', 'content': 'Answer in json format only: {""latitude"": < e.g. ""14.832185"" >, ""longitude"": < e.g. ""4.212666"" >}. No explanation, just the answer!'}, {'role': 'user', 'content': 'What are the latitude and longitude of araruama?'}]","{""latitude"": ""-22.8739"", ""longitude"": ""-42.3433""}"
287843,br,araucaria,111303,-25.583333,-49.416667,"[{'role': 'system', 'content': 'Answer in json format only: {""latitude"": < e.g. ""14.832185"" >, ""longitude"": < e.g. ""4.212666"" >}. No explanation, just the answer!'}, {'role': 'user', 'content': 'What are the latitude and longitude of araucaria?'}]","{""latitude"": ""-25.594176"", ""longitude"": ""-49.703599""}"
288237,br,atibaia,110970,-23.124167,-46.562222,"[{'role': 'system', 'content': 'Answer in json format only: {""latitude"": < e.g. ""14.832185"" >, ""longitude"": < e.g. ""4.212666"" >}. No explanation, just the answer!'}, {'role': 'user', 'content': 'What are the latitude and longitude of atibaia?'}]","{""latitude"": ""-23.117371"", ""longitude"": ""-46.550806""}"
289373,br,barbacena,122213,-21.233333,-43.766667,"[{'role': 'system', 'content': 'Answer in json format only: {""latitude"": < e.g. ""14.832185"" >, ""longitude"": < e.g. ""4.212666"" >}. No explanation, just the answer!'}, {'role': 'user', 'content': 'What are the latitude and longitude of barbacena?'}]","{""latitude"": ""-21.225556"", ""longitude"": ""-43.773333""}"
289774,br,barra mansa,164054,-22.533333,-44.183333000000005,"[{'role': 'system', 'content': 'Answer in json format only: {""latitude"": < e.g. ""14.832185"" >, ""longitude"": < e.g. ""4.212666"" >}. No explanation, just the answer!'}, {'role': 'user', 'content': 'What are the latitude and longitude of barra mansa?'}]","{""latitude"": ""-22.544722"", ""longitude"": ""-44.170278""}"
289858,br,barreiras,158296,-12.133333,-45.0,"[{'role': 'system', 'content': 'Answer in json format only: {""latitude"": < e.g. ""14.832185"" >, ""longitude"": < e.g. ""4.212666"" >}. No explanation, just the answer!'}, {'role': 'user', 'content': 'What are the latitude and longitude of barreiras?'}]","{""latitude"": ""-12.152778"", ""longitude"": ""-44.990556""}"
289947,br,barretos,101222,-20.55,-48.55,"[{'role': 'system', 'content': 'Answer in json format only: {""latitude"": < e.g. ""14.832185"" >, ""longitude"": < e.g. ""4.212666"" >}. No explanation, just the answer!'}, {'role': 'user', 'content': 'What are the latitude and longitude of barretos?'}]","{""latitude"": ""-20.554417"", ""longitude"": ""-48.567778""}"
290085,br,barueri,251999,-23.516667,-46.883333,"[{'role': 'system', 'content': 'Answer in json format only: {""latitude"": < e.g. ""14.832185"" >, ""longitude"": < e.g. ""4.212666"" >}. No explanation, just the answer!'}, {'role': 'user', 'content': 'What are the latitude and longitude of barueri?'}]","{""latitude"": ""-23.513403"", ""longitude"": ""-46.876908""}"
290170,br,bauru,335031,-22.316667,-49.066666999999995,"[{'role': 'system', 'content': 'Answer in json format only: {""latitude"": < e.g. ""14.832185"" >, ""longitude"": < e.g. ""4.212666"" >}. No explanation, just the answer!'}, {'role': 'user', 'content': 'What are the latitude and longitude of bauru?'}]","{""latitude"": ""-22.314722"", ""longitude"": ""-49.070833""}"
290296,br,belem,1407737,-1.45,-48.483333,"[{'role': 'system', 'content': 'Answer in json format only: {""latitude"": < e.g. ""14.832185"" >, ""longitude"": < e.g. ""4.212666"" >}. No explanation, just the answer!'}, {'role': 'user', 'content': 'What are the latitude and longitude of belem?'}]","{""latitude"": ""1.455833"", ""longitude"": ""-48.503887""}"
290328,br,belford roxo,466101,-22.761995,-43.404654,"[{'role': 'system', 'content': 'Answer in json format only: {""latitude"": < e.g. ""14.832185"" >, ""longitude"": < e.g. ""4.212666"" >}. No explanation, just the answer!'}, {'role': 'user', 'content': 'What are the latitude and longitude of belford roxo?'}]","{""latitude"": ""-22.764722"", ""longitude"": ""-43.399722""}"
290377,br,belo horizonte,2373255,-19.916667,-43.933333000000005,"[{'role': 'system', 'content': 'Answer in json format only: {""latitude"": < e.g. ""14.832185"" >, ""longitude"": < e.g. ""4.212666"" >}. No explanation, just the answer!'}, {'role': 'user', 'content': 'What are the latitude and longitude of belo horizonte?'}]","{""latitude"": ""-19.9167"", ""longitude"": ""-43.9346""}"
290530,br,betim,384038,-19.966667,-44.216667,"[{'role': 'system', 'content': 'Answer in json format only: {""latitude"": < e.g. ""14.832185"" >, ""longitude"": < e.g. ""4.212666"" >}. No explanation, just the answer!'}, {'role': 'user', 'content': 'What are the latitude and longitude of betim?'}]","{""latitude"": ""-19.967379"", ""longitude"": ""-44.197862""}"
290583,br,birigui,102279,-21.3,-50.316666999999995,"[{'role': 'system', 'content': 'Answer in json format only: {""latitude"": < e.g. ""14.832185"" >, ""longitude"": < e.g. ""4.212666"" >}. No explanation, just the answer!'}, {'role': 'user', 'content': 'What are the latitude and longitude of birigui?'}]","{""latitude"": ""-21.289722"", ""longitude"": ""-50.338889""}"
290615,br,blumenau,293955,-26.9222,-49.0615,"[{'role': 'system', 'content': 'Answer in json format only: {""latitude"": < e.g. ""14.832185"" >, ""longitude"": < e.g. ""4.212666"" >}. No explanation, just the answer!'}, {'role': 'user', 'content': 'What are the latitude and longitude of blumenau?'}]","{""latitude"": ""-26.908889"", ""longitude"": ""-49.066389""}"
290752,br,boa vista,235159,2.816667,-60.666667,"[{'role': 'system', 'content': 'Answer in json format only: {""latitude"": < e.g. ""14.832185"" >, ""longitude"": < e.g. ""4.212666"" >}. No explanation, just the answer!'}, {'role': 'user', 'content': 'What are the latitude and longitude of boa vista?'}]","{""latitude"": ""2.820277"", ""longitude"": ""-60.673611""}"
291339,br,botucatu,113865,-22.866667,-48.433333000000005,"[{'role': 'system', 'content': 'Answer in json format only: {""latitude"": < e.g. ""14.832185"" >, ""longitude"": < e.g. ""4.212666"" >}. No explanation, just the answer!'}, {'role': 'user', 'content': 'What are the latitude and longitude of botucatu?'}]","{""latitude"": ""-22.8854"", ""longitude"": ""-48.4456""}"
291377,br,braganca paulista,125099,-22.95,-46.566666999999995,"[{'role': 'system', 'content': 'Answer in json format only: {""latitude"": < e.g. ""14.832185"" >, ""longitude"": < e.g. ""4.212666"" >}. No explanation, just the answer!'}, {'role': 'user', 'content': 'What are the latitude and longitude of braganca paulista?'}]","{""latitude"": ""-22.952777"", ""longitude"": ""-46.541667""}"
291406,br,brasilia,2207812,-15.783333,-47.916667,"[{'role': 'system', 'content': 'Answer in json format only: {""latitude"": < e.g. ""14.832185"" >, ""longitude"": < e.g. ""4.212666"" >}. No explanation, just the answer!'}, {'role': 'user', 'content': 'What are the latitude and longitude of brasilia?'}]","{""latitude"": ""-15.794229"", ""longitude"": ""-47.882166""}"
291934,br,cabo frio,108241,-22.883333,-42.016667,"[{'role': 'system', 'content': 'Answer in json format only: {""latitude"": < e.g. ""14.832185"" >, ""longitude"": < e.g. ""4.212666"" >}. No explanation, just the answer!'}, {'role': 'user', 'content': 'What are the latitude and longitude of cabo frio?'}]","{""latitude"": ""-22.881111"", ""longitude"": ""-42.026944""}"
292114,br,cachoeirinha,121086,-29.95,-51.083333,"[{'role': 'system', 'content': 'Answer in json format only: {""latitude"": < e.g. ""14.832185"" >, ""longitude"": < e.g. ""4.212666"" >}. No explanation, just the answer!'}, {'role': 'user', 'content': 'What are the latitude and longitude of cachoeirinha?'}]","{""latitude"": ""-29.95"", ""longitude"": ""-51.093889""}"
292124,br,cachoeiro de itapemirim,187023,-20.85,-41.1,"[{'role': 'system', 'content': 'Answer in json format only: {""latitude"": < e.g. ""14.832185"" >, ""longitude"": < e.g. ""4.212666"" >}. No explanation, just the answer!'}, {'role': 'user', 'content': 'What are the latitude and longitude of cachoeiro de itapemirim?'}]","{""latitude"": ""-20.848888"", ""longitude"": ""-41.112777""}"
292593,br,camacari,188763,-12.483333,-38.216667,"[{'role': 'system', 'content': 'Answer in json format only: {""latitude"": < e.g. ""14.832185"" >, ""longitude"": < e.g. ""4.212666"" >}. No explanation, just the answer!'}, {'role': 'user', 'content': 'What are the latitude and longitude of camacari?'}]","{""latitude"": ""-12.697889"", ""longitude"": ""-38.322778""}"
292623,br,camaragibe,148966,-8.016667,-34.966667,"[{'role': 'system', 'content': 'Answer in json format only: {""latitude"": < e.g. ""14.832185"" >, ""longitude"": < e.g. ""4.212666"" >}. No explanation, just the answer!'}, {'role': 'user', 'content': 'What are the latitude and longitude of camaragibe?'}]","{""latitude"": ""-8.002147"", ""longitude"": ""-34.973333""}"
292800,br,campina grande,348943,-7.216667,-35.883333,"[{'role': 'system', 'content': 'Answer in json format only: {""latitude"": < e.g. ""14.832185"" >, ""longitude"": < e.g. ""4.212666"" >}. No explanation, just the answer!'}, {'role': 'user', 'content': 'What are the latitude and longitude of campina grande?'}]","{""latitude"": ""7.230010"", ""longitude"": ""-35.881200""}"
292817,br,campinas,1031573,-22.9,-47.083333,"[{'role': 'system', 'content': 'Answer in json format only: {""latitude"": < e.g. ""14.832185"" >, ""longitude"": < e.g. ""4.212666"" >}. No explanation, just the answer!'}, {'role': 'user', 'content': 'What are the latitude and longitude of campinas?'}]","{""latitude"": ""-22.9064"", ""longitude"": ""-47.0617""}"
292945,br,campo grande,729164,-20.45,-54.61666700000001,"[{'role': 'system', 'content': 'Answer in json format only: {""latitude"": < e.g. ""14.832185"" >, ""longitude"": < e.g. ""4.212666"" >}. No explanation, just the answer!'}, {'role': 'user', 'content': 'What are the latitude and longitude of campo grande?'}]","{""latitude"": ""-20.443333"", ""longitude"": ""-54.646389""}"
293013,br,campos,387422,-21.75,-41.3,"[{'role': 'system', 'content': 'Answer in json format only: {""latitude"": < e.g. ""14.832185"" >, ""longitude"": < e.g. ""4.212666"" >}. No explanation, just the answer!'}, {'role': 'user', 'content': 'What are the latitude and longitude of campos?'}]","{""latitude"": ""21.753056"", ""longitude"": ""-41.324167""}"
293304,br,canoas,328297,-29.933333,-51.183333000000005,"[{'role': 'system', 'content': 'Answer in json format only: {""latitude"": < e.g. ""14.832185"" >, ""longitude"": < e.g. ""4.212666"" >}. No explanation, just the answer!'}, {'role': 'user', 'content': 'What are the latitude and longitude of canoas?'}]","{""latitude"": ""-29.918055"", ""longitude"": ""-51.183889""}"
293813,br,carapicuiba,361120,-23.516667,-46.833333,"[{'role': 'system', 'content': 'Answer in json format only: {""latitude"": < e.g. ""14.832185"" >, ""longitude"": < e.g. ""4.212666"" >}. No explanation, just the answer!'}, {'role': 'user', 'content': 'What are the latitude and longitude of carapicuiba?'}]","{""latitude"": ""-23.522778"", ""longitude"": ""-46.835278""}"
293874,br,cariacica,330681,-20.266667,-40.416667,"[{'role': 'system', 'content': 'Answer in json format only: {""latitude"": < e.g. ""14.832185"" >, ""longitude"": < e.g. ""4.212666"" >}. No explanation, just the answer!'}, {'role': 'user', 'content': 'What are the latitude and longitude of cariacica?'}]","{""latitude"": ""-20.263889"", ""longitude"": ""-40.416667""}"
294094,br,caruaru,235375,-8.283333,-35.966667,"[{'role': 'system', 'content': 'Answer in json format only: {""latitude"": < e.g. ""14.832185"" >, ""longitude"": < e.g. ""4.212666"" >}. No explanation, just the answer!'}, {'role': 'user', 'content': 'What are the latitude and longitude of caruaru?'}]","{""latitude"": ""-8.283333"", ""longitude"": ""-35.983333""}"
294164,br,cascavel,257174,-24.95,-53.466667,"[{'role': 'system', 'content': 'Answer in json format only: {""latitude"": < e.g. ""14.832185"" >, ""longitude"": < e.g. ""4.212666"" >}. No explanation, just the answer!'}, {'role': 'user', 'content': 'What are the latitude and longitude of cascavel?'}]","{""latitude"": ""-24.9567"", ""longitude"": ""-53.4556""}"
294217,br,castanhal,137410,-1.3,-47.916667,"[{'role': 'system', 'content': 'Answer in json format only: {""latitude"": < e.g. ""14.832185"" >, ""longitude"": < e.g. ""4.212666"" >}. No explanation, just the answer!'}, {'role': 'user', 'content': 'What are the latitude and longitude of castanhal?'}]","{""latitude"": ""1.293333"", ""longitude"": ""-47.946389""}"
294279,br,catanduva,109615,-21.133333,-48.966667,"[{'role': 'system', 'content': 'Answer in json format only: {""latitude"": < e.g. ""14.832185"" >, ""longitude"": < e.g. ""4.212666"" >}. No explanation, just the answer!'}, {'role': 'user', 'content': 'What are the latitude and longitude of catanduva?'}]","{""latitude"": ""-21.137222"", ""longitude"": ""-48.970833""}"
294394,br,caucaia,275023,-3.7,-38.65,"[{'role': 'system', 'content': 'Answer in json format only: {""latitude"": < e.g. ""14.832185"" >, ""longitude"": < e.g. ""4.212666"" >}. No explanation, just the answer!'}, {'role': 'user', 'content': 'What are the latitude and longitude of caucaia?'}]","{""latitude"": ""-3.733333"", ""longitude"": ""-38.65""}"
294448,br,caxias,117393,-4.8333330000000005,-43.35,"[{'role': 'system', 'content': 'Answer in json format only: {""latitude"": < e.g. ""14.832185"" >, ""longitude"": < e.g. ""4.212666"" >}. No explanation, just the answer!'}, {'role': 'user', 'content': 'What are the latitude and longitude of caxias?'}]","{""latitude"": ""4.858333"", ""longitude"": ""-43.356389""}"
294452,br,caxias do sul,381277,-29.1689,-51.1785,"[{'role': 'system', 'content': 'Answer in json format only: {""latitude"": < e.g. ""14.832185"" >, ""longitude"": < e.g. ""4.212666"" >}. No explanation, just the answer!'}, {'role': 'user', 'content': 'What are the latitude and longitude of caxias do sul?'}]","{""latitude"": ""-29.168419"", ""longitude"": ""-51.179723""}"
294733,br,chapeco,160160,-27.083333000000003,-52.983332999999995,"[{'role': 'system', 'content': 'Answer in json format only: {""latitude"": < e.g. ""14.832185"" >, ""longitude"": < e.g. ""4.212666"" >}. No explanation, just the answer!'}, {'role': 'user', 'content': 'What are the latitude and longitude of chapeco?'}]","{""latitude"": ""-27.09639"", ""longitude"": ""-52.61778""}"
295132,br,colatina,101193,-19.533333,-40.616667,"[{'role': 'system', 'content': 'Answer in json format only: {""latitude"": < e.g. ""14.832185"" >, ""longitude"": < e.g. ""4.212666"" >}. No explanation, just the answer!'}, {'role': 'user', 'content': 'What are the latitude and longitude of colatina?'}]","{""latitude"": ""-19.538333"", ""longitude"": ""-40.630833""}"
295256,br,colombo,217002,-25.283333,-49.233333,"[{'role': 'system', 'content': 'Answer in json format only: {""latitude"": < e.g. ""14.832185"" >, ""longitude"": < e.g. ""4.212666"" >}. No explanation, just the answer!'}, {'role': 'user', 'content': 'What are the latitude and longitude of colombo?'}]","{""latitude"": ""6.927079"", ""longitude"": ""79.861244""}"
295658,br,conselheiro lafaiete,111598,-20.666667,-43.8,"[{'role': 'system', 'content': 'Answer in json format only: {""latitude"": < e.g. ""14.832185"" >, ""longitude"": < e.g. ""4.212666"" >}. No explanation, just the answer!'}, {'role': 'user', 'content': 'What are the latitude and longitude of conselheiro lafaiete?'}]","{""latitude"": ""-20.6555"", ""longitude"": ""-43.7873""}"
295690,br,contagem,627132,-19.916667,-44.1,"[{'role': 'system', 'content': 'Answer in json format only: {""latitude"": < e.g. ""14.832185"" >, ""longitude"": < e.g. ""4.212666"" >}. No explanation, just the answer!'}, {'role': 'user', 'content': 'What are the latitude and longitude of contagem?'}]","{""latitude"": ""-19.932818"", ""longitude"": ""-44.053275""}"
295838,br,coronel fabriciano,100918,-19.516667,-42.633333,"[{'role': 'system', 'content': 'Answer in json format only: {""latitude"": < e.g. ""14.832185"" >, ""longitude"": < e.g. ""4.212666"" >}. No explanation, just the answer!'}, {'role': 'user', 'content': 'What are the latitude and longitude of coronel fabriciano?'}]","{""latitude"": ""-19.518333"", ""longitude"": ""-42.621667""}"
296040,br,cotia,174832,-23.616667,-46.933333000000005,"[{'role': 'system', 'content': 'Answer in json format only: {""latitude"": < e.g. ""14.832185"" >, ""longitude"": < e.g. ""4.212666"" >}. No explanation, just the answer!'}, {'role': 'user', 'content': 'What are the latitude and longitude of cotia?'}]","{""latitude"": ""-23.6046"", ""longitude"": ""-46.9189""}"
296122,br,criciuma,161957,-28.666666999999997,-49.383333,"[{'role': 'system', 'content': 'Answer in json format only: {""latitude"": < e.g. ""14.832185"" >, ""longitude"": < e.g. ""4.212666"" >}. No explanation, just the answer!'}, {'role': 'user', 'content': 'What are the latitude and longitude of criciuma?'}]","{""latitude"": ""-28.6778"", ""longitude"": ""-49.3694""}"
296288,br,cubatao,118412,-23.883333,-46.416667,"[{'role': 'system', 'content': 'Answer in json format only: {""latitude"": < e.g. ""14.832185"" >, ""longitude"": < e.g. ""4.212666"" >}. No explanation, just the answer!'}, {'role': 'user', 'content': 'What are the latitude and longitude of cubatao?'}]","{""latitude"": ""-23.893056"", ""longitude"": ""-46.425278""}"
296299,br,cuiaba,521961,-15.583332999999998,-56.083333,"[{'role': 'system', 'content': 'Answer in json format only: {""latitude"": < e.g. ""14.832185"" >, ""longitude"": < e.g. ""4.212666"" >}. No explanation, just the answer!'}, {'role': 'user', 'content': 'What are the latitude and longitude of cuiaba?'}]","{""latitude"": ""-15.596110"", ""longitude"": ""-56.097290""}"
296424,br,curitiba,1718433,-25.416667,-49.25,"[{'role': 'system', 'content': 'Answer in json format only: {""latitude"": < e.g. ""14.832185"" >, ""longitude"": < e.g. ""4.212666"" >}. No explanation, just the answer!'}, {'role': 'user', 'content': 'What are the latitude and longitude of curitiba?'}]","{""latitude"": ""-25.428356"", ""longitude"": ""-49.273251""}"
296749,br,diadema,390641,-23.7,-46.616667,"[{'role': 'system', 'content': 'Answer in json format only: {""latitude"": < e.g. ""14.832185"" >, ""longitude"": < e.g. ""4.212666"" >}. No explanation, just the answer!'}, {'role': 'user', 'content': 'What are the latitude and longitude of diadema?'}]","{""latitude"": ""-23.6864"", ""longitude"": ""-46.6223""}"
296806,br,divinopolis,193835,-20.15,-44.9,"[{'role': 'system', 'content': 'Answer in json format only: {""latitude"": < e.g. ""14.832185"" >, ""longitude"": < e.g. ""4.212666"" >}. No explanation, just the answer!'}, {'role': 'user', 'content': 'What are the latitude and longitude of divinopolis?'}]","{""latitude"": ""-20.138056"", ""longitude"": ""-44.883056""}"
296959,br,dourados,162206,-22.216667,-54.8,"[{'role': 'system', 'content': 'Answer in json format only: {""latitude"": < e.g. ""14.832185"" >, ""longitude"": < e.g. ""4.212666"" >}. No explanation, just the answer!'}, {'role': 'user', 'content': 'What are the latitude and longitude of dourados?'}]","{""latitude"": ""-22.221039"", ""longitude"": ""-54.805949""}"
297018,br,duque de caxias,818339,-22.790321,-43.325009,"[{'role': 'system', 'content': 'Answer in json format only: {""latitude"": < e.g. ""14.832185"" >, ""longitude"": < e.g. ""4.212666"" >}. No explanation, just the answer!'}, {'role': 'user', 'content': 'What are the latitude and longitude of duque de caxias?'}]","{""latitude"": ""-22.7859"", ""longitude"": ""-43.3111""}"
297108,br,embu,221737,-23.65,-46.85,"[{'role': 'system', 'content': 'Answer in json format only: {""latitude"": < e.g. ""14.832185"" >, ""longitude"": < e.g. ""4.212666"" >}. No explanation, just the answer!'}, {'role': 'user', 'content': 'What are the latitude and longitude of embu?'}]","{""latitude"": ""-0.5383"", ""longitude"": ""37.4500""}"
297401,br,esmeraldas,103252,-19.75,-44.316666999999995,"[{'role': 'system', 'content': 'Answer in json format only: {""latitude"": < e.g. ""14.832185"" >, ""longitude"": < e.g. ""4.212666"" >}. No explanation, just the answer!'}, {'role': 'user', 'content': 'What are the latitude and longitude of esmeraldas?'}]","{""latitude"": ""0.963333"", ""longitude"": ""-79.652778""}"
299013,br,feira de santana,481926,-12.25,-38.95,"[{'role': 'system', 'content': 'Answer in json format only: {""latitude"": < e.g. ""14.832185"" >, ""longitude"": < e.g. ""4.212666"" >}. No explanation, just the answer!'}, {'role': 'user', 'content': 'What are the latitude and longitude of feira de santana?'}]","{""latitude"": ""-12.266667"", ""longitude"": ""-38.966667""}"
299106,br,ferraz de vasconcelos,167904,-23.533333,-46.366667,"[{'role': 'system', 'content': 'Answer in json format only: {""latitude"": < e.g. ""14.832185"" >, ""longitude"": < e.g. ""4.212666"" >}. No explanation, just the answer!'}, {'role': 'user', 'content': 'What are the latitude and longitude of ferraz de vasconcelos?'}]","{""latitude"": ""-23.541111"", ""longitude"": ""-46.368611""}"
299308,br,florianopolis,412731,-27.583333000000003,-48.566666999999995,"[{'role': 'system', 'content': 'Answer in json format only: {""latitude"": < e.g. ""14.832185"" >, ""longitude"": < e.g. ""4.212666"" >}. No explanation, just the answer!'}, {'role': 'user', 'content': 'What are the latitude and longitude of florianopolis?'}]","{""latitude"": ""-27.595381"", ""longitude"": ""-48.548223""}"
299430,br,fortaleza,2416920,-3.316667,-41.416667,"[{'role': 'system', 'content': 'Answer in json format only: {""latitude"": < e.g. ""14.832185"" >, ""longitude"": < e.g. ""4.212666"" >}. No explanation, just the answer!'}, {'role': 'user', 'content': 'What are the latitude and longitude of fortaleza?'}]","{""latitude"": ""-3.71839"", ""longitude"": ""-38.5434""}"
299479,br,foz do iguacu,293526,-25.55,-54.583333,"[{'role': 'system', 'content': 'Answer in json format only: {""latitude"": < e.g. ""14.832185"" >, ""longitude"": < e.g. ""4.212666"" >}. No explanation, just the answer!'}, {'role': 'user', 'content': 'What are the latitude and longitude of foz do iguacu?'}]","{""latitude"": ""-25.547026"", ""longitude"": ""-54.588279""}"
299515,br,franca,305047,-20.533333,-47.4,"[{'role': 'system', 'content': 'Answer in json format only: {""latitude"": < e.g. ""14.832185"" >, ""longitude"": < e.g. ""4.212666"" >}. No explanation, just the answer!'}, {'role': 'user', 'content': 'What are the latitude and longitude of franca?'}]","{""latitude"": ""20.5383"", ""longitude"": ""47.4000""}"
299552,br,francisco morato,171793,-23.279503,-46.746403,"[{'role': 'system', 'content': 'Answer in json format only: {""latitude"": < e.g. ""14.832185"" >, ""longitude"": < e.g. ""4.212666"" >}. No explanation, just the answer!'}, {'role': 'user', 'content': 'What are the latitude and longitude of francisco morato?'}]","{""latitude"": ""-23.287292"", ""longitude"": ""-46.741403""}"
299568,br,franco da rocha,108860,-23.324821,-46.718475,"[{'role': 'system', 'content': 'Answer in json format only: {""latitude"": < e.g. ""14.832185"" >, ""longitude"": < e.g. ""4.212666"" >}. No explanation, just the answer!'}, {'role': 'user', 'content': 'What are the latitude and longitude of franco da rocha?'}]","{""latitude"": ""-23.540833"", ""longitude"": ""-46.724444""}"
299862,br,garanhuns,110087,-8.9,-36.483333,"[{'role': 'system', 'content': 'Answer in json format only: {""latitude"": < e.g. ""14.832185"" >, ""longitude"": < e.g. ""4.212666"" >}. No explanation, just the answer!'}, {'role': 'user', 'content': 'What are the latitude and longitude of garanhuns?'}]","{""latitude"": ""-8.882163"", ""longitude"": ""-36.502867""}"
300160,br,goiania,1171209,-16.666667,-49.266667,"[{'role': 'system', 'content': 'Answer in json format only: {""latitude"": < e.g. ""14.832185"" >, ""longitude"": < e.g. ""4.212666"" >}. No explanation, just the answer!'}, {'role': 'user', 'content': 'What are the latitude and longitude of goiania?'}]","{""latitude"": ""-16.6789"", ""longitude"": ""-49.2539""}"
300236,br,governador valadares,250882,-18.85,-41.933333000000005,"[{'role': 'system', 'content': 'Answer in json format only: {""latitude"": < e.g. ""14.832185"" >, ""longitude"": < e.g. ""4.212666"" >}. No explanation, just the answer!'}, {'role': 'user', 'content': 'What are the latitude and longitude of governador valadares?'}]","{""latitude"": ""-18.851389"", ""longitude"": ""-41.949722""}"
300331,br,gravatai,238782,-29.9426,-50.9933,"[{'role': 'system', 'content': 'Answer in json format only: {""latitude"": < e.g. ""14.832185"" >, ""longitude"": < e.g. ""4.212666"" >}. No explanation, just the answer!'}, {'role': 'user', 'content': 'What are the latitude and longitude of gravatai?'}]","{""latitude"": ""-29.942778"", ""longitude"": ""-50.992778""}"
300424,br,guaiba,101026,-30.111111,-51.316666999999995,"[{'role': 'system', 'content': 'Answer in json format only: {""latitude"": < e.g. ""14.832185"" >, ""longitude"": < e.g. ""4.212666"" >}. No explanation, just the answer!'}, {'role': 'user', 'content': 'What are the latitude and longitude of guaiba?'}]","{""latitude"": ""-30.113333"", ""longitude"": ""-51.325000""}"
300559,br,guarapari,100927,-20.666667,-40.5,"[{'role': 'system', 'content': 'Answer in json format only: {""latitude"": < e.g. ""14.832185"" >, ""longitude"": < e.g. ""4.212666"" >}. No explanation, just the answer!'}, {'role': 'user', 'content': 'What are the latitude and longitude of guarapari?'}]","{""latitude"": ""-20.653056"", ""longitude"": ""-40.502778""}"
300564,br,guarapuava,150851,-25.383333,-51.45,"[{'role': 'system', 'content': 'Answer in json format only: {""latitude"": < e.g. ""14.832185"" >, ""longitude"": < e.g. ""4.212666"" >}. No explanation, just the answer!'}, {'role': 'user', 'content': 'What are the latitude and longitude of guarapuava?'}]","{""latitude"": ""-25.393056"", ""longitude"": ""-51.466389""}"
300581,br,guaratingueta,105882,-22.815156,-45.18923,"[{'role': 'system', 'content': 'Answer in json format only: {""latitude"": < e.g. ""14.832185"" >, ""longitude"": < e.g. ""4.212666"" >}. No explanation, just the answer!'}, {'role': 'user', 'content': 'What are the latitude and longitude of guaratingueta?'}]","{""latitude"": ""-22.816389"", ""longitude"": ""-45.192778""}"
300644,br,guaruja,310430,-24.0,-46.266667,"[{'role': 'system', 'content': 'Answer in json format only: {""latitude"": < e.g. ""14.832185"" >, ""longitude"": < e.g. ""4.212666"" >}. No explanation, just the answer!'}, {'role': 'user', 'content': 'What are the latitude and longitude of guaruja?'}]","{""latitude"": ""-24.0122"", ""longitude"": ""-46.2556""}"
300647,br,guarulhos,1169601,-23.45068,-46.526175,"[{'role': 'system', 'content': 'Answer in json format only: {""latitude"": < e.g. ""14.832185"" >, ""longitude"": < e.g. ""4.212666"" >}. No explanation, just the answer!'}, {'role': 'user', 'content': 'What are the latitude and longitude of guarulhos?'}]","{""latitude"": ""-23.462791"", ""longitude"": ""-46.533333""}"
300847,br,hortolandia,203537,-22.85,-47.25,"[{'role': 'system', 'content': 'Answer in json format only: {""latitude"": < e.g. ""14.832185"" >, ""longitude"": < e.g. ""4.212666"" >}. No explanation, just the answer!'}, {'role': 'user', 'content': 'What are the latitude and longitude of hortolandia?'}]","{""latitude"": ""-22.858056"", ""longitude"": ""-47.223056""}"
301000,br,ibirite,141376,-20.033333,-44.066666999999995,"[{'role': 'system', 'content': 'Answer in json format only: {""latitude"": < e.g. ""14.832185"" >, ""longitude"": < e.g. ""4.212666"" >}. No explanation, just the answer!'}, {'role': 'user', 'content': 'What are the latitude and longitude of ibirite?'}]","{""latitude"": ""-20.021667"", ""longitude"": ""-44.060556""}"
301233,br,ilheus,155503,-14.816667,-39.033333,"[{'role': 'system', 'content': 'Answer in json format only: {""latitude"": < e.g. ""14.832185"" >, ""longitude"": < e.g. ""4.212666"" >}. No explanation, just the answer!'}, {'role': 'user', 'content': 'What are the latitude and longitude of ilheus?'}]","{""latitude"": ""-14.793986"", ""longitude"": ""-39.031107""}"
301296,br,imperatriz,218110,-5.533333,-47.483333,"[{'role': 'system', 'content': 'Answer in json format only: {""latitude"": < e.g. ""14.832185"" >, ""longitude"": < e.g. ""4.212666"" >}. No explanation, just the answer!'}, {'role': 'user', 'content': 'What are the latitude and longitude of imperatriz?'}]","{""latitude"": ""-5.526944"", ""longitude"": ""-47.491667""}"
301328,br,indaiatuba,179914,-23.083333,-47.233333,"[{'role': 'system', 'content': 'Answer in json format only: {""latitude"": < e.g. ""14.832185"" >, ""longitude"": < e.g. ""4.212666"" >}. No explanation, just the answer!'}, {'role': 'user', 'content': 'What are the latitude and longitude of indaiatuba?'}]","{""latitude"": ""-23.0874"", ""longitude"": ""-47.2124""}"
301495,br,ipatinga,228750,-19.5,-42.533333,"[{'role': 'system', 'content': 'Answer in json format only: {""latitude"": < e.g. ""14.832185"" >, ""longitude"": < e.g. ""4.212666"" >}. No explanation, just the answer!'}, {'role': 'user', 'content': 'What are the latitude and longitude of ipatinga?'}]","{""latitude"": ""-19.467333"", ""longitude"": ""-42.536111""}"
301713,br,itaborai,182500,-22.75,-42.866667,"[{'role': 'system', 'content': 'Answer in json format only: {""latitude"": < e.g. ""14.832185"" >, ""longitude"": < e.g. ""4.212666"" >}. No explanation, just the answer!'}, {'role': 'user', 'content': 'What are the latitude and longitude of itaborai?'}]","{""latitude"": ""-22.744722"", ""longitude"": ""-42.855556""}"
301714,br,itabuna,205666,-14.8,-39.266667,"[{'role': 'system', 'content': 'Answer in json format only: {""latitude"": < e.g. ""14.832185"" >, ""longitude"": < e.g. ""4.212666"" >}. No explanation, just the answer!'}, {'role': 'user', 'content': 'What are the latitude and longitude of itabuna?'}]","{""latitude"": ""-14.785556"", ""longitude"": ""-39.280556""}"
301757,br,itaguai,100756,-22.870755,-43.773821000000005,"[{'role': 'system', 'content': 'Answer in json format only: {""latitude"": < e.g. ""14.832185"" >, ""longitude"": < e.g. ""4.212666"" >}. No explanation, just the answer!'}, {'role': 'user', 'content': 'What are the latitude and longitude of itaguai?'}]","{""latitude"": ""-22.867222"", ""longitude"": ""-43.775""}"
301822,br,itajai,155719,-26.883333,-48.65,"[{'role': 'system', 'content': 'Answer in json format only: {""latitude"": < e.g. ""14.832185"" >, ""longitude"": < e.g. ""4.212666"" >}. No explanation, just the answer!'}, {'role': 'user', 'content': 'What are the latitude and longitude of itajai?'}]","{""latitude"": ""-26.907478"", ""longitude"": ""-48.664881""}"
301927,br,itapecerica da serra,151608,-23.716667,-46.833333,"[{'role': 'system', 'content': 'Answer in json format only: {""latitude"": < e.g. ""14.832185"" >, ""longitude"": < e.g. ""4.212666"" >}. No explanation, just the answer!'}, {'role': 'user', 'content': 'What are the latitude and longitude of itapecerica da serra?'}]","{""latitude"": ""-23.716667"", ""longitude"": ""-46.85""}"
301963,br,itapetininga,126245,-23.6,-48.05,"[{'role': 'system', 'content': 'Answer in json format only: {""latitude"": < e.g. ""14.832185"" >, ""longitude"": < e.g. ""4.212666"" >}. No explanation, just the answer!'}, {'role': 'user', 'content': 'What are the latitude and longitude of itapetininga?'}]","{""latitude"": ""-23.591389"", ""longitude"": ""-48.053056""}"
301974,br,itapevi,201752,-23.55,-46.933333000000005,"[{'role': 'system', 'content': 'Answer in json format only: {""latitude"": < e.g. ""14.832185"" >, ""longitude"": < e.g. ""4.212666"" >}. No explanation, just the answer!'}, {'role': 'user', 'content': 'What are the latitude and longitude of itapevi?'}]","{""latitude"": ""-23.548889"", ""longitude"": ""-46.934722""}"
302068,br,itaquaquecetuba,336686,-23.483333,-46.35,"[{'role': 'system', 'content': 'Answer in json format only: {""latitude"": < e.g. ""14.832185"" >, ""longitude"": < e.g. ""4.212666"" >}. No explanation, just the answer!'}, {'role': 'user', 'content': 'What are the latitude and longitude of itaquaquecetuba?'}]","{""latitude"": ""-23.484722"", ""longitude"": ""-46.348889""}"
302192,br,itu,137589,-23.266667,-47.316666999999995,"[{'role': 'system', 'content': 'Answer in json format only: {""latitude"": < e.g. ""14.832185"" >, ""longitude"": < e.g. ""4.212666"" >}. No explanation, just the answer!'}, {'role': 'user', 'content': 'What are the latitude and longitude of itu?'}]","{""latitude"": ""23.2643"", ""longitude"": ""-46.3953""}"
302254,br,jaboatao,702632,-8.116667,-35.016667,"[{'role': 'system', 'content': 'Answer in json format only: {""latitude"": < e.g. ""14.832185"" >, ""longitude"": < e.g. ""4.212666"" >}. No explanation, just the answer!'}, {'role': 'user', 'content': 'What are the latitude and longitude of jaboatao?'}]","{""latitude"": ""-8.112778"", ""longitude"": ""-35.001111""}"
302331,br,jacarei,213114,-23.316667,-45.966667,"[{'role': 'system', 'content': 'Answer in json format only: {""latitude"": < e.g. ""14.832185"" >, ""longitude"": < e.g. ""4.212666"" >}. No explanation, just the answer!'}, {'role': 'user', 'content': 'What are the latitude and longitude of jacarei?'}]","{""latitude"": ""-23.304722"", ""longitude"": ""-45.965833""}"
302540,br,jandira,113607,-23.516667,-46.9,"[{'role': 'system', 'content': 'Answer in json format only: {""latitude"": < e.g. ""14.832185"" >, ""longitude"": < e.g. ""4.212666"" >}. No explanation, just the answer!'}, {'role': 'user', 'content': 'What are the latitude and longitude of jandira?'}]","{""latitude"": ""-23.527778"", ""longitude"": ""-46.902778""}"
302614,br,jaragua do sul,130132,-26.483333,-49.066666999999995,"[{'role': 'system', 'content': 'Answer in json format only: {""latitude"": < e.g. ""14.832185"" >, ""longitude"": < e.g. ""4.212666"" >}. No explanation, just the answer!'}, {'role': 'user', 'content': 'What are the latitude and longitude of jaragua do sul?'}]","{""latitude"": ""-26.485279"", ""longitude"": ""-49.066667""}"
302909,br,jau,119209,-22.3,-48.55,"[{'role': 'system', 'content': 'Answer in json format only: {""latitude"": < e.g. ""14.832185"" >, ""longitude"": < e.g. ""4.212666"" >}. No explanation, just the answer!'}, {'role': 'user', 'content': 'What are the latitude and longitude of jau?'}]","{""latitude"": ""-22.296109"", ""longitude"": ""-48.557275""}"
302953,br,jequie,127479,-13.85,-40.083333,"[{'role': 'system', 'content': 'Answer in json format only: {""latitude"": < e.g. ""14.832185"" >, ""longitude"": < e.g. ""4.212666"" >}. No explanation, just the answer!'}, {'role': 'user', 'content': 'What are the latitude and longitude of jequie?'}]","{""latitude"": ""-13.855278"", ""longitude"": ""-40.083333""}"
303022,br,ji-parana,100128,-10.833333,-61.966667,"[{'role': 'system', 'content': 'Answer in json format only: {""latitude"": < e.g. ""14.832185"" >, ""longitude"": < e.g. ""4.212666"" >}. No explanation, just the answer!'}, {'role': 'user', 'content': 'What are the latitude and longitude of ji-parana?'}]","{""latitude"": ""-10.866667"", ""longitude"": ""-61.95""}"
303185,br,joao pessoa,650896,-7.116667,-34.866667,"[{'role': 'system', 'content': 'Answer in json format only: {""latitude"": < e.g. ""14.832185"" >, ""longitude"": < e.g. ""4.212666"" >}. No explanation, just the answer!'}, {'role': 'user', 'content': 'What are the latitude and longitude of joao pessoa?'}]","{""latitude"": ""-7.115008"", ""longitude"": ""-34.845911""}"
303277,br,joinville,461312,-26.3,-48.833333,"[{'role': 'system', 'content': 'Answer in json format only: {""latitude"": < e.g. ""14.832185"" >, ""longitude"": < e.g. ""4.212666"" >}. No explanation, just the answer!'}, {'role': 'user', 'content': 'What are the latitude and longitude of joinville?'}]","{""latitude"": ""26.304444"", ""longitude"": ""-48.845556""}"
303467,br,juazeiro do norte,225234,-7.2,-39.333333,"[{'role': 'system', 'content': 'Answer in json format only: {""latitude"": < e.g. ""14.832185"" >, ""longitude"": < e.g. ""4.212666"" >}. No explanation, just the answer!'}, {'role': 'user', 'content': 'What are the latitude and longitude of juazeiro do norte?'}]","{""latitude"": ""-7.212146"", ""longitude"": ""-39.330193""}"
303470,br,juazeiro,137807,-9.5,-40.5,"[{'role': 'system', 'content': 'Answer in json format only: {""latitude"": < e.g. ""14.832185"" >, ""longitude"": < e.g. ""4.212666"" >}. No explanation, just the answer!'}, {'role': 'user', 'content': 'What are the latitude and longitude of juazeiro?'}]","{""latitude"": ""-9.413333"", ""longitude"": ""-40.498889""}"
303528,br,juiz de fora,470201,-21.751667,-43.352778,"[{'role': 'system', 'content': 'Answer in json format only: {""latitude"": < e.g. ""14.832185"" >, ""longitude"": < e.g. ""4.212666"" >}. No explanation, just the answer!'}, {'role': 'user', 'content': 'What are the latitude and longitude of juiz de fora?'}]","{""latitude"": ""-21.764722"", ""longitude"": ""-43.348611""}"
303568,br,jundiai,321595,-23.183333,-46.866667,"[{'role': 'system', 'content': 'Answer in json format only: {""latitude"": < e.g. ""14.832185"" >, ""longitude"": < e.g. ""4.212666"" >}. No explanation, just the answer!'}, {'role': 'user', 'content': 'What are the latitude and longitude of jundiai?'}]","{""latitude"": ""-23.1864"", ""longitude"": ""-46.8842""}"
303785,br,lages,164679,-27.8,-50.316666999999995,"[{'role': 'system', 'content': 'Answer in json format only: {""latitude"": < e.g. ""14.832185"" >, ""longitude"": < e.g. ""4.212666"" >}. No explanation, just the answer!'}, {'role': 'user', 'content': 'What are the latitude and longitude of lages?'}]","{""latitude"": ""27.816668"", ""longitude"": ""-50.326389""}"
304623,br,limeira,289671,-22.561667,-47.402778000000005,"[{'role': 'system', 'content': 'Answer in json format only: {""latitude"": < e.g. ""14.832185"" >, ""longitude"": < e.g. ""4.212666"" >}. No explanation, just the answer!'}, {'role': 'user', 'content': 'What are the latitude and longitude of limeira?'}]","{""latitude"": ""-22.564722"", ""longitude"": ""-47.401944""}"
304697,br,linhares,105084,-19.416667,-40.066666999999995,"[{'role': 'system', 'content': 'Answer in json format only: {""latitude"": < e.g. ""14.832185"" >, ""longitude"": < e.g. ""4.212666"" >}. No explanation, just the answer!'}, {'role': 'user', 'content': 'What are the latitude and longitude of linhares?'}]","{""latitude"": ""-19.398889"", ""longitude"": ""-40.070000""}"
304773,br,londrina,471836,-23.3,-51.15,"[{'role': 'system', 'content': 'Answer in json format only: {""latitude"": < e.g. ""14.832185"" >, ""longitude"": < e.g. ""4.212666"" >}. No explanation, just the answer!'}, {'role': 'user', 'content': 'What are the latitude and longitude of londrina?'}]","{""latitude"": ""-23.3103"", ""longitude"": ""-51.1628""}"
304941,br,luziania,143601,-16.25,-47.933333000000005,"[{'role': 'system', 'content': 'Answer in json format only: {""latitude"": < e.g. ""14.832185"" >, ""longitude"": < e.g. ""4.212666"" >}. No explanation, just the answer!'}, {'role': 'user', 'content': 'What are the latitude and longitude of luziania?'}]","{""latitude"": ""-16.25278"", ""longitude"": ""-47.95000""}"
304990,br,macae,143031,-22.383333,-41.783333,"[{'role': 'system', 'content': 'Answer in json format only: {""latitude"": < e.g. ""14.832185"" >, ""longitude"": < e.g. ""4.212666"" >}. No explanation, just the answer!'}, {'role': 'user', 'content': 'What are the latitude and longitude of macae?'}]","{""latitude"": ""-22.378056"", ""longitude"": ""-41.786944""}"
305015,br,macapa,338937,0.033333,-51.05,"[{'role': 'system', 'content': 'Answer in json format only: {""latitude"": < e.g. ""14.832185"" >, ""longitude"": < e.g. ""4.212666"" >}. No explanation, just the answer!'}, {'role': 'user', 'content': 'What are the latitude and longitude of macapa?'}]","{""latitude"": ""0.038889"", ""longitude"": ""-51.066389""}"
305063,br,maceio,955010,-9.666667,-35.716667,"[{'role': 'system', 'content': 'Answer in json format only: {""latitude"": < e.g. ""14.832185"" >, ""longitude"": < e.g. ""4.212666"" >}. No explanation, just the answer!'}, {'role': 'user', 'content': 'What are the latitude and longitude of maceio?'}]","{""latitude"": ""-9.6653"", ""longitude"": ""-35.7353""}"
305165,br,mage,216342,-22.655556,-43.015278,"[{'role': 'system', 'content': 'Answer in json format only: {""latitude"": < e.g. ""14.832185"" >, ""longitude"": < e.g. ""4.212666"" >}. No explanation, just the answer!'}, {'role': 'user', 'content': 'What are the latitude and longitude of mage?'}]","I'm not able to provide an answer as I couldn't verify the latitude and longitude of ""mage""."
305400,br,manaus,1598227,-3.1133330000000004,-60.025278,"[{'role': 'system', 'content': 'Answer in json format only: {""latitude"": < e.g. ""14.832185"" >, ""longitude"": < e.g. ""4.212666"" >}. No explanation, just the answer!'}, {'role': 'user', 'content': 'What are the latitude and longitude of manaus?'}]","{""latitude"": ""-3.119028"", ""longitude"": ""-60.021731""}"
305628,br,maraba,145865,-5.35,-49.116667,"[{'role': 'system', 'content': 'Answer in json format only: {""latitude"": < e.g. ""14.832185"" >, ""longitude"": < e.g. ""4.212666"" >}. No explanation, just the answer!'}, {'role': 'user', 'content': 'What are the latitude and longitude of maraba?'}]","{""latitude"": ""5.383333"", ""longitude"": ""7.183333""}"
305657,br,maracanau,193532,-3.866667,-38.633333,"[{'role': 'system', 'content': 'Answer in json format only: {""latitude"": < e.g. ""14.832185"" >, ""longitude"": < e.g. ""4.212666"" >}. No explanation, just the answer!'}, {'role': 'user', 'content': 'What are the latitude and longitude of maracanau?'}]","{""latitude"": ""-3.869167"", ""longitude"": ""-38.622778""}"
305874,br,marilia,212222,-22.216667,-49.933333000000005,"[{'role': 'system', 'content': 'Answer in json format only: {""latitude"": < e.g. ""14.832185"" >, ""longitude"": < e.g. ""4.212666"" >}. No explanation, just the answer!'}, {'role': 'user', 'content': 'What are the latitude and longitude of marilia?'}]","{""latitude"": ""-22.213611"", ""longitude"": ""-49.945278""}"
305892,br,maringa,311727,-23.416667,-51.916667,"[{'role': 'system', 'content': 'Answer in json format only: {""latitude"": < e.g. ""14.832185"" >, ""longitude"": < e.g. ""4.212666"" >}. No explanation, just the answer!'}, {'role': 'user', 'content': 'What are the latitude and longitude of maringa?'}]","{""latitude"": ""-23.4253"", ""longitude"": ""-51.9386""}"
306290,br,maua,386077,-23.666667,-46.45,"[{'role': 'system', 'content': 'Answer in json format only: {""latitude"": < e.g. ""14.832185"" >, ""longitude"": < e.g. ""4.212666"" >}. No explanation, just the answer!'}, {'role': 'user', 'content': 'What are the latitude and longitude of maua?'}]","{""latitude"": ""-23.667624"", ""longitude"": ""-51.027417""}"
306797,br,moji das cruzes,325753,-23.516667,-46.183333000000005,"[{'role': 'system', 'content': 'Answer in json format only: {""latitude"": < e.g. ""14.832185"" >, ""longitude"": < e.g. ""4.212666"" >}. No explanation, just the answer!'}, {'role': 'user', 'content': 'What are the latitude and longitude of moji das cruzes?'}]","{""latitude"": ""-23.523889"", ""longitude"": ""-46.190278""}"
307003,br,montes claros,332384,-16.716667,-43.866667,"[{'role': 'system', 'content': 'Answer in json format only: {""latitude"": < e.g. ""14.832185"" >, ""longitude"": < e.g. ""4.212666"" >}. No explanation, just the answer!'}, {'role': 'user', 'content': 'What are the latitude and longitude of montes claros?'}]","{""latitude"": ""-16.7225"", ""longitude"": ""-43.8592""}"
307271,br,mossoro,202010,-5.191389,-37.344722,"[{'role': 'system', 'content': 'Answer in json format only: {""latitude"": < e.g. ""14.832185"" >, ""longitude"": < e.g. ""4.212666"" >}. No explanation, just the answer!'}, {'role': 'user', 'content': 'What are the latitude and longitude of mossoro?'}]","{""latitude"": ""-5.1875"", ""longitude"": ""-37.3442""}"
307586,br,natal,763057,-5.783333,-35.216667,"[{'role': 'system', 'content': 'Answer in json format only: {""latitude"": < e.g. ""14.832185"" >, ""longitude"": < e.g. ""4.212666"" >}. No explanation, just the answer!'}, {'role': 'user', 'content': 'What are the latitude and longitude of natal?'}]","{""latitude"": ""-5.795"", ""longitude"": ""-35.209""}"
307717,br,nilopolis,147283,-22.808487,-43.419792,"[{'role': 'system', 'content': 'Answer in json format only: {""latitude"": < e.g. ""14.832185"" >, ""longitude"": < e.g. ""4.212666"" >}. No explanation, just the answer!'}, {'role': 'user', 'content': 'What are the latitude and longitude of nilopolis?'}]","{""latitude"": ""-22.807778"", ""longitude"": ""-43.413611""}"
307732,br,niteroi,456461,-22.90214,-43.130301,"[{'role': 'system', 'content': 'Answer in json format only: {""latitude"": < e.g. ""14.832185"" >, ""longitude"": < e.g. ""4.212666"" >}. No explanation, just the answer!'}, {'role': 'user', 'content': 'What are the latitude and longitude of niteroi?'}]","{""latitude"": ""-22.883333"", ""longitude"": ""-43.103889""}"
307811,br,nossa senhora do socorro,163996,-10.866667,-37.116667,"[{'role': 'system', 'content': 'Answer in json format only: {""latitude"": < e.g. ""14.832185"" >, ""longitude"": < e.g. ""4.212666"" >}. No explanation, just the answer!'}, {'role': 'user', 'content': 'What are the latitude and longitude of nossa senhora do socorro?'}]","{""latitude"": ""-10.855106"", ""longitude"": ""-37.124661""}"
307889,br,nova friburgo,153363,-22.266667,-42.533333,"[{'role': 'system', 'content': 'Answer in json format only: {""latitude"": < e.g. ""14.832185"" >, ""longitude"": < e.g. ""4.212666"" >}. No explanation, just the answer!'}, {'role': 'user', 'content': 'What are the latitude and longitude of nova friburgo?'}]","{""latitude"": ""-22.281944"", ""longitude"": ""-42.531944""}"
307903,br,nova iguacu,1002129,-22.759188,-43.431887,"[{'role': 'system', 'content': 'Answer in json format only: {""latitude"": < e.g. ""14.832185"" >, ""longitude"": < e.g. ""4.212666"" >}. No explanation, just the answer!'}, {'role': 'user', 'content': 'What are the latitude and longitude of nova iguacu?'}]","{""latitude"": ""-22.7592"", ""longitude"": ""-43.4517""}"
308066,br,novo hamburgo,253846,-29.683333,-51.133333,"[{'role': 'system', 'content': 'Answer in json format only: {""latitude"": < e.g. ""14.832185"" >, ""longitude"": < e.g. ""4.212666"" >}. No explanation, just the answer!'}, {'role': 'user', 'content': 'What are the latitude and longitude of novo hamburgo?'}]","{""latitude"": ""-29.678767"", ""longitude"": ""-51.136333""}"
308356,br,olinda,366761,-8.016667,-34.85,"[{'role': 'system', 'content': 'Answer in json format only: {""latitude"": < e.g. ""14.832185"" >, ""longitude"": < e.g. ""4.212666"" >}. No explanation, just the answer!'}, {'role': 'user', 'content': 'What are the latitude and longitude of olinda?'}]","{""latitude"": ""-8.008889"", ""longitude"": ""-34.856667""}"
308464,br,osasco,677869,-23.566667,-46.783333,"[{'role': 'system', 'content': 'Answer in json format only: {""latitude"": < e.g. ""14.832185"" >, ""longitude"": < e.g. ""4.212666"" >}. No explanation, just the answer!'}, {'role': 'user', 'content': 'What are the latitude and longitude of osasco?'}]","{""latitude"": ""-23.5329"", ""longitude"": ""-46.7919""}"
308755,br,palhoca,122425,-27.633333,-48.666667,"[{'role': 'system', 'content': 'Answer in json format only: {""latitude"": < e.g. ""14.832185"" >, ""longitude"": < e.g. ""4.212666"" >}. No explanation, just the answer!'}, {'role': 'user', 'content': 'What are the latitude and longitude of palhoca?'}]","{""latitude"": ""-27.6458"", ""longitude"": ""-48.6672""}"
308781,br,palmas,196332,-10.222778,-48.277778000000005,"[{'role': 'system', 'content': 'Answer in json format only: {""latitude"": < e.g. ""14.832185"" >, ""longitude"": < e.g. ""4.212666"" >}. No explanation, just the answer!'}, {'role': 'user', 'content': 'What are the latitude and longitude of palmas?'}]","{""latitude"": ""10.1842"", ""longitude"": ""-48.3313""}"
309105,br,paranagua,141014,-25.516667,-48.5,"[{'role': 'system', 'content': 'Answer in json format only: {""latitude"": < e.g. ""14.832185"" >, ""longitude"": < e.g. ""4.212666"" >}. No explanation, just the answer!'}, {'role': 'user', 'content': 'What are the latitude and longitude of paranagua?'}]","{""latitude"": ""-25.516493"", ""longitude"": ""-48.528323""}"
