index,Country,City,Population,Latitude,Longitude,Messages,Answers,LatitudeLLM,LongitudeLLM,Error
93,ae,abu dhabi,603687,24.466667,54.36666700000001,"[{'role': 'system', 'content': 'Answer in json format only: {""latitude"": < e.g. ""14.832185"" >, ""longitude"": < e.g. ""4.212666"" >}. No explanation, just the answer!'}, {'role': 'user', 'content': 'What are the latitude and longitude of abu dhabi, United Arab Emirates?'}]","{""latitude"": ""24.466667"", ""longitude"": ""54.366667""}",24.466667,54.366667,7.203588090736193e-13
242,ae,dubai,1137376,25.258172,55.304717,"[{'role': 'system', 'content': 'Answer in json format only: {""latitude"": < e.g. ""14.832185"" >, ""longitude"": < e.g. ""4.212666"" >}. No explanation, just the answer!'}, {'role': 'user', 'content': 'What are the latitude and longitude of dubai, United Arab Emirates?'}]","{""latitude"": ""25.276987"", ""longitude"": ""55.296249""}",25.276987,55.296249,2.252055121235872
490,ae,sharjah,543942,25.35731,55.403304000000006,"[{'role': 'system', 'content': 'Answer in json format only: {""latitude"": < e.g. ""14.832185"" >, ""longitude"": < e.g. ""4.212666"" >}. No explanation, just the answer!'}, {'role': 'user', 'content': 'What are the latitude and longitude of sharjah, United Arab Emirates?'}]","{""latitude"": ""25.337768"", ""longitude"": ""55.412981""}",25.337768,55.412981,2.3738986169731318
6644,af,baglan,108481,36.130684,68.708286,"[{'role': 'system', 'content': 'Answer in json format only: {""latitude"": < e.g. ""14.832185"" >, ""longitude"": < e.g. ""4.212666"" >}. No explanation, just the answer!'}, {'role': 'user', 'content': 'What are the latitude and longitude of baglan, Afghanistan?'}]","{""latitude"": ""35.788611"", ""longitude"": ""68.705556""}",35.788611,68.705556,37.9566217155011
24457,af,gardez,103732,33.597439,69.225922,"[{'role': 'system', 'content': 'Answer in json format only: {""latitude"": < e.g. ""14.832185"" >, ""longitude"": < e.g. ""4.212666"" >}. No explanation, just the answer!'}, {'role': 'user', 'content': 'What are the latitude and longitude of gardez, Afghanistan?'}]","{""latitude"": ""33.6036"", ""longitude"": ""69.2283""}",33.6036,69.2283,0.7181085338520254
25037,af,gazni,143049,33.550833000000004,68.4225,"[{'role': 'system', 'content': 'Answer in json format only: {""latitude"": < e.g. ""14.832185"" >, ""longitude"": < e.g. ""4.212666"" >}. No explanation, just the answer!'}, {'role': 'user', 'content': 'What are the latitude and longitude of gazni, Afghanistan?'}]","{""latitude"": ""33.5500"", ""longitude"": ""68.4333""}",33.55,68.4333,1.00722774640267
29709,af,herat,272880,34.348167,62.199673,"[{'role': 'system', 'content': 'Answer in json format only: {""latitude"": < e.g. ""14.832185"" >, ""longitude"": < e.g. ""4.212666"" >}. No explanation, just the answer!'}, {'role': 'user', 'content': 'What are the latitude and longitude of herat, Afghanistan?'}]","{""latitude"": ""34.348056"", ""longitude"": ""62.193056""}",34.348056,62.193056,0.6089296833021358
30969,af,jalalabad,200389,34.426468,70.45153,"[{'role': 'system', 'content': 'Answer in json format only: {""latitude"": < e.g. ""14.832185"" >, ""longitude"": < e.g. ""4.212666"" >}. No explanation, just the answer!'}, {'role': 'user', 'content': 'What are the latitude and longitude of jalalabad, Afghanistan?'}]","{""latitude"": ""34.426267"", ""longitude"": ""70.451472""}",34.426267,70.451472,0.02292548540658565
32756,af,kabul,3043589,34.516667,69.18333299999999,"[{'role': 'system', 'content': 'Answer in json format only: {""latitude"": < e.g. ""14.832185"" >, ""longitude"": < e.g. ""4.212666"" >}. No explanation, just the answer!'}, {'role': 'user', 'content': 'What are the latitude and longitude of kabul, Afghanistan?'}]","{""latitude"": ""34.5281"", ""longitude"": ""69.1761""}",34.5281,69.1761,1.4316334055760478
63360,af,qandahar,391230,31.613323,65.710126,"[{'role': 'system', 'content': 'Answer in json format only: {""latitude"": < e.g. ""14.832185"" >, ""longitude"": < e.g. ""4.212666"" >}. No explanation, just the answer!'}, {'role': 'user', 'content': 'What are the latitude and longitude of qandahar, Afghanistan?'}]","{""latitude"": ""31.622778"", ""longitude"": ""65.715278""}",31.622778,65.715278,1.1567385231985552
66589,af,qunduz,161943,36.728955,68.857001,"[{'role': 'system', 'content': 'Answer in json format only: {""latitude"": < e.g. ""14.832185"" >, ""longitude"": < e.g. ""4.212666"" >}. No explanation, just the answer!'}, {'role': 'user', 'content': 'What are the latitude and longitude of qunduz, Afghanistan?'}]","{""latitude"": ""36.733333"", ""longitude"": ""68.866667""}",36.733333,68.866667,0.9907116725795287
92530,al,durres,122034,41.3230556,19.4413889,"[{'role': 'system', 'content': 'Answer in json format only: {""latitude"": < e.g. ""14.832185"" >, ""longitude"": < e.g. ""4.212666"" >}. No explanation, just the answer!'}, {'role': 'user', 'content': 'What are the latitude and longitude of durres, Albania?'}]","{""latitude"": ""41.323056"", ""longitude"": ""19.456389""}",41.323056,19.456389,1.2558540051851284
92635,al,elbasan,100903,41.1125,20.082222199999997,"[{'role': 'system', 'content': 'Answer in json format only: {""latitude"": < e.g. ""14.832185"" >, ""longitude"": < e.g. ""4.212666"" >}. No explanation, just the answer!'}, {'role': 'user', 'content': 'What are the latitude and longitude of elbasan, Albania?'}]","{""latitude"": ""41.109722"", ""longitude"": ""20.082778""}",41.109722,20.082778,0.3120257802703035
102871,al,tirana,374801,41.3275,19.8188889,"[{'role': 'system', 'content': 'Answer in json format only: {""latitude"": < e.g. ""14.832185"" >, ""longitude"": < e.g. ""4.212666"" >}. No explanation, just the answer!'}, {'role': 'user', 'content': 'What are the latitude and longitude of tirana, Albania?'}]","{""latitude"": ""41.3275"", ""longitude"": ""19.8189""}",41.3275,19.8189,0.000929262627184766
105669,am,gyumri,148383,40.789444399999994,43.8475,"[{'role': 'system', 'content': 'Answer in json format only: {""latitude"": < e.g. ""14.832185"" >, ""longitude"": < e.g. ""4.212666"" >}. No explanation, just the answer!'}, {'role': 'user', 'content': 'What are the latitude and longitude of gyumri, Armenia?'}]","{""latitude"": ""40.7853"", ""longitude"": ""43.8483""}",40.7853,43.8483,0.46516185612436517
107254,am,vanadzor,101099,40.8127778,44.4883333,"[{'role': 'system', 'content': 'Answer in json format only: {""latitude"": < e.g. ""14.832185"" >, ""longitude"": < e.g. ""4.212666"" >}. No explanation, just the answer!'}, {'role': 'user', 'content': 'What are the latitude and longitude of vanadzor, Armenia?'}]","{""latitude"": ""40.8103"", ""longitude"": ""44.4939""}",40.8103,44.4939,0.5443518603346897
107461,am,yerevan,1093499,40.1811111,44.513611100000006,"[{'role': 'system', 'content': 'Answer in json format only: {""latitude"": < e.g. ""14.832185"" >, ""longitude"": < e.g. ""4.212666"" >}. No explanation, just the answer!'}, {'role': 'user', 'content': 'What are the latitude and longitude of yerevan, Armenia?'}]","{""latitude"": ""40.181666"", ""longitude"": ""44.513611""}",40.181666,44.513611,0.06161505358984181
108559,ao,benguela,151235,-12.578333,13.407222,"[{'role': 'system', 'content': 'Answer in json format only: {""latitude"": < e.g. ""14.832185"" >, ""longitude"": < e.g. ""4.212666"" >}. No explanation, just the answer!'}, {'role': 'user', 'content': 'What are the latitude and longitude of benguela, Angola?'}]","{""latitude"": ""-12.583333"", ""longitude"": ""13.4""}",-12.583333,13.4,0.9601164448566839
115986,ao,huambo,226177,-12.776111,15.739167000000002,"[{'role': 'system', 'content': 'Answer in json format only: {""latitude"": < e.g. ""14.832185"" >, ""longitude"": < e.g. ""4.212666"" >}. No explanation, just the answer!'}, {'role': 'user', 'content': 'What are the latitude and longitude of huambo, Angola?'}]","{""latitude"": ""-12.779167"", ""longitude"": ""15.733333""}",-12.779167,15.733333,0.7180312109520316
116642,ao,kuito,113624,-12.383333,16.933332999999998,"[{'role': 'system', 'content': 'Answer in json format only: {""latitude"": < e.g. ""14.832185"" >, ""longitude"": < e.g. ""4.212666"" >}. No explanation, just the answer!'}, {'role': 'user', 'content': 'What are the latitude and longitude of kuito, Angola?'}]","{""latitude"": ""-12.383333"", ""longitude"": ""16.933333""}",-12.383333,16.933333,3.863446481867294e-13
116936,ao,lobito,207957,-12.319722,13.599722,"[{'role': 'system', 'content': 'Answer in json format only: {""latitude"": < e.g. ""14.832185"" >, ""longitude"": < e.g. ""4.212666"" >}. No explanation, just the answer!'}, {'role': 'user', 'content': 'What are the latitude and longitude of lobito, Angola?'}]","{""latitude"": ""-12.366667"", ""longitude"": ""13.533333""}",-12.366667,13.533333,8.894282194379679
117135,ao,luanda,2776125,-8.836803999999999,13.233173999999998,"[{'role': 'system', 'content': 'Answer in json format only: {""latitude"": < e.g. ""14.832185"" >, ""longitude"": < e.g. ""4.212666"" >}. No explanation, just the answer!'}, {'role': 'user', 'content': 'What are the latitude and longitude of luanda, Angola?'}]","{""latitude"": ""8.838333"", ""longitude"": ""13.287778""}",8.838333,13.287778,1954.579769105065
117180,ao,lubango,102541,-14.916667000000002,13.5,"[{'role': 'system', 'content': 'Answer in json format only: {""latitude"": < e.g. ""14.832185"" >, ""longitude"": < e.g. ""4.212666"" >}. No explanation, just the answer!'}, {'role': 'user', 'content': 'What are the latitude and longitude of lubango, Angola?'}]","{""latitude"": ""-14.918611"", ""longitude"": ""13.493611""}",-14.918611,13.493611,0.7202706643291146
127933,ar,bahia blanca,282950,-38.719595,-62.272431999999995,"[{'role': 'system', 'content': 'Answer in json format only: {""latitude"": < e.g. ""14.832185"" >, ""longitude"": < e.g. ""4.212666"" >}. No explanation, just the answer!'}, {'role': 'user', 'content': 'What are the latitude and longitude of bahia blanca, Argentina?'}]","{""latitude"": ""-38.7167"", ""longitude"": ""-62.2667""}",-38.7167,-62.2667,0.5931189864074645
128679,ar,catamarca,213601,-28.469574,-65.785239,"[{'role': 'system', 'content': 'Answer in json format only: {""latitude"": < e.g. ""14.832185"" >, ""longitude"": < e.g. ""4.212666"" >}. No explanation, just the answer!'}, {'role': 'user', 'content': 'What are the latitude and longitude of catamarca, Argentina?'}]","{""latitude"": ""-28.468333"", ""longitude"": ""-65.783333""}",-28.468333,-65.783333,0.2318580307146583
129279,ar,comodoro rivadavia,142597,-45.864135,-67.496558,"[{'role': 'system', 'content': 'Answer in json format only: {""latitude"": < e.g. ""14.832185"" >, ""longitude"": < e.g. ""4.212666"" >}. No explanation, just the answer!'}, {'role': 'user', 'content': 'What are the latitude and longitude of comodoro rivadavia, Argentina?'}]","{""latitude"": ""45.865556"", ""longitude"": ""67.493333""}",45.865556,67.493333,16571.35079982639
129295,ar,concordia,155686,-31.392959,-58.02089,"[{'role': 'system', 'content': 'Answer in json format only: {""latitude"": < e.g. ""14.832185"" >, ""longitude"": < e.g. ""4.212666"" >}. No explanation, just the answer!'}, {'role': 'user', 'content': 'What are the latitude and longitude of concordia, Argentina?'}]","{""latitude"": ""-31.398056"", ""longitude"": ""-58.016944""}",-31.398056,-58.016944,0.678399489709723
129336,ar,cordoba,1441007,-31.413496,-64.18105200000001,"[{'role': 'system', 'content': 'Answer in json format only: {""latitude"": < e.g. ""14.832185"" >, ""longitude"": < e.g. ""4.212666"" >}. No explanation, just the answer!'}, {'role': 'user', 'content': 'What are the latitude and longitude of cordoba, Argentina?'}]","{""latitude"": ""-31.416668"", ""longitude"": ""-64.183334""}",-31.416668,-64.183334,0.41325348912175747
129422,ar,corrientes,390481,-27.480596,-58.834099,"[{'role': 'system', 'content': 'Answer in json format only: {""latitude"": < e.g. ""14.832185"" >, ""longitude"": < e.g. ""4.212666"" >}. No explanation, just the answer!'}, {'role': 'user', 'content': 'What are the latitude and longitude of corrientes, Argentina?'}]","{""latitude"": ""-27.4805"", ""longitude"": ""-58.8229""}",-27.4805,-58.8229,1.1068427291460654
130450,ar,formosa,248756,-26.177534,-58.178139,"[{'role': 'system', 'content': 'Answer in json format only: {""latitude"": < e.g. ""14.832185"" >, ""longitude"": < e.g. ""4.212666"" >}. No explanation, just the answer!'}, {'role': 'user', 'content': 'What are the latitude and longitude of formosa, Argentina?'}]","{""latitude"": ""-26.183333"", ""longitude"": ""-58.166667""}",-26.183333,-58.166667,1.31449711232055
131309,ar,jujuy,277150,-24.194565,-65.297116,"[{'role': 'system', 'content': 'Answer in json format only: {""latitude"": < e.g. ""14.832185"" >, ""longitude"": < e.g. ""4.212666"" >}. No explanation, just the answer!'}, {'role': 'user', 'content': 'What are the latitude and longitude of jujuy, Argentina?'}]","{""latitude"": ""-24.185167"", ""longitude"": ""-65.29778""}",-24.185167,-65.29778,1.0431154880974276
131741,ar,la plata,684318,-34.921454,-57.954533,"[{'role': 'system', 'content': 'Answer in json format only: {""latitude"": < e.g. ""14.832185"" >, ""longitude"": < e.g. ""4.212666"" >}. No explanation, just the answer!'}, {'role': 'user', 'content': 'What are the latitude and longitude of la plata, Argentina?'}]","{""latitude"": ""-34.920498"", ""longitude"": ""-57.954174""}",-34.920498,-57.954174,0.1110151165436705
131795,ar,la rioja,178497,-29.411047999999997,-66.850668,"[{'role': 'system', 'content': 'Answer in json format only: {""latitude"": < e.g. ""14.832185"" >, ""longitude"": < e.g. ""4.212666"" >}. No explanation, just the answer!'}, {'role': 'user', 'content': 'What are the latitude and longitude of la rioja, Argentina?'}]","{""latitude"": ""-29.411111"", ""longitude"": ""-66.856389""}",-29.411111,-66.856389,0.5552719841240572
132571,ar,mar del plata,645771,-38.002278,-57.557539,"[{'role': 'system', 'content': 'Answer in json format only: {""latitude"": < e.g. ""14.832185"" >, ""longitude"": < e.g. ""4.212666"" >}. No explanation, just the answer!'}, {'role': 'user', 'content': 'What are the latitude and longitude of mar del plata, Argentina?'}]","{""latitude"": ""-38.002774"", ""longitude"": ""-57.557773""}",-38.002774,-57.557773,0.05876531084701161
132705,ar,mendoza,973047,-32.890845,-68.82717099999999,"[{'role': 'system', 'content': 'Answer in json format only: {""latitude"": < e.g. ""14.832185"" >, ""longitude"": < e.g. ""4.212666"" >}. No explanation, just the answer!'}, {'role': 'user', 'content': 'What are the latitude and longitude of mendoza, Argentina?'}]","{""latitude"": ""-32.890625"", ""longitude"": ""-68.844082""}",-32.890625,-68.844082,1.5825205128031548
132712,ar,mercedes,126559,-33.674359,-65.461405,"[{'role': 'system', 'content': 'Answer in json format only: {""latitude"": < e.g. ""14.832185"" >, ""longitude"": < e.g. ""4.212666"" >}. No explanation, just the answer!'}, {'role': 'user', 'content': 'What are the latitude and longitude of mercedes, Argentina?'}]","{""latitude"": ""-32.733333"", ""longitude"": ""-60.633333""}",-32.733333,-60.633333,462.04846503617597
133003,ar,neuquen,359037,-38.951606,-68.059102,"[{'role': 'system', 'content': 'Answer in json format only: {""latitude"": < e.g. ""14.832185"" >, ""longitude"": < e.g. ""4.212666"" >}. No explanation, just the answer!'}, {'role': 'user', 'content': 'What are the latitude and longitude of neuquen, Argentina?'}]","{""latitude"": ""-38.9523"", ""longitude"": ""-68.0649""}",-38.9523,-68.0649,0.5084702051515242
133317,ar,parana,299257,-31.731966999999997,-60.523802,"[{'role': 'system', 'content': 'Answer in json format only: {""latitude"": < e.g. ""14.832185"" >, ""longitude"": < e.g. ""4.212666"" >}. No explanation, just the answer!'}, {'role': 'user', 'content': 'What are the latitude and longitude of parana, Argentina?'}]","{""latitude"": ""-31.733333"", ""longitude"": ""-60.516667""}",-31.733333,-60.516667,0.6929146171795468
133624,ar,posadas,313438,-27.367077,-55.896078,"[{'role': 'system', 'content': 'Answer in json format only: {""latitude"": < e.g. ""14.832185"" >, ""longitude"": < e.g. ""4.212666"" >}. No explanation, just the answer!'}, {'role': 'user', 'content': 'What are the latitude and longitude of posadas, Argentina?'}]","{""latitude"": ""-27.366667"", ""longitude"": ""-55.883333""}",-27.366667,-55.883333,1.2616907570309657
134159,ar,resistencia,406967,-27.460559999999997,-58.983886,"[{'role': 'system', 'content': 'Answer in json format only: {""latitude"": < e.g. ""14.832185"" >, ""longitude"": < e.g. ""4.212666"" >}. No explanation, just the answer!'}, {'role': 'user', 'content': 'What are the latitude and longitude of resistencia, Argentina?'}]","{""latitude"": ""-27.45"", ""longitude"": ""-58.9833""}",-27.45,-58.9833,1.1715941784921347
134212,ar,rio cuarto,174058,-33.130671,-64.349918,"[{'role': 'system', 'content': 'Answer in json format only: {""latitude"": < e.g. ""14.832185"" >, ""longitude"": < e.g. ""4.212666"" >}. No explanation, just the answer!'}, {'role': 'user', 'content': 'What are the latitude and longitude of rio cuarto, Argentina?'}]","{""latitude"": ""-33.123700"", ""longitude"": ""-64.346400""}",-33.1237,-64.3464,0.8399460506030993
134317,ar,rosario,1218497,-32.946818,-60.639317000000005,"[{'role': 'system', 'content': 'Answer in json format only: {""latitude"": < e.g. ""14.832185"" >, ""longitude"": < e.g. ""4.212666"" >}. No explanation, just the answer!'}, {'role': 'user', 'content': 'What are the latitude and longitude of rosario, Argentina?'}]","{""latitude"": ""-32.958334"", ""longitude"": ""-60.639 Hin""}",,,
134402,ar,salta,548288,-24.785895999999997,-65.411664,"[{'role': 'system', 'content': 'Answer in json format only: {""latitude"": < e.g. ""14.832185"" >, ""longitude"": < e.g. ""4.212666"" >}. No explanation, just the answer!'}, {'role': 'user', 'content': 'What are the latitude and longitude of salta, Argentina?'}]","{""latitude"": ""-24.7858"", ""longitude"": ""-65.4142""}",-24.7858,-65.4142,0.2566717604187233
134483,ar,san carlos de bariloche,110044,-41.140293,-71.301369,"[{'role': 'system', 'content': 'Answer in json format only: {""latitude"": < e.g. ""14.832185"" >, ""longitude"": < e.g. ""4.212666"" >}. No explanation, just the answer!'}, {'role': 'user', 'content': 'What are the latitude and longitude of san carlos de bariloche, Argentina?'}]","{""latitude"": ""-41.133333"", ""longitude"": ""-71.316667""}",-41.133333,-71.316667,1.4990765125458316
134640,ar,san juan,469958,-31.5375,-68.536389,"[{'role': 'system', 'content': 'Answer in json format only: {""latitude"": < e.g. ""14.832185"" >, ""longitude"": < e.g. ""4.212666"" >}. No explanation, just the answer!'}, {'role': 'user', 'content': 'What are the latitude and longitude of san juan, Argentina?'}]","{""latitude"": ""-31.537777"", ""longitude"": ""-68.529722""}",-31.537777,-68.529722,0.6338711387823961
134659,ar,san luis,184869,-33.295012,-66.335627,"[{'role': 'system', 'content': 'Answer in json format only: {""latitude"": < e.g. ""14.832185"" >, ""longitude"": < e.g. ""4.212666"" >}. No explanation, just the answer!'}, {'role': 'user', 'content': 'What are the latitude and longitude of san luis, Argentina?'}]","{""latitude"": ""-33.300000"", ""longitude"": ""-66.333332""}",-33.3,-66.333332,0.5930768441623141
134678,ar,san martin,107554,-33.081031,-68.468138,"[{'role': 'system', 'content': 'Answer in json format only: {""latitude"": < e.g. ""14.832185"" >, ""longitude"": < e.g. ""4.212666"" >}. No explanation, just the answer!'}, {'role': 'user', 'content': 'What are the latitude and longitude of san martin, Argentina?'}]","{""latitude"": ""-33.083333"", ""longitude"": ""-68.466667""}",-33.083333,-68.466667,0.28990293532179473
134703,ar,san nicolas,130705,-33.335784000000004,-60.225233,"[{'role': 'system', 'content': 'Answer in json format only: {""latitude"": < e.g. ""14.832185"" >, ""longitude"": < e.g. ""4.212666"" >}. No explanation, just the answer!'}, {'role': 'user', 'content': 'What are the latitude and longitude of san nicolas, Argentina?'}]","{""latitude"": ""-33.333333"", ""longitude"": ""-60.216667""}",-33.333333,-60.216667,0.8425441577893711
134735,ar,san rafael,125033,-34.617717,-68.330066,"[{'role': 'system', 'content': 'Answer in json format only: {""latitude"": < e.g. ""14.832185"" >, ""longitude"": < e.g. ""4.212666"" >}. No explanation, just the answer!'}, {'role': 'user', 'content': 'What are the latitude and longitude of san rafael, Argentina?'}]","{""latitude"": ""-34.616667"", ""longitude"": ""-68.333333""}",-34.616667,-68.333333,0.32146575566734664
134802,ar,santa fe,456044,-31.629484,-60.701036,"[{'role': 'system', 'content': 'Answer in json format only: {""latitude"": < e.g. ""14.832185"" >, ""longitude"": < e.g. ""4.212666"" >}. No explanation, just the answer!'}, {'role': 'user', 'content': 'What are the latitude and longitude of santa fe, Argentina?'}]","{""latitude"": ""-31.633333"", ""longitude"": ""-60.7""}",-31.633333,-60.7,0.4379495396095301
134880,ar,santiago del estero,407636,-27.795112,-64.261489,"[{'role': 'system', 'content': 'Answer in json format only: {""latitude"": < e.g. ""14.832185"" >, ""longitude"": < e.g. ""4.212666"" >}. No explanation, just the answer!'}, {'role': 'user', 'content': 'What are the latitude and longitude of santiago del estero, Argentina?'}]","{""latitude"": ""-27.783333"", ""longitude"": ""-64.266667""}",-27.783333,-64.266667,1.4015084123990462
135204,ar,tandil,100127,-37.321674,-59.133164,"[{'role': 'system', 'content': 'Answer in json format only: {""latitude"": < e.g. ""14.832185"" >, ""longitude"": < e.g. ""4.212666"" >}. No explanation, just the answer!'}, {'role': 'user', 'content': 'What are the latitude and longitude of tandil, Argentina?'}]","{""latitude"": ""-37.316667"", ""longitude"": ""-59.133333""}",-37.316667,-59.133333,0.5558969234827303
135381,ar,trelew,107883,-43.250075,-65.313295,"[{'role': 'system', 'content': 'Answer in json format only: {""latitude"": < e.g. ""14.832185"" >, ""longitude"": < e.g. ""4.212666"" >}. No explanation, just the answer!'}, {'role': 'user', 'content': 'What are the latitude and longitude of trelew, Argentina?'}]","{""latitude"": ""-43.254167"", ""longitude"": ""-65.305278""}",-43.254167,-65.305278,0.7940516176049364
135445,ar,tucuman,828402,-26.824144,-65.2226,"[{'role': 'system', 'content': 'Answer in json format only: {""latitude"": < e.g. ""14.832185"" >, ""longitude"": < e.g. ""4.212666"" >}. No explanation, just the answer!'}, {'role': 'user', 'content': 'What are the latitude and longitude of tucuman, Argentina?'}]","{""latitude"": ""-26.8252"", ""longitude"": ""-65.2223""}",-26.8252,-65.2223,0.12074640780764255
139363,at,graz,222326,47.066666999999995,15.45,"[{'role': 'system', 'content': 'Answer in json format only: {""latitude"": < e.g. ""14.832185"" >, ""longitude"": < e.g. ""4.212666"" >}. No explanation, just the answer!'}, {'role': 'user', 'content': 'What are the latitude and longitude of graz, Austria?'}]","{""latitude"": ""47.066667"", ""longitude"": ""15.433333""}",47.066667,15.433333,1.2660477025190715
140951,at,innsbruck,112467,47.266667,11.4,"[{'role': 'system', 'content': 'Answer in json format only: {""latitude"": < e.g. ""14.832185"" >, ""longitude"": < e.g. ""4.212666"" >}. No explanation, just the answer!'}, {'role': 'user', 'content': 'What are the latitude and longitude of innsbruck, Austria?'}]","{""latitude"": ""47.2692"", ""longitude"": ""11.3883""}",47.2692,11.3883,0.9291024488762217
142702,at,linz,181163,48.3,14.3,"[{'role': 'system', 'content': 'Answer in json format only: {""latitude"": < e.g. ""14.832185"" >, ""longitude"": < e.g. ""4.212666"" >}. No explanation, just the answer!'}, {'role': 'user', 'content': 'What are the latitude and longitude of linz, Austria?'}]","{""latitude"": ""48.306944"", ""longitude"": ""14.287778""}",48.306944,14.287778,1.1909373424835539
146657,at,salzburg,145310,47.8,13.033333,"[{'role': 'system', 'content': 'Answer in json format only: {""latitude"": < e.g. ""14.832185"" >, ""longitude"": < e.g. ""4.212666"" >}. No explanation, just the answer!'}, {'role': 'user', 'content': 'What are the latitude and longitude of salzburg, Austria?'}]","{""latitude"": ""47.7949"", ""longitude"": ""13.0479""}",47.7949,13.0479,1.2298441538657594
149599,at,vienna,1569315,48.2,16.366667,"[{'role': 'system', 'content': 'Answer in json format only: {""latitude"": < e.g. ""14.832185"" >, ""longitude"": < e.g. ""4.212666"" >}. No explanation, just the answer!'}, {'role': 'user', 'content': 'What are the latitude and longitude of vienna, Austria?'}]","{""latitude"": ""48.208174"", ""longitude"": ""16.373819""}",48.208174,16.373819,1.052955123304509
150905,au,adelaide,1074168,-34.928661,138.598633,"[{'role': 'system', 'content': 'Answer in json format only: {""latitude"": < e.g. ""14.832185"" >, ""longitude"": < e.g. ""4.212666"" >}. No explanation, just the answer!'}, {'role': 'user', 'content': 'What are the latitude and longitude of adelaide, Australia?'}]","{""latitude"": ""-34.9285"", ""longitude"": ""138.6007""}",-34.9285,138.6007,0.18969918965441981
150938,au,albury,104261,-36.074940000000005,146.923935,"[{'role': 'system', 'content': 'Answer in json format only: {""latitude"": < e.g. ""14.832185"" >, ""longitude"": < e.g. ""4.212666"" >}. No explanation, just the answer!'}, {'role': 'user', 'content': 'What are the latitude and longitude of albury, Australia?'}]","{""latitude"": ""-36.0771"", ""longitude"": ""146.9237""}",-36.0771,146.9237,0.2406074574398804
152164,au,brisbane,1843459,-27.471009999999996,153.024292,"[{'role': 'system', 'content': 'Answer in json format only: {""latitude"": < e.g. ""14.832185"" >, ""longitude"": < e.g. ""4.212666"" >}. No explanation, just the answer!'}, {'role': 'user', 'content': 'What are the latitude and longitude of brisbane, Australia?'}]","{""latitude"": ""-27.470125"", ""longitude"": ""153.021072""}",-27.470125,153.021072,0.333026270541613
152534,au,cairns,154318,-16.92304,145.766251,"[{'role': 'system', 'content': 'Answer in json format only: {""latitude"": < e.g. ""14.832185"" >, ""longitude"": < e.g. ""4.212666"" >}. No explanation, just the answer!'}, {'role': 'user', 'content': 'What are the latitude and longitude of cairns, Australia?'}]","{""latitude"": ""-16.918589"", ""longitude"": ""145.776886""}",-16.918589,145.776886,1.2354022431044334
152621,au,canberra,324025,-35.27603,149.13435,"[{'role': 'system', 'content': 'Answer in json format only: {""latitude"": < e.g. ""14.832185"" >, ""longitude"": < e.g. ""4.212666"" >}. No explanation, just the answer!'}, {'role': 'user', 'content': 'What are the latitude and longitude of canberra, Australia?'}]","{""latitude"": ""-35.2833"", ""longitude"": ""149.1281""}",-35.2833,149.1281,0.9868500751638086
154465,au,geelong,150438,-38.153461,144.358093,"[{'role': 'system', 'content': 'Answer in json format only: {""latitude"": < e.g. ""14.832185"" >, ""longitude"": < e.g. ""4.212666"" >}. No explanation, just the answer!'}, {'role': 'user', 'content': 'What are the latitude and longitude of geelong, Australia?'}]","{""latitude"": ""-38.149682"", ""longitude"": ""144.361542""}",-38.149682,144.361542,0.5170524730429159
154704,au,gold coast,501175,-28.000290000000003,153.430878,"[{'role': 'system', 'content': 'Answer in json format only: {""latitude"": < e.g. ""14.832185"" >, ""longitude"": < e.g. ""4.212666"" >}. No explanation, just the answer!'}, {'role': 'user', 'content': 'What are the latitude and longitude of gold coast, Australia?'}]","{""latitude"": ""-28.0167"", ""longitude"": ""153.4000""}",-28.0167,153.4,3.5398257876360235
155251,au,hobart,204863,-42.883209,147.331665,"[{'role': 'system', 'content': 'Answer in json format only: {""latitude"": < e.g. ""14.832185"" >, ""longitude"": < e.g. ""4.212666"" >}. No explanation, just the answer!'}, {'role': 'user', 'content': 'What are the latitude and longitude of hobart, Australia?'}]","{""latitude"": ""-42.882548"", ""longitude"": ""147.327122""}",-42.882548,147.327122,0.37833785448118196
156937,au,melbourne,3730212,-37.813938,144.963425,"[{'role': 'system', 'content': 'Answer in json format only: {""latitude"": < e.g. ""14.832185"" >, ""longitude"": < e.g. ""4.212666"" >}. No explanation, just the answer!'}, {'role': 'user', 'content': 'What are the latitude and longitude of melbourne, Australia?'}]","{""latitude"": ""-37.774929"", ""longitude"": ""144.973964""}",-37.774929,144.973964,4.428095028902091
157956,au,newcastle,497961,-32.927792,151.78448500000002,"[{'role': 'system', 'content': 'Answer in json format only: {""latitude"": < e.g. ""14.832185"" >, ""longitude"": < e.g. ""4.212666"" >}. No explanation, just the answer!'}, {'role': 'user', 'content': 'What are the latitude and longitude of newcastle, Australia?'}]","{""latitude"": ""-32.9267"", ""longitude"": ""151.7783""}",-32.9267,151.7783,0.5910230195589459
158599,au,perth,1446715,-31.952240000000003,115.861397,"[{'role': 'system', 'content': 'Answer in json format only: {""latitude"": < e.g. ""14.832185"" >, ""longitude"": < e.g. ""4.212666"" >}. No explanation, just the answer!'}, {'role': 'user', 'content': 'What are the latitude and longitude of perth, Australia?'}]","{""latitude"": ""-31.953512"", ""longitude"": ""115.857048""}",-31.953512,115.857048,0.4346807848145656
159856,au,sydney,4394585,-33.861481,151.205475,"[{'role': 'system', 'content': 'Answer in json format only: {""latitude"": < e.g. ""14.832185"" >, ""longitude"": < e.g. ""4.212666"" >}. No explanation, just the answer!'}, {'role': 'user', 'content': 'What are the latitude and longitude of sydney, Australia?'}]","{""latitude"": ""-33.868820"", ""longitude"": ""151.209290""}",-33.86882,151.20929,0.8872853986663163
160351,au,townsville,138959,-19.26639,146.805695,"[{'role': 'system', 'content': 'Answer in json format only: {""latitude"": < e.g. ""14.832185"" >, ""longitude"": < e.g. ""4.212666"" >}. No explanation, just the answer!'}, {'role': 'user', 'content': 'What are the latitude and longitude of townsville, Australia?'}]","{""latitude"": ""-19.2583"", ""longitude"": ""146.8189""}",-19.2583,146.8189,1.6519771389813913
161339,au,wollongong,260918,-34.424,150.893448,"[{'role': 'system', 'content': 'Answer in json format only: {""latitude"": < e.g. ""14.832185"" >, ""longitude"": < e.g. ""4.212666"" >}. No explanation, just the answer!'}, {'role': 'user', 'content': 'What are the latitude and longitude of wollongong, Australia?'}]","{""latitude"": ""-34.4253"", ""longitude"": ""150.8931""}",-34.4253,150.8931,0.1477144684320923
163345,az,baku,1116513,40.395278000000005,49.882222,"[{'role': 'system', 'content': 'Answer in json format only: {""latitude"": < e.g. ""14.832185"" >, ""longitude"": < e.g. ""4.212666"" >}. No explanation, just the answer!'}, {'role': 'user', 'content': 'What are the latitude and longitude of baku, Azerbaijan?'}]","{""latitude"": ""40.409264"", ""longitude"": ""49.867092""}",40.409264,49.867092,2.0153413682986585
173521,ba,banja luka,221100,44.775833299999995,17.1855556,"[{'role': 'system', 'content': 'Answer in json format only: {""latitude"": < e.g. ""14.832185"" >, ""longitude"": < e.g. ""4.212666"" >}. No explanation, just the answer!'}, {'role': 'user', 'content': 'What are the latitude and longitude of banja luka, Bosnia and Herzegovina?'}]","{""latitude"": ""44.766667"", ""longitude"": ""17.183333""}",44.766667,17.183333,1.033709147522986
182374,ba,mostar,104517,43.3433333,17.8080556,"[{'role': 'system', 'content': 'Answer in json format only: {""latitude"": < e.g. ""14.832185"" >, ""longitude"": < e.g. ""4.212666"" >}. No explanation, just the answer!'}, {'role': 'user', 'content': 'What are the latitude and longitude of mostar, Bosnia and Herzegovina?'}]","{""latitude"": ""43.3377"", ""longitude"": ""17.8078""}",43.3377,17.8078,0.6261992037020199
185607,ba,sarajevo,696726,43.85,18.3833333,"[{'role': 'system', 'content': 'Answer in json format only: {""latitude"": < e.g. ""14.832185"" >, ""longitude"": < e.g. ""4.212666"" >}. No explanation, just the answer!'}, {'role': 'user', 'content': 'What are the latitude and longitude of sarajevo, Bosnia and Herzegovina?'}]","{""latitude"": ""43.8563"", ""longitude"": ""18.4133""}",43.8563,18.4133,2.5090561002224523
187624,ba,tuzla,142484,44.5427778,18.6694444,"[{'role': 'system', 'content': 'Answer in json format only: {""latitude"": < e.g. ""14.832185"" >, ""longitude"": < e.g. ""4.212666"" >}. No explanation, just the answer!'}, {'role': 'user', 'content': 'What are the latitude and longitude of tuzla, Bosnia and Herzegovina?'}]","{""latitude"": ""44.539333"", ""longitude"": ""18.667778""}",44.539333,18.667778,0.40505765326792803
188922,ba,zenica,164422,44.2013889,17.9063889,"[{'role': 'system', 'content': 'Answer in json format only: {""latitude"": < e.g. ""14.832185"" >, ""longitude"": < e.g. ""4.212666"" >}. No explanation, just the answer!'}, {'role': 'user', 'content': 'What are the latitude and longitude of zenica, Bosnia and Herzegovina?'}]","{""latitude"": ""44.203333"", ""longitude"": ""17.904167""}",44.203333,17.904167,0.27965694582640704
192688,bd,barisal,280437,22.7,90.3666667,"[{'role': 'system', 'content': 'Answer in json format only: {""latitude"": < e.g. ""14.832185"" >, ""longitude"": < e.g. ""4.212666"" >}. No explanation, just the answer!'}, {'role': 'user', 'content': 'What are the latitude and longitude of barisal, Bangladesh?'}]","{""latitude"": ""22.700411"", ""longitude"": ""90.363471""}",22.700411,90.363471,0.33148977984686706
193449,bd,bhairab bazar,105470,24.0666667,90.9666667,"[{'role': 'system', 'content': 'Answer in json format only: {""latitude"": < e.g. ""14.832185"" >, ""longitude"": < e.g. ""4.212666"" >}. No explanation, just the answer!'}, {'role': 'user', 'content': 'What are the latitude and longitude of bhairab bazar, Bangladesh?'}]","{""latitude"": ""24.058056"", ""longitude"": ""90.989722""}",24.058056,90.989722,2.5313218360064957
195401,bd,chandpur,120183,23.15,90.7166667,"[{'role': 'system', 'content': 'Answer in json format only: {""latitude"": < e.g. ""14.832185"" >, ""longitude"": < e.g. ""4.212666"" >}. No explanation, just the answer!'}, {'role': 'user', 'content': 'What are the latitude and longitude of chandpur, Bangladesh?'}]","{""latitude"": ""23.2333"", ""longitude"": ""90.6333""}",23.2333,90.6333,12.567735623208884
198311,bd,dhaka,6493177,23.7230556,90.4086111,"[{'role': 'system', 'content': 'Answer in json format only: {""latitude"": < e.g. ""14.832185"" >, ""longitude"": < e.g. ""4.212666"" >}. No explanation, just the answer!'}, {'role': 'user', 'content': 'What are the latitude and longitude of dhaka, Bangladesh?'}]","{""latitude"": ""23.8103"", ""longitude"": ""90.4125""}",23.8103,90.4125,9.670869466345218
198891,bd,dinajpur,206251,25.6333333,88.6333333,"[{'role': 'system', 'content': 'Answer in json format only: {""latitude"": < e.g. ""14.832185"" >, ""longitude"": < e.g. ""4.212666"" >}. No explanation, just the answer!'}, {'role': 'user', 'content': 'What are the latitude and longitude of dinajpur, Bangladesh?'}]","{""latitude"": ""25.620556"", ""longitude"": ""88.633611""}",25.620556,88.633611,1.4157735024042055
199526,bd,faridpur,112200,23.6,89.83333329999999,"[{'role': 'system', 'content': 'Answer in json format only: {""latitude"": < e.g. ""14.832185"" >, ""longitude"": < e.g. ""4.212666"" >}. No explanation, just the answer!'}, {'role': 'user', 'content': 'What are the latitude and longitude of faridpur, Bangladesh?'}]","{""latitude"": ""23.6067"", ""longitude"": ""89.8389""}",23.6067,89.8389,0.9345662039807654
200104,bd,gazipur,132249,23.8,90.65,"[{'role': 'system', 'content': 'Answer in json format only: {""latitude"": < e.g. ""14.832185"" >, ""longitude"": < e.g. ""4.212666"" >}. No explanation, just the answer!'}, {'role': 'user', 'content': 'What are the latitude and longitude of gazipur, Bangladesh?'}]","{""latitude"": ""24.003333"", ""longitude"": ""90.425833""}",24.003333,90.425833,32.06602902843086
202157,bd,jamalpur,167914,24.9166667,89.9333333,"[{'role': 'system', 'content': 'Answer in json format only: {""latitude"": < e.g. ""14.832185"" >, ""longitude"": < e.g. ""4.212666"" >}. No explanation, just the answer!'}, {'role': 'user', 'content': 'What are the latitude and longitude of jamalpur, Bangladesh?'}]","{""latitude"": ""24.9167"", ""longitude"": ""89.6333""}",24.9167,89.6333,30.308775752524266
205021,bd,khulna,1342429,22.8,89.55,"[{'role': 'system', 'content': 'Answer in json format only: {""latitude"": < e.g. ""14.832185"" >, ""longitude"": < e.g. ""4.212666"" >}. No explanation, just the answer!'}, {'role': 'user', 'content': 'What are the latitude and longitude of khulna, Bangladesh?'}]","{""latitude"": ""22.8289"", ""longitude"": ""89.5691""}",22.8289,89.5691,3.7533523207864383
208581,bd,narayanganj,223773,23.6233333,90.5011111,"[{'role': 'system', 'content': 'Answer in json format only: {""latitude"": < e.g. ""14.832185"" >, ""longitude"": < e.g. ""4.212666"" >}. No explanation, just the answer!'}, {'role': 'user', 'content': 'What are the latitude and longitude of narayanganj, Bangladesh?'}]","{""latitude"": ""23.6167"", ""longitude"": ""90.5""}",23.6167,90.5,0.7433547312709298
208651,bd,narsingdi,281110,23.9208333,90.7180556,"[{'role': 'system', 'content': 'Answer in json format only: {""latitude"": < e.g. ""14.832185"" >, ""longitude"": < e.g. ""4.212666"" >}. No explanation, just the answer!'}, {'role': 'user', 'content': 'What are the latitude and longitude of narsingdi, Bangladesh?'}]","{""latitude"": ""23.916667"", ""longitude"": ""90.716667""}",23.916667,90.716667,0.48261995744696884
208758,bd,nawabganj,142373,24.6,88.2833333,"[{'role': 'system', 'content': 'Answer in json format only: {""latitude"": < e.g. ""14.832185"" >, ""longitude"": < e.g. ""4.212666"" >}. No explanation, just the answer!'}, {'role': 'user', 'content': 'What are the latitude and longitude of nawabganj, Bangladesh?'}]","{""latitude"": ""24.033333"", ""longitude"": ""89.233333""}",24.033333,89.233333,115.05376718013841
209466,bd,pabna,137904,24.0,89.25,"[{'role': 'system', 'content': 'Answer in json format only: {""latitude"": < e.g. ""14.832185"" >, ""longitude"": < e.g. ""4.212666"" >}. No explanation, just the answer!'}, {'role': 'user', 'content': 'What are the latitude and longitude of pabna, Bangladesh?'}]","{""latitude"": ""24.003333"", ""longitude"": ""89.25""}",24.003333,89.25,0.3691572244463511
211478,bd,rajshahi,700206,24.3666667,88.6,"[{'role': 'system', 'content': 'Answer in json format only: {""latitude"": < e.g. ""14.832185"" >, ""longitude"": < e.g. ""4.212666"" >}. No explanation, just the answer!'}, {'role': 'user', 'content': 'What are the latitude and longitude of rajshahi, Bangladesh?'}]","{""latitude"": ""24.363892"", ""longitude"": ""88.589079""}",24.363892,88.589079,1.1499038344298502
211735,bd,rangpur,285586,25.75,89.25,"[{'role': 'system', 'content': 'Answer in json format only: {""latitude"": < e.g. ""14.832185"" >, ""longitude"": < e.g. ""4.212666"" >}. No explanation, just the answer!'}, {'role': 'user', 'content': 'What are the latitude and longitude of rangpur, Bangladesh?'}]","{""latitude"": ""25.746667"", ""longitude"": ""89.244722""}",25.746667,89.244722,0.645566167539179
213021,bd,satkhira,128933,22.7166667,89.1,"[{'role': 'system', 'content': 'Answer in json format only: {""latitude"": < e.g. ""14.832185"" >, ""longitude"": < e.g. ""4.212666"" >}. No explanation, just the answer!'}, {'role': 'user', 'content': 'What are the latitude and longitude of satkhira, Bangladesh?'}]","{""latitude"": ""22.716667"", ""longitude"": ""89.066667""}",22.716667,89.066667,3.4244745703388957
213353,bd,sherpur,107431,25.0166667,90.0166667,"[{'role': 'system', 'content': 'Answer in json format only: {""latitude"": < e.g. ""14.832185"" >, ""longitude"": < e.g. ""4.212666"" >}. No explanation, just the answer!'}, {'role': 'user', 'content': 'What are the latitude and longitude of sherpur, Bangladesh?'}]","{""latitude"": ""25.016667"", ""longitude"": ""90.016667""}",25.016667,90.016667,4.495883917878203e-05
213705,bd,sirajganj,167501,24.45,89.7166667,"[{'role': 'system', 'content': 'Answer in json format only: {""latitude"": < e.g. ""14.832185"" >, ""longitude"": < e.g. ""4.212666"" >}. No explanation, just the answer!'}, {'role': 'user', 'content': 'What are the latitude and longitude of sirajganj, Bangladesh?'}]","{""latitude"": ""24.466667"", ""longitude"": ""89.716667""}",24.466667,89.716667,1.8461183519538957
215372,bd,tungi,337620,23.89,90.4058333,"[{'role': 'system', 'content': 'Answer in json format only: {""latitude"": < e.g. ""14.832185"" >, ""longitude"": < e.g. ""4.212666"" >}. No explanation, just the answer!'}, {'role': 'user', 'content': 'What are the latitude and longitude of tungi, Bangladesh?'}]","{""latitude"": ""23.533333"", ""longitude"": ""90.683333""}",23.533333,90.683333,48.59261629678327
216365,be,antwerp,459805,51.216667,4.4166669999999995,"[{'role': 'system', 'content': 'Answer in json format only: {""latitude"": < e.g. ""14.832185"" >, ""longitude"": < e.g. ""4.212666"" >}. No explanation, just the answer!'}, {'role': 'user', 'content': 'What are the latitude and longitude of antwerp, Belgium?'}]","{""latitude"": ""51.220655"", ""longitude"": ""4.402464""}",51.220655,4.402464,1.0869932690704533
218048,be,brugge,116709,51.216667,3.233333,"[{'role': 'system', 'content': 'Answer in json format only: {""latitude"": < e.g. ""14.832185"" >, ""longitude"": < e.g. ""4.212666"" >}. No explanation, just the answer!'}, {'role': 'user', 'content': 'What are the latitude and longitude of brugge, Belgium?'}]","{""latitude"": ""51.208891"", ""longitude"": ""3.224698""}",51.208891,3.224698,1.054733500366692
218097,be,brussels,1019022,50.833333,4.3333330000000005,"[{'role': 'system', 'content': 'Answer in json format only: {""latitude"": < e.g. ""14.832185"" >, ""longitude"": < e.g. ""4.212666"" >}. No explanation, just the answer!'}, {'role': 'user', 'content': 'What are the latitude and longitude of brussels, Belgium?'}]","{""latitude"": ""50.850345"", ""longitude"": ""4.351710""}",50.850345,4.35171,2.2928262807177004
218440,be,charleroi,200132,50.416667,4.433333,"[{'role': 'system', 'content': 'Answer in json format only: {""latitude"": < e.g. ""14.832185"" >, ""longitude"": < e.g. ""4.212666"" >}. No explanation, just the answer!'}, {'role': 'user', 'content': 'What are the latitude and longitude of charleroi, Belgium?'}]","{""latitude"": ""50.401531"", ""longitude"": ""4.444581""}",50.401531,4.444581,1.8638933315161037
220688,be,gent,231493,51.05,3.716667,"[{'role': 'system', 'content': 'Answer in json format only: {""latitude"": < e.g. ""14.832185"" >, ""longitude"": < e.g. ""4.212666"" >}. No explanation, just the answer!'}, {'role': 'user', 'content': 'What are the latitude and longitude of gent, Belgium?'}]","{""latitude"": ""51.05342"", ""longitude"": ""3.72762""}",51.05342,3.72762,0.8570964718023142
224980,be,liege,182597,50.633333,5.566667,"[{'role': 'system', 'content': 'Answer in json format only: {""latitude"": < e.g. ""14.832185"" >, ""longitude"": < e.g. ""4.212666"" >}. No explanation, just the answer!'}, {'role': 'user', 'content': 'What are the latitude and longitude of liege, Belgium?'}]","{""latitude"": ""50.6333"", ""longitude"": ""5.5667""}",50.6333,5.5667,0.00435051036622788
226408,be,namur,106284,50.466667,4.866667,"[{'role': 'system', 'content': 'Answer in json format only: {""latitude"": < e.g. ""14.832185"" >, ""longitude"": < e.g. ""4.212666"" >}. No explanation, just the answer!'}, {'role': 'user', 'content': 'What are the latitude and longitude of namur, Belgium?'}]","{""latitude"": ""50.466667"", ""longitude"": ""4.866667""}",50.466667,4.866667,0.0
233219,bf,bobo dioulasso,370809,11.2,-4.3,"[{'role': 'system', 'content': 'Answer in json format only: {""latitude"": < e.g. ""14.832185"" >, ""longitude"": < e.g. ""4.212666"" >}. No explanation, just the answer!'}, {'role': 'user', 'content': 'What are the latitude and longitude of bobo dioulasso, Burkina Faso?'}]","{""latitude"": ""11.183333"", ""longitude"": ""-4.283333""}",11.183333,-4.283333,2.5908547375612203
238758,bf,ouagadougou,1031330,12.3702778,-1.5247222,"[{'role': 'system', 'content': 'Answer in json format only: {""latitude"": < e.g. ""14.832185"" >, ""longitude"": < e.g. ""4.212666"" >}. No explanation, just the answer!'}, {'role': 'user', 'content': 'What are the latitude and longitude of ouagadougou, Burkina Faso?'}]","{""latitude"": ""12.374212"", ""longitude"": ""-1.538459""}",12.374212,-1.538459,1.5559965291277809
245134,bg,burgas,188554,42.5,27.4666667,"[{'role': 'system', 'content': 'Answer in json format only: {""latitude"": < e.g. ""14.832185"" >, ""longitude"": < e.g. ""4.212666"" >}. No explanation, just the answer!'}, {'role': 'user', 'content': 'What are the latitude and longitude of burgas, Bulgaria?'}]","{""latitude"": ""42.493333"", ""longitude"": ""27.466667""}",42.493333,27.466667,0.7405899407889827
256587,bg,pleven,132542,43.4166667,24.6166667,"[{'role': 'system', 'content': 'Answer in json format only: {""latitude"": < e.g. ""14.832185"" >, ""longitude"": < e.g. ""4.212666"" >}. No explanation, just the answer!'}, {'role': 'user', 'content': 'What are the latitude and longitude of pleven, Bulgaria?'}]","{""latitude"": ""43.416667"", ""longitude"": ""24.616667""}",43.416667,24.616667,4.124583047763243e-05
256601,bg,plovdiv,332088,42.15,24.75,"[{'role': 'system', 'content': 'Answer in json format only: {""latitude"": < e.g. ""14.832185"" >, ""longitude"": < e.g. ""4.212666"" >}. No explanation, just the answer!'}, {'role': 'user', 'content': 'What are the latitude and longitude of plovdiv, Bulgaria?'}]","{""latitude"": ""42.145278"", ""longitude"": ""24.746389""}",42.145278,24.746389,0.6034841740066871
257831,bg,ruse,157519,43.8563889,25.9708333,"[{'role': 'system', 'content': 'Answer in json format only: {""latitude"": < e.g. ""14.832185"" >, ""longitude"": < e.g. ""4.212666"" >}. No explanation, just the answer!'}, {'role': 'user', 'content': 'What are the latitude and longitude of ruse, Bulgaria?'}]","{""latitude"": ""43.8564"", ""longitude"": ""25.9718""}",43.8564,25.9718,0.07773188002749426
259122,bg,sofia,1062065,42.6833333,23.3166667,"[{'role': 'system', 'content': 'Answer in json format only: {""latitude"": < e.g. ""14.832185"" >, ""longitude"": < e.g. ""4.212666"" >}. No explanation, just the answer!'}, {'role': 'user', 'content': 'What are the latitude and longitude of sofia, Bulgaria?'}]","{""latitude"": ""42.6979"", ""longitude"": ""23.3225""}",42.6979,23.3225,1.6872992518922534
259464,bg,stara zagora,137760,42.4327778,25.6419444,"[{'role': 'system', 'content': 'Answer in json format only: {""latitude"": < e.g. ""14.832185"" >, ""longitude"": < e.g. ""4.212666"" >}. No explanation, just the answer!'}, {'role': 'user', 'content': 'What are the latitude and longitude of stara zagora, Bulgaria?'}]","{""latitude"": ""42.433333"", ""longitude"": ""25.633333""}",42.433333,25.633333,0.7112819132153341
261386,bg,varna,307952,43.216666700000005,27.9166667,"[{'role': 'system', 'content': 'Answer in json format only: {""latitude"": < e.g. ""14.832185"" >, ""longitude"": < e.g. ""4.212666"" >}. No explanation, just the answer!'}, {'role': 'user', 'content': 'What are the latitude and longitude of varna, Bulgaria?'}]","{""latitude"": ""43.2167"", ""longitude"": ""27.9167""}",43.2167,27.9167,0.004583406310743368
263132,bh,manama,147097,26.2361111,50.5830556,"[{'role': 'system', 'content': 'Answer in json format only: {""latitude"": < e.g. ""14.832185"" >, ""longitude"": < e.g. ""4.212666"" >}. No explanation, just the answer!'}, {'role': 'user', 'content': 'What are the latitude and longitude of manama, Bahrain?'}]","{""latitude"": ""26.2285"", ""longitude"": ""50.5863""}",26.2285,50.5863,0.9034136229197973
263354,bi,bujumbura,330539,-3.3761111000000006,29.36,"[{'role': 'system', 'content': 'Answer in json format only: {""latitude"": < e.g. ""14.832185"" >, ""longitude"": < e.g. ""4.212666"" >}. No explanation, just the answer!'}, {'role': 'user', 'content': 'What are the latitude and longitude of bujumbura, Burundi?'}]","{""latitude"": ""-3.382222"", ""longitude"": ""29.364444""}",-3.382222,29.364444,0.836959308609994
265311,bj,abomey-calavi,385823,6.45,2.35,"[{'role': 'system', 'content': 'Answer in json format only: {""latitude"": < e.g. ""14.832185"" >, ""longitude"": < e.g. ""4.212666"" >}. No explanation, just the answer!'}, {'role': 'user', 'content': 'What are the latitude and longitude of abomey-calavi, Benin?'}]","{""latitude"": ""6.441111"", ""longitude"": ""2.356111""}",6.441111,2.356111,1.1930235452760538
266100,bj,bohicon,125116,7.2,2.0666667000000003,"[{'role': 'system', 'content': 'Answer in json format only: {""latitude"": < e.g. ""14.832185"" >, ""longitude"": < e.g. ""4.212666"" >}. No explanation, just the answer!'}, {'role': 'user', 'content': 'What are the latitude and longitude of bohicon, Benin?'}]","{""latitude"": ""7.166667"", ""longitude"": ""2.066667""}",7.166667,2.066667,3.6863511218877947
266298,bj,cotonou,690584,6.35,2.4333332999999997,"[{'role': 'system', 'content': 'Answer in json format only: {""latitude"": < e.g. ""14.832185"" >, ""longitude"": < e.g. ""4.212666"" >}. No explanation, just the answer!'}, {'role': 'user', 'content': 'What are the latitude and longitude of cotonou, Benin?'}]","{""latitude"": ""6.368333"", ""longitude"": ""2.424722""}",6.368333,2.424722,2.240113567663465
266526,bj,djougou,202834,9.705,1.6669444,"[{'role': 'system', 'content': 'Answer in json format only: {""latitude"": < e.g. ""14.832185"" >, ""longitude"": < e.g. ""4.212666"" >}. No explanation, just the answer!'}, {'role': 'user', 'content': 'What are the latitude and longitude of djougou, Benin?'}]","{""latitude"": ""9.707222"", ""longitude"": ""1.670556""}",9.707222,1.670556,0.4663409204389719
267254,bj,kandi,109705,11.134166699999998,2.9386111,"[{'role': 'system', 'content': 'Answer in json format only: {""latitude"": < e.g. ""14.832185"" >, ""longitude"": < e.g. ""4.212666"" >}. No explanation, just the answer!'}, {'role': 'user', 'content': 'What are the latitude and longitude of kandi, Benin?'}]","{""latitude"": ""11.1333"", ""longitude"": ""2.9333""}",11.1333,2.9333,0.5880416334659867
268441,bj,parakou,163759,9.35,2.6166667,"[{'role': 'system', 'content': 'Answer in json format only: {""latitude"": < e.g. ""14.832185"" >, ""longitude"": < e.g. ""4.212666"" >}. No explanation, just the answer!'}, {'role': 'user', 'content': 'What are the latitude and longitude of parakou, Benin?'}]","{""latitude"": ""9.333333"", ""longitude"": ""2.616667""}",9.333333,2.616667,1.8434291644361125
272945,bo,cochabamba,900440,-17.3833333,-66.15,"[{'role': 'system', 'content': 'Answer in json format only: {""latitude"": < e.g. ""14.832185"" >, ""longitude"": < e.g. ""4.212666"" >}. No explanation, just the answer!'}, {'role': 'user', 'content': 'What are the latitude and longitude of cochabamba, Bolivia, Plurinational State of?'}]","{""latitude"": ""-17.393064"", ""longitude"": ""-66.157003""}",-17.393064,-66.157003,1.309032403559048
279504,bo,la paz,812819,-16.5,-68.15,"[{'role': 'system', 'content': 'Answer in json format only: {""latitude"": < e.g. ""14.832185"" >, ""longitude"": < e.g. ""4.212666"" >}. No explanation, just the answer!'}, {'role': 'user', 'content': 'What are the latitude and longitude of la paz, Bolivia, Plurinational State of?'}]","{""latitude"": ""-16.488888"", ""longitude"": ""-68.119721""}",-16.488888,-68.119721,3.458782468598453
281038,bo,oruro,208687,-17.9833333,-67.15,"[{'role': 'system', 'content': 'Answer in json format only: {""latitude"": < e.g. ""14.832185"" >, ""longitude"": < e.g. ""4.212666"" >}. No explanation, just the answer!'}, {'role': 'user', 'content': 'What are the latitude and longitude of oruro, Bolivia, Plurinational State of?'}]","{""latitude"": ""-17.958333"", ""longitude"": ""-67.133333""}",-17.958333,-67.133333,3.282247237696643
282003,bo,potosi,141254,-19.5836111,-65.7530556,"[{'role': 'system', 'content': 'Answer in json format only: {""latitude"": < e.g. ""14.832185"" >, ""longitude"": < e.g. ""4.212666"" >}. No explanation, just the answer!'}, {'role': 'user', 'content': 'What are the latitude and longitude of potosi, Bolivia, Plurinational State of?'}]","{""latitude"": ""-19.583333"", ""longitude"": ""-65.75""}",-19.583333,-65.75,0.32206700468093996
283929,bo,sucre,224846,-19.0430556,-65.25916670000001,"[{'role': 'system', 'content': 'Answer in json format only: {""latitude"": < e.g. ""14.832185"" >, ""longitude"": < e.g. ""4.212666"" >}. No explanation, just the answer!'}, {'role': 'user', 'content': 'What are the latitude and longitude of sucre, Bolivia, Plurinational State of?'}]","{""latitude"": ""-19.036413"", ""longitude"": ""-65.259043""}",-19.036413,-65.259043,0.7354015966800035
284361,bo,tarija,159275,-21.5166667,-64.75,"[{'role': 'system', 'content': 'Answer in json format only: {""latitude"": < e.g. ""14.832185"" >, ""longitude"": < e.g. ""4.212666"" >}. No explanation, just the answer!'}, {'role': 'user', 'content': 'What are the latitude and longitude of tarija, Bolivia, Plurinational State of?'}]","{""latitude"": ""-21.533333"", ""longitude"": ""-64.733333""}",-21.533333,-64.733333,2.5272488610166786
286495,br,alagoinhas,122692,-12.116667,-38.433333000000005,"[{'role': 'system', 'content': 'Answer in json format only: {""latitude"": < e.g. ""14.832185"" >, ""longitude"": < e.g. ""4.212666"" >}. No explanation, just the answer!'}, {'role': 'user', 'content': 'What are the latitude and longitude of alagoinhas, Brazil?'}]","{""latitude"": ""-12.133333"", ""longitude"": ""-38.416667""}",-12.133333,-38.416667,2.5865242782699633
287137,br,americana,196026,-22.740278,-47.334444,"[{'role': 'system', 'content': 'Answer in json format only: {""latitude"": < e.g. ""14.832185"" >, ""longitude"": < e.g. ""4.212666"" >}. No explanation, just the answer!'}, {'role': 'user', 'content': 'What are the latitude and longitude of americana, Brazil?'}]","{""latitude"": ""-22.739167"", ""longitude"": ""-47.331111""}",-22.739167,-47.331111,0.3637950960791425
287217,br,ananindeua,433956,-1.366667,-48.383333,"[{'role': 'system', 'content': 'Answer in json format only: {""latitude"": < e.g. ""14.832185"" >, ""longitude"": < e.g. ""4.212666"" >}. No explanation, just the answer!'}, {'role': 'user', 'content': 'What are the latitude and longitude of ananindeua, Brazil?'}]","{""latitude"": ""-1.366667"", ""longitude"": ""-48.383333""}",-1.366667,-48.383333,0.0
287221,br,anapolis,319592,-16.333333,-48.966667,"[{'role': 'system', 'content': 'Answer in json format only: {""latitude"": < e.g. ""14.832185"" >, ""longitude"": < e.g. ""4.212666"" >}. No explanation, just the answer!'}, {'role': 'user', 'content': 'What are the latitude and longitude of anapolis, Brazil?'}]","{""latitude"": ""-16.328056"", ""longitude"": ""-49.063611""}",-16.328056,-49.063611,10.375549326798248
287350,br,angra dos reis,153637,-23.0,-44.3,"[{'role': 'system', 'content': 'Answer in json format only: {""latitude"": < e.g. ""14.832185"" >, ""longitude"": < e.g. ""4.212666"" >}. No explanation, just the answer!'}, {'role': 'user', 'content': 'What are the latitude and longitude of angra dos reis, Brazil?'}]","{""latitude"": ""-23.005833"", ""longitude"": ""-44.317222""}",-23.005833,-44.317222,1.8800635435105373
287602,br,apucarana,107086,-23.55,-51.483333,"[{'role': 'system', 'content': 'Answer in json format only: {""latitude"": < e.g. ""14.832185"" >, ""longitude"": < e.g. ""4.212666"" >}. No explanation, just the answer!'}, {'role': 'user', 'content': 'What are the latitude and longitude of apucarana, Brazil?'}]","{""latitude"": ""-23.550833"", ""longitude"": ""-51.461389""}",-23.550833,-51.461389,2.2424278424778783
287654,br,aracaju,490184,-10.916667,-37.066666999999995,"[{'role': 'system', 'content': 'Answer in json format only: {""latitude"": < e.g. ""14.832185"" >, ""longitude"": < e.g. ""4.212666"" >}. No explanation, just the answer!'}, {'role': 'user', 'content': 'What are the latitude and longitude of aracaju, Brazil?'}]","{""latitude"": ""-10.9489"", ""longitude"": ""-37.0792""}",-10.9489,-37.0792,3.819582141647055
287674,br,aracatuba,170028,-21.2,-50.416667,"[{'role': 'system', 'content': 'Answer in json format only: {""latitude"": < e.g. ""14.832185"" >, ""longitude"": < e.g. ""4.212666"" >}. No explanation, just the answer!'}, {'role': 'user', 'content': 'What are the latitude and longitude of aracatuba, Brazil?'}]","{""latitude"": ""-21.208333"", ""longitude"": ""-50.436389""}",-21.208333,-50.436389,2.245958140718698
287705,br,araguaina,114959,-7.16,-48.0575,"[{'role': 'system', 'content': 'Answer in json format only: {""latitude"": < e.g. ""14.832185"" >, ""longitude"": < e.g. ""4.212666"" >}. No explanation, just the answer!'}, {'role': 'user', 'content': 'What are the latitude and longitude of araguaina, Brazil?'}]","{""latitude"": ""7.193056"", ""longitude"": ""48.208056""}",7.193056,48.208056,10804.133666627908
287748,br,arapiraca,166566,-9.75,-36.65,"[{'role': 'system', 'content': 'Answer in json format only: {""latitude"": < e.g. ""14.832185"" >, ""longitude"": < e.g. ""4.212666"" >}. No explanation, just the answer!'}, {'role': 'user', 'content': 'What are the latitude and longitude of arapiraca, Brazil?'}]","{""latitude"": ""-9.75"", ""longitude"": ""-36.6667""}",-9.75,-36.6667,1.8323596027900824
287785,br,araraquara,185191,-21.783333,-48.166667,"[{'role': 'system', 'content': 'Answer in json format only: {""latitude"": < e.g. ""14.832185"" >, ""longitude"": < e.g. ""4.212666"" >}. No explanation, just the answer!'}, {'role': 'user', 'content': 'What are the latitude and longitude of araraquara, Brazil?'}]","{""latitude"": ""-21.793056"", ""longitude"": ""-48.176389""}",-21.793056,-48.176389,1.4730579580006964
287796,br,araras,107465,-22.366667,-47.383333,"[{'role': 'system', 'content': 'Answer in json format only: {""latitude"": < e.g. ""14.832185"" >, ""longitude"": < e.g. ""4.212666"" >}. No explanation, just the answer!'}, {'role': 'user', 'content': 'What are the latitude and longitude of araras, Brazil?'}]","{""latitude"": ""-22.356389"", ""longitude"": ""-47.382778""}",-22.356389,-47.382778,1.1395708724996934
287808,br,araruama,109638,-22.883333,-42.333333,"[{'role': 'system', 'content': 'Answer in json format only: {""latitude"": < e.g. ""14.832185"" >, ""longitude"": < e.g. ""4.212666"" >}. No explanation, just the answer!'}, {'role': 'user', 'content': 'What are the latitude and longitude of araruama, Brazil?'}]","{""latitude"": ""-22.879722"", ""longitude"": ""-42.343611""}",-22.879722,-42.343611,1.1279124343318074
287843,br,araucaria,111303,-25.583333,-49.416667,"[{'role': 'system', 'content': 'Answer in json format only: {""latitude"": < e.g. ""14.832185"" >, ""longitude"": < e.g. ""4.212666"" >}. No explanation, just the answer!'}, {'role': 'user', 'content': 'What are the latitude and longitude of araucaria, Brazil?'}]","{""latitude"": ""-25.594167"", ""longitude"": ""-49.412778""}",-25.594167,-49.412778,1.2622010148840699
288237,br,atibaia,110970,-23.124167,-46.562222,"[{'role': 'system', 'content': 'Answer in json format only: {""latitude"": < e.g. ""14.832185"" >, ""longitude"": < e.g. ""4.212666"" >}. No explanation, just the answer!'}, {'role': 'user', 'content': 'What are the latitude and longitude of atibaia, Brazil?'}]","{""latitude"": ""-23.116667"", ""longitude"": ""-46.55""}",-23.116667,-46.55,1.5023908895345905
289373,br,barbacena,122213,-21.233333,-43.766667,"[{'role': 'system', 'content': 'Answer in json format only: {""latitude"": < e.g. ""14.832185"" >, ""longitude"": < e.g. ""4.212666"" >}. No explanation, just the answer!'}, {'role': 'user', 'content': 'What are the latitude and longitude of barbacena, Brazil?'}]","{""latitude"": ""-21.233333"", ""longitude"": ""-43.766667""}",-21.233333,-43.766667,0.0
289774,br,barra mansa,164054,-22.533333,-44.183333000000005,"[{'role': 'system', 'content': 'Answer in json format only: {""latitude"": < e.g. ""14.832185"" >, ""longitude"": < e.g. ""4.212666"" >}. No explanation, just the answer!'}, {'role': 'user', 'content': 'What are the latitude and longitude of barra mansa, Brazil?'}]","{""latitude"": ""-22.545833"", ""longitude"": ""-44.173611""}",-22.545833,-44.173611,1.7076916636223018
289858,br,barreiras,158296,-12.133333,-45.0,"[{'role': 'system', 'content': 'Answer in json format only: {""latitude"": < e.g. ""14.832185"" >, ""longitude"": < e.g. ""4.212666"" >}. No explanation, just the answer!'}, {'role': 'user', 'content': 'What are the latitude and longitude of barreiras, Brazil?'}]","{""latitude"": ""-12.152222"", ""longitude"": ""-44.904167""}",-12.152222,-44.904167,10.638179115872617
289947,br,barretos,101222,-20.55,-48.55,"[{'role': 'system', 'content': 'Answer in json format only: {""latitude"": < e.g. ""14.832185"" >, ""longitude"": < e.g. ""4.212666"" >}. No explanation, just the answer!'}, {'role': 'user', 'content': 'What are the latitude and longitude of barretos, Brazil?'}]","{""latitude"": ""-20.573056"", ""longitude"": ""-48.565833""}",-20.573056,-48.565833,3.039920493060094
290085,br,barueri,251999,-23.516667,-46.883333,"[{'role': 'system', 'content': 'Answer in json format only: {""latitude"": < e.g. ""14.832185"" >, ""longitude"": < e.g. ""4.212666"" >}. No explanation, just the answer!'}, {'role': 'user', 'content': 'What are the latitude and longitude of barueri, Brazil?'}]","{""latitude"": ""-23.512778"", ""longitude"": ""-46.876667""}",-23.512778,-46.876667,0.8056031163012626
290170,br,bauru,335031,-22.316667,-49.066666999999995,"[{'role': 'system', 'content': 'Answer in json format only: {""latitude"": < e.g. ""14.832185"" >, ""longitude"": < e.g. ""4.212666"" >}. No explanation, just the answer!'}, {'role': 'user', 'content': 'What are the latitude and longitude of bauru, Brazil?'}]","{""latitude"": ""-22.316667"", ""longitude"": ""-49.066667""}",-22.316667,-49.066667,7.320815693962308e-13
290296,br,belem,1407737,-1.45,-48.483333,"[{'role': 'system', 'content': 'Answer in json format only: {""latitude"": < e.g. ""14.832185"" >, ""longitude"": < e.g. ""4.212666"" >}. No explanation, just the answer!'}, {'role': 'user', 'content': 'What are the latitude and longitude of belem, Brazil?'}]","{""latitude"": ""1.455833"", ""longitude"": ""48.503333""}",1.455833,48.503333,10800.078137271401
290328,br,belford roxo,466101,-22.761995,-43.404654,"[{'role': 'system', 'content': 'Answer in json format only: {""latitude"": < e.g. ""14.832185"" >, ""longitude"": < e.g. ""4.212666"" >}. No explanation, just the answer!'}, {'role': 'user', 'content': 'What are the latitude and longitude of belford roxo, Brazil?'}]","{""latitude"": ""-22.763333"", ""longitude"": ""-43.395556""}",-22.763333,-43.395556,0.9460481852802503
290377,br,belo horizonte,2373255,-19.916667,-43.933333000000005,"[{'role': 'system', 'content': 'Answer in json format only: {""latitude"": < e.g. ""14.832185"" >, ""longitude"": < e.g. ""4.212666"" >}. No explanation, just the answer!'}, {'role': 'user', 'content': 'What are the latitude and longitude of belo horizonte, Brazil?'}]","{""latitude"": ""-19.922733"", ""longitude"": ""-43.945556""}",-19.922733,-43.945556,1.445234959866519
290530,br,betim,384038,-19.966667,-44.216667,"[{'role': 'system', 'content': 'Answer in json format only: {""latitude"": < e.g. ""14.832185"" >, ""longitude"": < e.g. ""4.212666"" >}. No explanation, just the answer!'}, {'role': 'user', 'content': 'What are the latitude and longitude of betim, Brazil?'}]","{""latitude"": ""-19.966111"", ""longitude"": ""-44.2""}",-19.966111,-44.2,1.7456083932715942
290583,br,birigui,102279,-21.3,-50.316666999999995,"[{'role': 'system', 'content': 'Answer in json format only: {""latitude"": < e.g. ""14.832185"" >, ""longitude"": < e.g. ""4.212666"" >}. No explanation, just the answer!'}, {'role': 'user', 'content': 'What are the latitude and longitude of birigui, Brazil?'}]","{""latitude"": ""-21.2742"", ""longitude"": ""-50.3439""}",-21.2742,-50.3439,4.01824367054969
290615,br,blumenau,293955,-26.9222,-49.0615,"[{'role': 'system', 'content': 'Answer in json format only: {""latitude"": < e.g. ""14.832185"" >, ""longitude"": < e.g. ""4.212666"" >}. No explanation, just the answer!'}, {'role': 'user', 'content': 'What are the latitude and longitude of blumenau, Brazil?'}]","{""latitude"": ""-26.918611"", ""longitude"": ""-49.656111""}",-26.918611,-49.656111,59.06082927087568
290752,br,boa vista,235159,2.816667,-60.666667,"[{'role': 'system', 'content': 'Answer in json format only: {""latitude"": < e.g. ""14.832185"" >, ""longitude"": < e.g. ""4.212666"" >}. No explanation, just the answer!'}, {'role': 'user', 'content': 'What are the latitude and longitude of boa vista, Brazil?'}]","{""latitude"": ""2.820833"", ""longitude"": ""60.673611""}",2.820833,60.673611,13480.169038756374
291339,br,botucatu,113865,-22.866667,-48.433333000000005,"[{'role': 'system', 'content': 'Answer in json format only: {""latitude"": < e.g. ""14.832185"" >, ""longitude"": < e.g. ""4.212666"" >}. No explanation, just the answer!'}, {'role': 'user', 'content': 'What are the latitude and longitude of botucatu, Brazil?'}]","{""latitude"": ""-22.883333"", ""longitude"": ""-48.433333""}",-22.883333,-48.433333,1.8456306016831385
291377,br,braganca paulista,125099,-22.95,-46.566666999999995,"[{'role': 'system', 'content': 'Answer in json format only: {""latitude"": < e.g. ""14.832185"" >, ""longitude"": < e.g. ""4.212666"" >}. No explanation, just the answer!'}, {'role': 'user', 'content': 'What are the latitude and longitude of braganca paulista, Brazil?'}]","{""latitude"": ""-22.957222"", ""longitude"": ""-46.545556""}",-22.957222,-46.545556,2.3080913621896926
291406,br,brasilia,2207812,-15.783333,-47.916667,"[{'role': 'system', 'content': 'Answer in json format only: {""latitude"": < e.g. ""14.832185"" >, ""longitude"": < e.g. ""4.212666"" >}. No explanation, just the answer!'}, {'role': 'user', 'content': 'What are the latitude and longitude of brasilia, Brazil?'}]","{""latitude"": ""-15.794229"", ""longitude"": ""-47.882186""}",-15.794229,-47.882186,3.886272128975007
291934,br,cabo frio,108241,-22.883333,-42.016667,"[{'role': 'system', 'content': 'Answer in json format only: {""latitude"": < e.g. ""14.832185"" >, ""longitude"": < e.g. ""4.212666"" >}. No explanation, just the answer!'}, {'role': 'user', 'content': 'What are the latitude and longitude of cabo frio, Brazil?'}]","{""latitude"": ""-22.879444"", ""longitude"": ""-42.012778""}",-22.879444,-42.012778,0.5871368738392112
292114,br,cachoeirinha,121086,-29.95,-51.083333,"[{'role': 'system', 'content': 'Answer in json format only: {""latitude"": < e.g. ""14.832185"" >, ""longitude"": < e.g. ""4.212666"" >}. No explanation, just the answer!'}, {'role': 'user', 'content': 'What are the latitude and longitude of cachoeirinha, Brazil?'}]","{""latitude"": ""-7.075833"", ""longitude"": ""-35.675833""}",-7.075833,-35.675833,3001.637939002432
292124,br,cachoeiro de itapemirim,187023,-20.85,-41.1,"[{'role': 'system', 'content': 'Answer in json format only: {""latitude"": < e.g. ""14.832185"" >, ""longitude"": < e.g. ""4.212666"" >}. No explanation, just the answer!'}, {'role': 'user', 'content': 'What are the latitude and longitude of cachoeiro de itapemirim, Brazil?'}]","{""latitude"": ""-20.845833"", ""longitude"": ""-41.112778""}",-20.845833,-41.112778,1.4076258999193962
292593,br,camacari,188763,-12.483333,-38.216667,"[{'role': 'system', 'content': 'Answer in json format only: {""latitude"": < e.g. ""14.832185"" >, ""longitude"": < e.g. ""4.212666"" >}. No explanation, just the answer!'}, {'role': 'user', 'content': 'What are the latitude and longitude of camacari, Brazil?'}]","{""latitude"": ""-12.702778"", ""longitude"": ""-38.323611""}",-12.702778,-38.323611,26.91440055235783
292623,br,camaragibe,148966,-8.016667,-34.966667,"[{'role': 'system', 'content': 'Answer in json format only: {""latitude"": < e.g. ""14.832185"" >, ""longitude"": < e.g. ""4.212666"" >}. No explanation, just the answer!'}, {'role': 'user', 'content': 'What are the latitude and longitude of camaragibe, Brazil?'}]","{""latitude"": ""-8.017222"", ""longitude"": ""-34.9775""}",-8.017222,-34.9775,1.1957925322622645
292800,br,campina grande,348943,-7.216667,-35.883333,"[{'role': 'system', 'content': 'Answer in json format only: {""latitude"": < e.g. ""14.832185"" >, ""longitude"": < e.g. ""4.212666"" >}. No explanation, just the answer!'}, {'role': 'user', 'content': 'What are the latitude and longitude of campina grande, Brazil?'}]","{""latitude"": ""-7.230833"", ""longitude"": ""-35.8825""}",-7.230833,-35.8825,1.5693427997512597
292817,br,campinas,1031573,-22.9,-47.083333,"[{'role': 'system', 'content': 'Answer in json format only: {""latitude"": < e.g. ""14.832185"" >, ""longitude"": < e.g. ""4.212666"" >}. No explanation, just the answer!'}, {'role': 'user', 'content': 'What are the latitude and longitude of campinas, Brazil?'}]","{""latitude"": ""-22.905833"", ""longitude"": ""-47.060556""}",-22.905833,-47.060556,2.4244599329765086
292945,br,campo grande,729164,-20.45,-54.61666700000001,"[{'role': 'system', 'content': 'Answer in json format only: {""latitude"": < e.g. ""14.832185"" >, ""longitude"": < e.g. ""4.212666"" >}. No explanation, just the answer!'}, {'role': 'user', 'content': 'What are the latitude and longitude of campo grande, Brazil?'}]","{""latitude"": ""-20.442778"", ""longitude"": ""-54.647222""}",-20.442778,-54.647222,3.287104074434523
293013,br,campos,387422,-21.75,-41.3,"[{'role': 'system', 'content': 'Answer in json format only: {""latitude"": < e.g. ""14.832185"" >, ""longitude"": < e.g. ""4.212666"" >}. No explanation, just the answer!'}, {'role': 'user', 'content': 'What are the latitude and longitude of campos, Brazil?'}]","{""latitude"": ""-21.75"", ""longitude"": ""-41.3167""}",-21.75,-41.3167,1.7274840822974533
293304,br,canoas,328297,-29.933333,-51.183333000000005,"[{'role': 'system', 'content': 'Answer in json format only: {""latitude"": < e.g. ""14.832185"" >, ""longitude"": < e.g. ""4.212666"" >}. No explanation, just the answer!'}, {'role': 'user', 'content': 'What are the latitude and longitude of canoas, Brazil?'}]","{""latitude"": ""-29.913611"", ""longitude"": ""-51.183333""}",-29.913611,-51.183333,2.186206454617251
293813,br,carapicuiba,361120,-23.516667,-46.833333,"[{'role': 'system', 'content': 'Answer in json format only: {""latitude"": < e.g. ""14.832185"" >, ""longitude"": < e.g. ""4.212666"" >}. No explanation, just the answer!'}, {'role': 'user', 'content': 'What are the latitude and longitude of carapicuiba, Brazil?'}]","{""latitude"": ""-23.521944"", ""longitude"": ""-46.837222""}",-23.521944,-46.837222,0.7066165101049937
293874,br,cariacica,330681,-20.266667,-40.416667,"[{'role': 'system', 'content': 'Answer in json format only: {""latitude"": < e.g. ""14.832185"" >, ""longitude"": < e.g. ""4.212666"" >}. No explanation, just the answer!'}, {'role': 'user', 'content': 'What are the latitude and longitude of cariacica, Brazil?'}]","{""latitude"": ""-20.283333"", ""longitude"": ""-40.466667""}",-20.283333,-40.466667,5.53950611310739
294094,br,caruaru,235375,-8.283333,-35.966667,"[{'role': 'system', 'content': 'Answer in json format only: {""latitude"": < e.g. ""14.832185"" >, ""longitude"": < e.g. ""4.212666"" >}. No explanation, just the answer!'}, {'role': 'user', 'content': 'What are the latitude and longitude of caruaru, Brazil?'}]","{""latitude"": ""-8.283333"", ""longitude"": ""-35.966667""}",-8.283333,-35.966667,0.0
294164,br,cascavel,257174,-24.95,-53.466667,"[{'role': 'system', 'content': 'Answer in json format only: {""latitude"": < e.g. ""14.832185"" >, ""longitude"": < e.g. ""4.212666"" >}. No explanation, just the answer!'}, {'role': 'user', 'content': 'What are the latitude and longitude of cascavel, Brazil?'}]","{""latitude"": ""-24.958056"", ""longitude"": ""-53.455556""}",-24.958056,-53.455556,1.433663983337936
294217,br,castanhal,137410,-1.3,-47.916667,"[{'role': 'system', 'content': 'Answer in json format only: {""latitude"": < e.g. ""14.832185"" >, ""longitude"": < e.g. ""4.212666"" >}. No explanation, just the answer!'}, {'role': 'user', 'content': 'What are the latitude and longitude of castanhal, Brazil?'}]","{""latitude"": ""1.296111"", ""longitude"": ""47.9225""}",1.296111,47.9225,10671.676662442362
294279,br,catanduva,109615,-21.133333,-48.966667,"[{'role': 'system', 'content': 'Answer in json format only: {""latitude"": < e.g. ""14.832185"" >, ""longitude"": < e.g. ""4.212666"" >}. No explanation, just the answer!'}, {'role': 'user', 'content': 'What are the latitude and longitude of catanduva, Brazil?'}]","{""latitude"": ""-21.133333"", ""longitude"": ""-48.966667""}",-21.133333,-48.966667,0.0
294394,br,caucaia,275023,-3.7,-38.65,"[{'role': 'system', 'content': 'Answer in json format only: {""latitude"": < e.g. ""14.832185"" >, ""longitude"": < e.g. ""4.212666"" >}. No explanation, just the answer!'}, {'role': 'user', 'content': 'What are the latitude and longitude of caucaia, Brazil?'}]","{""latitude"": ""-3.735833"", ""longitude"": ""-38.653611""}",-3.735833,-38.653611,3.9826281500293033
294448,br,caxias,117393,-4.8333330000000005,-43.35,"[{'role': 'system', 'content': 'Answer in json format only: {""latitude"": < e.g. ""14.832185"" >, ""longitude"": < e.g. ""4.212666"" >}. No explanation, just the answer!'}, {'role': 'user', 'content': 'What are the latitude and longitude of caxias, Brazil?'}]","{""latitude"": ""-3.216111"", ""longitude"": ""-44.875""}",-3.216111,-44.875,246.286797243935
294452,br,caxias do sul,381277,-29.1689,-51.1785,"[{'role': 'system', 'content': 'Answer in json format only: {""latitude"": < e.g. ""14.832185"" >, ""longitude"": < e.g. ""4.212666"" >}. No explanation, just the answer!'}, {'role': 'user', 'content': 'What are the latitude and longitude of caxias do sul, Brazil?'}]","{""latitude"": ""-29.168611"", ""longitude"": ""-51.179167""}",-29.168611,-51.179167,0.07236195043718466
294733,br,chapeco,160160,-27.083333000000003,-52.983332999999995,"[{'role': 'system', 'content': 'Answer in json format only: {""latitude"": < e.g. ""14.832185"" >, ""longitude"": < e.g. ""4.212666"" >}. No explanation, just the answer!'}, {'role': 'user', 'content': 'What are the latitude and longitude of chapeco, Brazil?'}]","{""latitude"": ""-27.094722"", ""longitude"": ""-52.616389""}",-27.094722,-52.616389,36.41412162534153
295132,br,colatina,101193,-19.533333,-40.616667,"[{'role': 'system', 'content': 'Answer in json format only: {""latitude"": < e.g. ""14.832185"" >, ""longitude"": < e.g. ""4.212666"" >}. No explanation, just the answer!'}, {'role': 'user', 'content': 'What are the latitude and longitude of colatina, Brazil?'}]","{""latitude"": ""-19.539722"", ""longitude"": ""-40.625278""}",-19.539722,-40.625278,1.1475731175783501
295256,br,colombo,217002,-25.283333,-49.233333,"[{'role': 'system', 'content': 'Answer in json format only: {""latitude"": < e.g. ""14.832185"" >, ""longitude"": < e.g. ""4.212666"" >}. No explanation, just the answer!'}, {'role': 'user', 'content': 'What are the latitude and longitude of colombo, Brazil?'}]","{""latitude"": ""-25.2887"", ""longitude"": ""-49.2242""}",-25.2887,-49.2242,1.0952482827237264
295658,br,conselheiro lafaiete,111598,-20.666667,-43.8,"[{'role': 'system', 'content': 'Answer in json format only: {""latitude"": < e.g. ""14.832185"" >, ""longitude"": < e.g. ""4.212666"" >}. No explanation, just the answer!'}, {'role': 'user', 'content': 'What are the latitude and longitude of conselheiro lafaiete, Brazil?'}]","{""latitude"": ""-20.063056"", ""longitude"": ""-44.448889""}",-20.063056,-44.448889,95.15838765602123
295690,br,contagem,627132,-19.916667,-44.1,"[{'role': 'system', 'content': 'Answer in json format only: {""latitude"": < e.g. ""14.832185"" >, ""longitude"": < e.g. ""4.212666"" >}. No explanation, just the answer!'}, {'role': 'user', 'content': 'What are the latitude and longitude of contagem, Brazil?'}]","{""latitude"": ""-19.928611"", ""longitude"": ""-44.0775""}",-19.928611,-44.0775,2.70142148896715
295838,br,coronel fabriciano,100918,-19.516667,-42.633333,"[{'role': 'system', 'content': 'Answer in json format only: {""latitude"": < e.g. ""14.832185"" >, ""longitude"": < e.g. ""4.212666"" >}. No explanation, just the answer!'}, {'role': 'user', 'content': 'What are the latitude and longitude of coronel fabriciano, Brazil?'}]","{""latitude"": ""-19.523056"", ""longitude"": ""-42.628611""}",-19.523056,-42.628611,0.8636253468426133
296040,br,cotia,174832,-23.616667,-46.933333000000005,"[{'role': 'system', 'content': 'Answer in json format only: {""latitude"": < e.g. ""14.832185"" >, ""longitude"": < e.g. ""4.212666"" >}. No explanation, just the answer!'}, {'role': 'user', 'content': 'What are the latitude and longitude of cotia, Brazil?'}]","{""latitude"": ""-23.602778"", ""longitude"": ""-46.915278""}",-23.602778,-46.915278,2.400304718034199
296122,br,criciuma,161957,-28.666666999999997,-49.383333,"[{'role': 'system', 'content': 'Answer in json format only: {""latitude"": < e.g. ""14.832185"" >, ""longitude"": < e.g. ""4.212666"" >}. No explanation, just the answer!'}, {'role': 'user', 'content': 'What are the latitude and longitude of criciuma, Brazil?'}]","{""latitude"": ""-28.6803"", ""longitude"": ""-49.3728""}",-28.6803,-49.3728,1.8283626603353398
296288,br,cubatao,118412,-23.883333,-46.416667,"[{'role': 'system', 'content': 'Answer in json format only: {""latitude"": < e.g. ""14.832185"" >, ""longitude"": < e.g. ""4.212666"" >}. No explanation, just the answer!'}, {'role': 'user', 'content': 'What are the latitude and longitude of cubatao, Brazil?'}]","{""latitude"": ""-23.897222"", ""longitude"": ""-46.424722""}",-23.897222,-46.424722,1.7433479830465648
296299,br,cuiaba,521961,-15.583332999999998,-56.083333,"[{'role': 'system', 'content': 'Answer in json format only: {""latitude"": < e.g. ""14.832185"" >, ""longitude"": < e.g. ""4.212666"" >}. No explanation, just the answer!'}, {'role': 'user', 'content': 'What are the latitude and longitude of cuiaba, Brazil?'}]","{""latitude"": ""-15.5961"", ""longitude"": ""-56.0972""}",-15.5961,-56.0972,2.051260201915878
296424,br,curitiba,1718433,-25.416667,-49.25,"[{'role': 'system', 'content': 'Answer in json format only: {""latitude"": < e.g. ""14.832185"" >, ""longitude"": < e.g. ""4.212666"" >}. No explanation, just the answer!'}, {'role': 'user', 'content': 'What are the latitude and longitude of curitiba, Brazil?'}]","{""latitude"": ""-25.428149"", ""longitude"": ""-49.273389""}",-25.428149,-49.273389,2.6747784227367135
296749,br,diadema,390641,-23.7,-46.616667,"[{'role': 'system', 'content': 'Answer in json format only: {""latitude"": < e.g. ""14.832185"" >, ""longitude"": < e.g. ""4.212666"" >}. No explanation, just the answer!'}, {'role': 'user', 'content': 'What are the latitude and longitude of diadema, Brazil?'}]","{""latitude"": ""-23.686389"", ""longitude"": ""-46.645""}",-23.686389,-46.645,3.2592921584174737
296806,br,divinopolis,193835,-20.15,-44.9,"[{'role': 'system', 'content': 'Answer in json format only: {""latitude"": < e.g. ""14.832185"" >, ""longitude"": < e.g. ""4.212666"" >}. No explanation, just the answer!'}, {'role': 'user', 'content': 'What are the latitude and longitude of divinopolis, Brazil?'}]","{""latitude"": ""-20.143056"", ""longitude"": ""-44.883333""}",-20.143056,-44.883333,1.904570558664489
296959,br,dourados,162206,-22.216667,-54.8,"[{'role': 'system', 'content': 'Answer in json format only: {""latitude"": < e.g. ""14.832185"" >, ""longitude"": < e.g. ""4.212666"" >}. No explanation, just the answer!'}, {'role': 'user', 'content': 'What are the latitude and longitude of dourados, Brazil?'}]","{""latitude"": ""-22.223333"", ""longitude"": ""-54.807222""}",-22.223333,-54.807222,1.0484734801340798
297018,br,duque de caxias,818339,-22.790321,-43.325009,"[{'role': 'system', 'content': 'Answer in json format only: {""latitude"": < e.g. ""14.832185"" >, ""longitude"": < e.g. ""4.212666"" >}. No explanation, just the answer!'}, {'role': 'user', 'content': 'What are the latitude and longitude of duque de caxias, Brazil?'}]","{""latitude"": ""-22.785833"", ""longitude"": ""-43.3125""}",-22.785833,-43.3125,1.3772511511240089
297108,br,embu,221737,-23.65,-46.85,"[{'role': 'system', 'content': 'Answer in json format only: {""latitude"": < e.g. ""14.832185"" >, ""longitude"": < e.g. ""4.212666"" >}. No explanation, just the answer!'}, {'role': 'user', 'content': 'What are the latitude and longitude of embu, Brazil?'}]","{""latitude"": ""-23.648611"", ""longitude"": ""-46.452778""}",-23.648611,-46.452778,40.527095367236704
297401,br,esmeraldas,103252,-19.75,-44.316666999999995,"[{'role': 'system', 'content': 'Answer in json format only: {""latitude"": < e.g. ""14.832185"" >, ""longitude"": < e.g. ""4.212666"" >}. No explanation, just the answer!'}, {'role': 'user', 'content': 'What are the latitude and longitude of esmeraldas, Brazil?'}]","{""latitude"": ""-19.766111"", ""longitude"": ""-43.821111""}",-19.766111,-43.821111,51.96785762475847
299013,br,feira de santana,481926,-12.25,-38.95,"[{'role': 'system', 'content': 'Answer in json format only: {""latitude"": < e.g. ""14.832185"" >, ""longitude"": < e.g. ""4.212666"" >}. No explanation, just the answer!'}, {'role': 'user', 'content': 'What are the latitude and longitude of feira de santana, Brazil?'}]","{""latitude"": ""-12.266111"", ""longitude"": ""-38.966111""}",-12.266111,-38.966111,2.4997888519359064
299106,br,ferraz de vasconcelos,167904,-23.533333,-46.366667,"[{'role': 'system', 'content': 'Answer in json format only: {""latitude"": < e.g. ""14.832185"" >, ""longitude"": < e.g. ""4.212666"" >}. No explanation, just the answer!'}, {'role': 'user', 'content': 'What are the latitude and longitude of ferraz de vasconcelos, Brazil?'}]","{""latitude"": ""-23.542778"", ""longitude"": ""-46.368611""}",-23.542778,-46.368611,1.0647170703660414
299308,br,florianopolis,412731,-27.583333000000003,-48.566666999999995,"[{'role': 'system', 'content': 'Answer in json format only: {""latitude"": < e.g. ""14.832185"" >, ""longitude"": < e.g. ""4.212666"" >}. No explanation, just the answer!'}, {'role': 'user', 'content': 'What are the latitude and longitude of florianopolis, Brazil?'}]","{""latitude"": ""-27.59479"", ""longitude"": ""-48.53945""}",-27.59479,-48.53945,2.9720187244830956
299430,br,fortaleza,2416920,-3.316667,-41.416667,"[{'role': 'system', 'content': 'Answer in json format only: {""latitude"": < e.g. ""14.832185"" >, ""longitude"": < e.g. ""4.212666"" >}. No explanation, just the answer!'}, {'role': 'user', 'content': 'What are the latitude and longitude of fortaleza, Brazil?'}]","{""latitude"": ""-3.718389"", ""longitude"": ""-38.543396""}",-3.718389,-38.543396,322.327415488795
299479,br,foz do iguacu,293526,-25.55,-54.583333,"[{'role': 'system', 'content': 'Answer in json format only: {""latitude"": < e.g. ""14.832185"" >, ""longitude"": < e.g. ""4.212666"" >}. No explanation, just the answer!'}, {'role': 'user', 'content': 'What are the latitude and longitude of foz do iguacu, Brazil?'}]","{""latitude"": ""-25.5477"", ""longitude"": ""-54.5882""}",-25.5477,-54.5882,0.5515058641994162
299515,br,franca,305047,-20.533333,-47.4,"[{'role': 'system', 'content': 'Answer in json format only: {""latitude"": < e.g. ""14.832185"" >, ""longitude"": < e.g. ""4.212666"" >}. No explanation, just the answer!'}, {'role': 'user', 'content': 'What are the latitude and longitude of franca, Brazil?'}]","{""latitude"": ""-20.538333"", ""longitude"": ""-47.400833""}",-20.538333,-47.400833,0.5603304446898524
299552,br,francisco morato,171793,-23.279503,-46.746403,"[{'role': 'system', 'content': 'Answer in json format only: {""latitude"": < e.g. ""14.832185"" >, ""longitude"": < e.g. ""4.212666"" >}. No explanation, just the answer!'}, {'role': 'user', 'content': 'What are the latitude and longitude of francisco morato, Brazil?'}]","{""latitude"": ""-23.277778"", ""longitude"": ""-46.745556""}",-23.277778,-46.745556,0.20977568154514667
299568,br,franco da rocha,108860,-23.324821,-46.718475,"[{'role': 'system', 'content': 'Answer in json format only: {""latitude"": < e.g. ""14.832185"" >, ""longitude"": < e.g. ""4.212666"" >}. No explanation, just the answer!'}, {'role': 'user', 'content': 'What are the latitude and longitude of franco da rocha, Brazil?'}]","{""latitude"": ""-23.327222"", ""longitude"": ""-46.725556""}",-23.327222,-46.725556,0.7714806156135733
299862,br,garanhuns,110087,-8.9,-36.483333,"[{'role': 'system', 'content': 'Answer in json format only: {""latitude"": < e.g. ""14.832185"" >, ""longitude"": < e.g. ""4.212666"" >}. No explanation, just the answer!'}, {'role': 'user', 'content': 'What are the latitude and longitude of garanhuns, Brazil?'}]","{""latitude"": ""-8.893056"", ""longitude"": ""-36.533056""}",-8.893056,-36.533056,5.522647818215881
300160,br,goiania,1171209,-16.666667,-49.266667,"[{'role': 'system', 'content': 'Answer in json format only: {""latitude"": < e.g. ""14.832185"" >, ""longitude"": < e.g. ""4.212666"" >}. No explanation, just the answer!'}, {'role': 'user', 'content': 'What are the latitude and longitude of goiania, Brazil?'}]","{""latitude"": ""-16.690833"", ""longitude"": ""-49.253611""}",-16.690833,-49.253611,3.0152202444751706
300236,br,governador valadares,250882,-18.85,-41.933333000000005,"[{'role': 'system', 'content': 'Answer in json format only: {""latitude"": < e.g. ""14.832185"" >, ""longitude"": < e.g. ""4.212666"" >}. No explanation, just the answer!'}, {'role': 'user', 'content': 'What are the latitude and longitude of governador valadares, Brazil?'}]","{""latitude"": ""-18.853333"", ""longitude"": ""-41.947778""}",-18.853333,-41.947778,1.566353611397302
300331,br,gravatai,238782,-29.9426,-50.9933,"[{'role': 'system', 'content': 'Answer in json format only: {""latitude"": < e.g. ""14.832185"" >, ""longitude"": < e.g. ""4.212666"" >}. No explanation, just the answer!'}, {'role': 'user', 'content': 'What are the latitude and longitude of gravatai, Brazil?'}]","{""latitude"": ""-29.950278"", ""longitude"": ""-50.992778""}",-29.950278,-50.992778,0.8526086475941933
300424,br,guaiba,101026,-30.111111,-51.316666999999995,"[{'role': 'system', 'content': 'Answer in json format only: {""latitude"": < e.g. ""14.832185"" >, ""longitude"": < e.g. ""4.212666"" >}. No explanation, just the answer!'}, {'role': 'user', 'content': 'What are the latitude and longitude of guaiba, Brazil?'}]","{""latitude"": ""-30.1125"", ""longitude"": ""-51.323056""}",-30.1125,-51.323056,0.6347184674991743
300559,br,guarapari,100927,-20.666667,-40.5,"[{'role': 'system', 'content': 'Answer in json format only: {""latitude"": < e.g. ""14.832185"" >, ""longitude"": < e.g. ""4.212666"" >}. No explanation, just the answer!'}, {'role': 'user', 'content': 'What are the latitude and longitude of guarapari, Brazil?'}]","{""latitude"": ""-20.664722"", ""longitude"": ""-40.507778""}",-20.664722,-40.507778,0.838587636846698
300564,br,guarapuava,150851,-25.383333,-51.45,"[{'role': 'system', 'content': 'Answer in json format only: {""latitude"": < e.g. ""14.832185"" >, ""longitude"": < e.g. ""4.212666"" >}. No explanation, just the answer!'}, {'role': 'user', 'content': 'What are the latitude and longitude of guarapuava, Brazil?'}]","{""latitude"": ""-25.394167"", ""longitude"": ""-51.465556""}",-25.394167,-51.465556,1.9725385664865254
300581,br,guaratingueta,105882,-22.815156,-45.18923,"[{'role': 'system', 'content': 'Answer in json format only: {""latitude"": < e.g. ""14.832185"" >, ""longitude"": < e.g. ""4.212666"" >}. No explanation, just the answer!'}, {'role': 'user', 'content': 'What are the latitude and longitude of guaratingueta, Brazil?'}]","{""latitude"": ""-22.816667"", ""longitude"": ""-45.066667""}",-22.816667,-45.066667,12.583556762699502
300644,br,guaruja,310430,-24.0,-46.266667,"[{'role': 'system', 'content': 'Answer in json format only: {""latitude"": < e.g. ""14.832185"" >, ""longitude"": < e.g. ""4.212666"" >}. No explanation, just the answer!'}, {'role': 'user', 'content': 'What are the latitude and longitude of guaruja, Brazil?'}]","{""latitude"": ""-23.993611"", ""longitude"": ""-46.2725""}",-23.993611,-46.2725,0.9235945862103805
300647,br,guarulhos,1169601,-23.45068,-46.526175,"[{'role': 'system', 'content': 'Answer in json format only: {""latitude"": < e.g. ""14.832185"" >, ""longitude"": < e.g. ""4.212666"" >}. No explanation, just the answer!'}, {'role': 'user', 'content': 'What are the latitude and longitude of guarulhos, Brazil?'}]","{""latitude"": ""-23.446667"", ""longitude"": ""-46.533611""}",-23.446667,-46.533611,0.8802534270040346
300847,br,hortolandia,203537,-22.85,-47.25,"[{'role': 'system', 'content': 'Answer in json format only: {""latitude"": < e.g. ""14.832185"" >, ""longitude"": < e.g. ""4.212666"" >}. No explanation, just the answer!'}, {'role': 'user', 'content': 'What are the latitude and longitude of hortolandia, Brazil?'}]","{""latitude"": ""-22.856667"", ""longitude"": ""-47.224722""}",-22.856667,-47.224722,2.6973682045781224
301000,br,ibirite,141376,-20.033333,-44.066666999999995,"[{'role': 'system', 'content': 'Answer in json format only: {""latitude"": < e.g. ""14.832185"" >, ""longitude"": < e.g. ""4.212666"" >}. No explanation, just the answer!'}, {'role': 'user', 'content': 'What are the latitude and longitude of ibirite, Brazil?'}]","{""latitude"": ""-20.022222"", ""longitude"": ""-44.058333""}",-20.022222,-44.058333,1.5077593004953502
301233,br,ilheus,155503,-14.816667,-39.033333,"[{'role': 'system', 'content': 'Answer in json format only: {""latitude"": < e.g. ""14.832185"" >, ""longitude"": < e.g. ""4.212666"" >}. No explanation, just the answer!'}, {'role': 'user', 'content': 'What are the latitude and longitude of ilheus, Brazil?'}]","{""latitude"": ""-14.803056"", ""longitude"": ""-39.033611""}",-14.803056,-39.033611,1.506311730242567
301296,br,imperatriz,218110,-5.533333,-47.483333,"[{'role': 'system', 'content': 'Answer in json format only: {""latitude"": < e.g. ""14.832185"" >, ""longitude"": < e.g. ""4.212666"" >}. No explanation, just the answer!'}, {'role': 'user', 'content': 'What are the latitude and longitude of imperatriz, Brazil?'}]","{""latitude"": ""-5.527222"", ""longitude"": ""-47.458056""}",-5.527222,-47.458056,2.8811861047246423
301328,br,indaiatuba,179914,-23.083333,-47.233333,"[{'role': 'system', 'content': 'Answer in json format only: {""latitude"": < e.g. ""14.832185"" >, ""longitude"": < e.g. ""4.212666"" >}. No explanation, just the answer!'}, {'role': 'user', 'content': 'What are the latitude and longitude of indaiatuba, Brazil?'}]","{""latitude"": ""-23.088333"", ""longitude"": ""-47.219167""}",-23.088333,-47.219167,1.5534529615757717
301495,br,ipatinga,228750,-19.5,-42.533333,"[{'role': 'system', 'content': 'Answer in json format only: {""latitude"": < e.g. ""14.832185"" >, ""longitude"": < e.g. ""4.212666"" >}. No explanation, just the answer!'}, {'role': 'user', 'content': 'What are the latitude and longitude of ipatinga, Brazil?'}]","{""latitude"": ""-19.466667"", ""longitude"": ""-42.533333""}",-19.466667,-42.533333,3.689893418831406
301713,br,itaborai,182500,-22.75,-42.866667,"[{'role': 'system', 'content': 'Answer in json format only: {""latitude"": < e.g. ""14.832185"" >, ""longitude"": < e.g. ""4.212666"" >}. No explanation, just the answer!'}, {'role': 'user', 'content': 'What are the latitude and longitude of itaborai, Brazil?'}]","{""latitude"": ""-22.587778"", ""longitude"": ""-42.908611""}",-22.587778,-42.908611,18.474305722814776
301714,br,itabuna,205666,-14.8,-39.266667,"[{'role': 'system', 'content': 'Answer in json format only: {""latitude"": < e.g. ""14.832185"" >, ""longitude"": < e.g. ""4.212666"" >}. No explanation, just the answer!'}, {'role': 'user', 'content': 'What are the latitude and longitude of itabuna, Brazil?'}]","{""latitude"": ""-14.787222"", ""longitude"": ""-39.281944""}",-14.787222,-39.281944,2.1688037038559593
301757,br,itaguai,100756,-22.870755,-43.773821000000005,"[{'role': 'system', 'content': 'Answer in json format only: {""latitude"": < e.g. ""14.832185"" >, ""longitude"": < e.g. ""4.212666"" >}. No explanation, just the answer!'}, {'role': 'user', 'content': 'What are the latitude and longitude of itaguai, Brazil?'}]","{""latitude"": ""-22.852778"", ""longitude"": ""-43.774167""}",-22.852778,-43.774167,1.9911270510682422
301822,br,itajai,155719,-26.883333,-48.65,"[{'role': 'system', 'content': 'Answer in json format only: {""latitude"": < e.g. ""14.832185"" >, ""longitude"": < e.g. ""4.212666"" >}. No explanation, just the answer!'}, {'role': 'user', 'content': 'What are the latitude and longitude of itajai, Brazil?'}]","{""latitude"": ""-26.903333"", ""longitude"": ""-48.663611""}",-26.903333,-48.663611,2.5960252636357435
301927,br,itapecerica da serra,151608,-23.716667,-46.833333,"[{'role': 'system', 'content': 'Answer in json format only: {""latitude"": < e.g. ""14.832185"" >, ""longitude"": < e.g. ""4.212666"" >}. No explanation, just the answer!'}, {'role': 'user', 'content': 'What are the latitude and longitude of itapecerica da serra, Brazil?'}]","{""latitude"": ""-23.715278"", ""longitude"": ""-46.850556""}",-23.715278,-46.850556,1.7630201508820944
301963,br,itapetininga,126245,-23.6,-48.05,"[{'role': 'system', 'content': 'Answer in json format only: {""latitude"": < e.g. ""14.832185"" >, ""longitude"": < e.g. ""4.212666"" >}. No explanation, just the answer!'}, {'role': 'user', 'content': 'What are the latitude and longitude of itapetininga, Brazil?'}]","{""latitude"": ""-23.592778"", ""longitude"": ""-48.053056""}",-23.592778,-48.053056,0.8585206851759395
301974,br,itapevi,201752,-23.55,-46.933333000000005,"[{'role': 'system', 'content': 'Answer in json format only: {""latitude"": < e.g. ""14.832185"" >, ""longitude"": < e.g. ""4.212666"" >}. No explanation, just the answer!'}, {'role': 'user', 'content': 'What are the latitude and longitude of itapevi, Brazil?'}]","{""latitude"": ""-23.548056"", ""longitude"": ""-46.935556""}",-23.548056,-46.935556,0.3128458777401355
302068,br,itaquaquecetuba,336686,-23.483333,-46.35,"[{'role': 'system', 'content': 'Answer in json format only: {""latitude"": < e.g. ""14.832185"" >, ""longitude"": < e.g. ""4.212666"" >}. No explanation, just the answer!'}, {'role': 'user', 'content': 'What are the latitude and longitude of itaquaquecetuba, Brazil?'}]","{""latitude"": ""-23.485278"", ""longitude"": ""-46.351111""}",-23.485278,-46.351111,0.24347913668573248
302192,br,itu,137589,-23.266667,-47.316666999999995,"[{'role': 'system', 'content': 'Answer in json format only: {""latitude"": < e.g. ""14.832185"" >, ""longitude"": < e.g. ""4.212666"" >}. No explanation, just the answer!'}, {'role': 'user', 'content': 'What are the latitude and longitude of itu, Brazil?'}]","{""latitude"": ""-23.264722"", ""longitude"": ""-46.291111""}",-23.264722,-46.291111,104.93569062657039
302254,br,jaboatao,702632,-8.116667,-35.016667,"[{'role': 'system', 'content': 'Answer in json format only: {""latitude"": < e.g. ""14.832185"" >, ""longitude"": < e.g. ""4.212666"" >}. No explanation, just the answer!'}, {'role': 'user', 'content': 'What are the latitude and longitude of jaboatao, Brazil?'}]","{""latitude"": ""-8.176111"", ""longitude"": ""-35.327778""}",-8.176111,-35.327778,34.91017619980109
302331,br,jacarei,213114,-23.316667,-45.966667,"[{'role': 'system', 'content': 'Answer in json format only: {""latitude"": < e.g. ""14.832185"" >, ""longitude"": < e.g. ""4.212666"" >}. No explanation, just the answer!'}, {'role': 'user', 'content': 'What are the latitude and longitude of jacarei, Brazil?'}]","{""latitude"": ""-23.306111"", ""longitude"": ""-45.967778""}",-23.306111,-45.967778,1.1745701766087777
302540,br,jandira,113607,-23.516667,-46.9,"[{'role': 'system', 'content': 'Answer in json format only: {""latitude"": < e.g. ""14.832185"" >, ""longitude"": < e.g. ""4.212666"" >}. No explanation, just the answer!'}, {'role': 'user', 'content': 'What are the latitude and longitude of jandira, Brazil?'}]","{""latitude"": ""-23.526667"", ""longitude"": ""-46.903056""}",-23.526667,-46.903056,1.150646705956492
302614,br,jaragua do sul,130132,-26.483333,-49.066666999999995,"[{'role': 'system', 'content': 'Answer in json format only: {""latitude"": < e.g. ""14.832185"" >, ""longitude"": < e.g. ""4.212666"" >}. No explanation, just the answer!'}, {'role': 'user', 'content': 'What are the latitude and longitude of jaragua do sul, Brazil?'}]","{""latitude"": ""-26.486111"", ""longitude"": ""-49.065556""}",-26.486111,-49.065556,0.32711562763147645
302909,br,jau,119209,-22.3,-48.55,"[{'role': 'system', 'content': 'Answer in json format only: {""latitude"": < e.g. ""14.832185"" >, ""longitude"": < e.g. ""4.212666"" >}. No explanation, just the answer!'}, {'role': 'user', 'content': 'What are the latitude and longitude of jau, Brazil?'}]","{""latitude"": ""-22.293611"", ""longitude"": ""-48.559722""}",-22.293611,-48.559722,1.2264410217124506
302953,br,jequie,127479,-13.85,-40.083333,"[{'role': 'system', 'content': 'Answer in json format only: {""latitude"": < e.g. ""14.832185"" >, ""longitude"": < e.g. ""4.212666"" >}. No explanation, just the answer!'}, {'role': 'user', 'content': 'What are the latitude and longitude of jequie, Brazil?'}]","{""latitude"": ""-13.854722"", ""longitude"": ""-40.083611""}",-13.854722,-40.083611,0.5232960773154315
303022,br,ji-parana,100128,-10.833333,-61.966667,"[{'role': 'system', 'content': 'Answer in json format only: {""latitude"": < e.g. ""14.832185"" >, ""longitude"": < e.g. ""4.212666"" >}. No explanation, just the answer!'}, {'role': 'user', 'content': 'What are the latitude and longitude of ji-parana, Brazil?'}]","{""latitude"": ""-10.883333"", ""longitude"": ""-61.95""}",-10.883333,-61.95,5.823183588053033
303185,br,joao pessoa,650896,-7.116667,-34.866667,"[{'role': 'system', 'content': 'Answer in json format only: {""latitude"": < e.g. ""14.832185"" >, ""longitude"": < e.g. ""4.212666"" >}. No explanation, just the answer!'}, {'role': 'user', 'content': 'What are the latitude and longitude of joao pessoa, Brazil?'}]","{""latitude"": ""-7.075833"", ""longitude"": ""-34.863611""}",-7.075833,-34.863611,4.528483918934749
303277,br,joinville,461312,-26.3,-48.833333,"[{'role': 'system', 'content': 'Answer in json format only: {""latitude"": < e.g. ""14.832185"" >, ""longitude"": < e.g. ""4.212666"" >}. No explanation, just the answer!'}, {'role': 'user', 'content': 'What are the latitude and longitude of joinville, Brazil?'}]","{""latitude"": ""-26.303056"", ""longitude"": ""-48.846111""}",-26.303056,-48.846111,1.3201766923836058
303467,br,juazeiro do norte,225234,-7.2,-39.333333,"[{'role': 'system', 'content': 'Answer in json format only: {""latitude"": < e.g. ""14.832185"" >, ""longitude"": < e.g. ""4.212666"" >}. No explanation, just the answer!'}, {'role': 'user', 'content': 'What are the latitude and longitude of juazeiro do norte, Brazil?'}]","{""latitude"": ""-7.213056"", ""longitude"": ""-39.315556""}",-7.213056,-39.315556,2.43715725620479
303470,br,juazeiro,137807,-9.5,-40.5,"[{'role': 'system', 'content': 'Answer in json format only: {""latitude"": < e.g. ""14.832185"" >, ""longitude"": < e.g. ""4.212666"" >}. No explanation, just the answer!'}, {'role': 'user', 'content': 'What are the latitude and longitude of juazeiro, Brazil?'}]","{""latitude"": ""-9.433056"", ""longitude"": ""-40.498611""}",-9.433056,-40.498611,7.405866414225369
