index,Country,City,Population,Latitude,Longitude
93,ae,abu dhabi,603687,24.466667,54.36666700000001
242,ae,dubai,1137376,25.258172,55.304717
490,ae,sharjah,543942,25.35731,55.403304000000006
6644,af,baglan,108481,36.130684,68.708286
24457,af,gardez,103732,33.597439,69.225922
25037,af,gazni,143049,33.550833000000004,68.4225
29709,af,herat,272880,34.348167,62.199673
30969,af,jalalabad,200389,34.426468,70.45153
32756,af,kabul,3043589,34.516667,69.18333299999999
63360,af,qandahar,391230,31.613323,65.710126
66589,af,qunduz,161943,36.728955,68.857001
92530,al,durres,122034,41.3230556,19.4413889
92635,al,elbasan,100903,41.1125,20.082222199999997
102871,al,tirana,374801,41.3275,19.8188889
105669,am,gyumri,148383,40.789444399999994,43.8475
107254,am,vanadzor,101099,40.8127778,44.4883333
107461,am,yerevan,1093499,40.1811111,44.513611100000006
108559,ao,benguela,151235,-12.578333,13.407222
115986,ao,huambo,226177,-12.776111,15.739167000000002
116642,ao,kuito,113624,-12.383333,16.933332999999998
116936,ao,lobito,207957,-12.319722,13.599722
117135,ao,luanda,2776125,-8.836803999999999,13.233173999999998
117180,ao,lubango,102541,-14.916667000000002,13.5
127933,ar,bahia blanca,282950,-38.719595,-62.272431999999995
128679,ar,catamarca,213601,-28.469574,-65.785239
129279,ar,comodoro rivadavia,142597,-45.864135,-67.496558
129295,ar,concordia,155686,-31.392959,-58.02089
129336,ar,cordoba,1441007,-31.413496,-64.18105200000001
129422,ar,corrientes,390481,-27.480596,-58.834099
130450,ar,formosa,248756,-26.177534,-58.178139
131309,ar,jujuy,277150,-24.194565,-65.297116
131741,ar,la plata,684318,-34.921454,-57.954533
131795,ar,la rioja,178497,-29.411047999999997,-66.850668
132571,ar,mar del plata,645771,-38.002278,-57.557539
132705,ar,mendoza,973047,-32.890845,-68.82717099999999
132712,ar,mercedes,126559,-33.674359,-65.461405
133003,ar,neuquen,359037,-38.951606,-68.059102
133317,ar,parana,299257,-31.731966999999997,-60.523802
133624,ar,posadas,313438,-27.367077,-55.896078
134159,ar,resistencia,406967,-27.460559999999997,-58.983886
134212,ar,rio cuarto,174058,-33.130671,-64.349918
134317,ar,rosario,1218497,-32.946818,-60.639317000000005
134402,ar,salta,548288,-24.785895999999997,-65.411664
134483,ar,san carlos de bariloche,110044,-41.140293,-71.301369
134640,ar,san juan,469958,-31.5375,-68.536389
134659,ar,san luis,184869,-33.295012,-66.335627
134678,ar,san martin,107554,-33.081031,-68.468138
134703,ar,san nicolas,130705,-33.335784000000004,-60.225233
134735,ar,san rafael,125033,-34.617717,-68.330066
134802,ar,santa fe,456044,-31.629484,-60.701036
134880,ar,santiago del estero,407636,-27.795112,-64.261489
135204,ar,tandil,100127,-37.321674,-59.133164
135381,ar,trelew,107883,-43.250075,-65.313295
135445,ar,tucuman,828402,-26.824144,-65.2226
139363,at,graz,222326,47.066666999999995,15.45
140951,at,innsbruck,112467,47.266667,11.4
142702,at,linz,181163,48.3,14.3
146657,at,salzburg,145310,47.8,13.033333
149599,at,vienna,1569315,48.2,16.366667
150905,au,adelaide,1074168,-34.928661,138.598633
150938,au,albury,104261,-36.074940000000005,146.923935
152164,au,brisbane,1843459,-27.471009999999996,153.024292
152534,au,cairns,154318,-16.92304,145.766251
152621,au,canberra,324025,-35.27603,149.13435
154465,au,geelong,150438,-38.153461,144.358093
154704,au,gold coast,501175,-28.000290000000003,153.430878
155251,au,hobart,204863,-42.883209,147.331665
156937,au,melbourne,3730212,-37.813938,144.963425
157956,au,newcastle,497961,-32.927792,151.78448500000002
158599,au,perth,1446715,-31.952240000000003,115.861397
159856,au,sydney,4394585,-33.861481,151.205475
160351,au,townsville,138959,-19.26639,146.805695
161339,au,wollongong,260918,-34.424,150.893448
163345,az,baku,1116513,40.395278000000005,49.882222
173521,ba,banja luka,221100,44.775833299999995,17.1855556
182374,ba,mostar,104517,43.3433333,17.8080556
185607,ba,sarajevo,696726,43.85,18.3833333
187624,ba,tuzla,142484,44.5427778,18.6694444
188922,ba,zenica,164422,44.2013889,17.9063889
192688,bd,barisal,280437,22.7,90.3666667
193449,bd,bhairab bazar,105470,24.0666667,90.9666667
195401,bd,chandpur,120183,23.15,90.7166667
198311,bd,dhaka,6493177,23.7230556,90.4086111
198891,bd,dinajpur,206251,25.6333333,88.6333333
199526,bd,faridpur,112200,23.6,89.83333329999999
200104,bd,gazipur,132249,23.8,90.65
202157,bd,jamalpur,167914,24.9166667,89.9333333
205021,bd,khulna,1342429,22.8,89.55
208581,bd,narayanganj,223773,23.6233333,90.5011111
208651,bd,narsingdi,281110,23.9208333,90.7180556
208758,bd,nawabganj,142373,24.6,88.2833333
209466,bd,pabna,137904,24.0,89.25
211478,bd,rajshahi,700206,24.3666667,88.6
211735,bd,rangpur,285586,25.75,89.25
213021,bd,satkhira,128933,22.7166667,89.1
213353,bd,sherpur,107431,25.0166667,90.0166667
213705,bd,sirajganj,167501,24.45,89.7166667
215372,bd,tungi,337620,23.89,90.4058333
216365,be,antwerp,459805,51.216667,4.4166669999999995
218048,be,brugge,116709,51.216667,3.233333
218097,be,brussels,1019022,50.833333,4.3333330000000005
218440,be,charleroi,200132,50.416667,4.433333
220688,be,gent,231493,51.05,3.716667
224980,be,liege,182597,50.633333,5.566667
226408,be,namur,106284,50.466667,4.866667
233219,bf,bobo dioulasso,370809,11.2,-4.3
238758,bf,ouagadougou,1031330,12.3702778,-1.5247222
245134,bg,burgas,188554,42.5,27.4666667
256587,bg,pleven,132542,43.4166667,24.6166667
256601,bg,plovdiv,332088,42.15,24.75
257831,bg,ruse,157519,43.8563889,25.9708333
259122,bg,sofia,1062065,42.6833333,23.3166667
259464,bg,stara zagora,137760,42.4327778,25.6419444
261386,bg,varna,307952,43.216666700000005,27.9166667
263132,bh,manama,147097,26.2361111,50.5830556
263354,bi,bujumbura,330539,-3.3761111000000006,29.36
265311,bj,abomey-calavi,385823,6.45,2.35
266100,bj,bohicon,125116,7.2,2.0666667000000003
266298,bj,cotonou,690584,6.35,2.4333332999999997
266526,bj,djougou,202834,9.705,1.6669444
267254,bj,kandi,109705,11.134166699999998,2.9386111
268441,bj,parakou,163759,9.35,2.6166667
272945,bo,cochabamba,900440,-17.3833333,-66.15
279504,bo,la paz,812819,-16.5,-68.15
281038,bo,oruro,208687,-17.9833333,-67.15
282003,bo,potosi,141254,-19.5836111,-65.7530556
283929,bo,sucre,224846,-19.0430556,-65.25916670000001
284361,bo,tarija,159275,-21.5166667,-64.75
286495,br,alagoinhas,122692,-12.116667,-38.433333000000005
287137,br,americana,196026,-22.740278,-47.334444
287217,br,ananindeua,433956,-1.366667,-48.383333
287221,br,anapolis,319592,-16.333333,-48.966667
287350,br,angra dos reis,153637,-23.0,-44.3
287602,br,apucarana,107086,-23.55,-51.483333
287654,br,aracaju,490184,-10.916667,-37.066666999999995
287674,br,aracatuba,170028,-21.2,-50.416667
287705,br,araguaina,114959,-7.16,-48.0575
287748,br,arapiraca,166566,-9.75,-36.65
287785,br,araraquara,185191,-21.783333,-48.166667
287796,br,araras,107465,-22.366667,-47.383333
287808,br,araruama,109638,-22.883333,-42.333333
287843,br,araucaria,111303,-25.583333,-49.416667
288237,br,atibaia,110970,-23.124167,-46.562222
289373,br,barbacena,122213,-21.233333,-43.766667
289774,br,barra mansa,164054,-22.533333,-44.183333000000005
289858,br,barreiras,158296,-12.133333,-45.0
289947,br,barretos,101222,-20.55,-48.55
290085,br,barueri,251999,-23.516667,-46.883333
290170,br,bauru,335031,-22.316667,-49.066666999999995
290296,br,belem,1407737,-1.45,-48.483333
290328,br,belford roxo,466101,-22.761995,-43.404654
290377,br,belo horizonte,2373255,-19.916667,-43.933333000000005
290530,br,betim,384038,-19.966667,-44.216667
290583,br,birigui,102279,-21.3,-50.316666999999995
290615,br,blumenau,293955,-26.9222,-49.0615
290752,br,boa vista,235159,2.816667,-60.666667
291339,br,botucatu,113865,-22.866667,-48.433333000000005
291377,br,braganca paulista,125099,-22.95,-46.566666999999995
291406,br,brasilia,2207812,-15.783333,-47.916667
291934,br,cabo frio,108241,-22.883333,-42.016667
292114,br,cachoeirinha,121086,-29.95,-51.083333
292124,br,cachoeiro de itapemirim,187023,-20.85,-41.1
292593,br,camacari,188763,-12.483333,-38.216667
292623,br,camaragibe,148966,-8.016667,-34.966667
292800,br,campina grande,348943,-7.216667,-35.883333
292817,br,campinas,1031573,-22.9,-47.083333
292945,br,campo grande,729164,-20.45,-54.61666700000001
293013,br,campos,387422,-21.75,-41.3
293304,br,canoas,328297,-29.933333,-51.183333000000005
293813,br,carapicuiba,361120,-23.516667,-46.833333
293874,br,cariacica,330681,-20.266667,-40.416667
294094,br,caruaru,235375,-8.283333,-35.966667
294164,br,cascavel,257174,-24.95,-53.466667
294217,br,castanhal,137410,-1.3,-47.916667
294279,br,catanduva,109615,-21.133333,-48.966667
294394,br,caucaia,275023,-3.7,-38.65
294448,br,caxias,117393,-4.8333330000000005,-43.35
294452,br,caxias do sul,381277,-29.1689,-51.1785
294733,br,chapeco,160160,-27.083333000000003,-52.983332999999995
295132,br,colatina,101193,-19.533333,-40.616667
295256,br,colombo,217002,-25.283333,-49.233333
295658,br,conselheiro lafaiete,111598,-20.666667,-43.8
295690,br,contagem,627132,-19.916667,-44.1
295838,br,coronel fabriciano,100918,-19.516667,-42.633333
296040,br,cotia,174832,-23.616667,-46.933333000000005
296122,br,criciuma,161957,-28.666666999999997,-49.383333
296288,br,cubatao,118412,-23.883333,-46.416667
296299,br,cuiaba,521961,-15.583332999999998,-56.083333
296424,br,curitiba,1718433,-25.416667,-49.25
296749,br,diadema,390641,-23.7,-46.616667
296806,br,divinopolis,193835,-20.15,-44.9
296959,br,dourados,162206,-22.216667,-54.8
297018,br,duque de caxias,818339,-22.790321,-43.325009
297108,br,embu,221737,-23.65,-46.85
297401,br,esmeraldas,103252,-19.75,-44.316666999999995
299013,br,feira de santana,481926,-12.25,-38.95
299106,br,ferraz de vasconcelos,167904,-23.533333,-46.366667
299308,br,florianopolis,412731,-27.583333000000003,-48.566666999999995
299430,br,fortaleza,2416920,-3.316667,-41.416667
299479,br,foz do iguacu,293526,-25.55,-54.583333
299515,br,franca,305047,-20.533333,-47.4
299552,br,francisco morato,171793,-23.279503,-46.746403
299568,br,franco da rocha,108860,-23.324821,-46.718475
299862,br,garanhuns,110087,-8.9,-36.483333
300160,br,goiania,1171209,-16.666667,-49.266667
300236,br,governador valadares,250882,-18.85,-41.933333000000005
300331,br,gravatai,238782,-29.9426,-50.9933
300424,br,guaiba,101026,-30.111111,-51.316666999999995
300559,br,guarapari,100927,-20.666667,-40.5
300564,br,guarapuava,150851,-25.383333,-51.45
300581,br,guaratingueta,105882,-22.815156,-45.18923
300644,br,guaruja,310430,-24.0,-46.266667
300647,br,guarulhos,1169601,-23.45068,-46.526175
300847,br,hortolandia,203537,-22.85,-47.25
301000,br,ibirite,141376,-20.033333,-44.066666999999995
301233,br,ilheus,155503,-14.816667,-39.033333
301296,br,imperatriz,218110,-5.533333,-47.483333
301328,br,indaiatuba,179914,-23.083333,-47.233333
301495,br,ipatinga,228750,-19.5,-42.533333
301713,br,itaborai,182500,-22.75,-42.866667
301714,br,itabuna,205666,-14.8,-39.266667
301757,br,itaguai,100756,-22.870755,-43.773821000000005
301822,br,itajai,155719,-26.883333,-48.65
301927,br,itapecerica da serra,151608,-23.716667,-46.833333
301963,br,itapetininga,126245,-23.6,-48.05
301974,br,itapevi,201752,-23.55,-46.933333000000005
302068,br,itaquaquecetuba,336686,-23.483333,-46.35
302192,br,itu,137589,-23.266667,-47.316666999999995
302254,br,jaboatao,702632,-8.116667,-35.016667
302331,br,jacarei,213114,-23.316667,-45.966667
302540,br,jandira,113607,-23.516667,-46.9
302614,br,jaragua do sul,130132,-26.483333,-49.066666999999995
302909,br,jau,119209,-22.3,-48.55
302953,br,jequie,127479,-13.85,-40.083333
303022,br,ji-parana,100128,-10.833333,-61.966667
303185,br,joao pessoa,650896,-7.116667,-34.866667
303277,br,joinville,461312,-26.3,-48.833333
303467,br,juazeiro do norte,225234,-7.2,-39.333333
303470,br,juazeiro,137807,-9.5,-40.5
303528,br,juiz de fora,470201,-21.751667,-43.352778
303568,br,jundiai,321595,-23.183333,-46.866667
303785,br,lages,164679,-27.8,-50.316666999999995
304623,br,limeira,289671,-22.561667,-47.402778000000005
304697,br,linhares,105084,-19.416667,-40.066666999999995
304773,br,londrina,471836,-23.3,-51.15
304941,br,luziania,143601,-16.25,-47.933333000000005
304990,br,macae,143031,-22.383333,-41.783333
305015,br,macapa,338937,0.033333,-51.05
305063,br,maceio,955010,-9.666667,-35.716667
305165,br,mage,216342,-22.655556,-43.015278
305400,br,manaus,1598227,-3.1133330000000004,-60.025278
305628,br,maraba,145865,-5.35,-49.116667
305657,br,maracanau,193532,-3.866667,-38.633333
305874,br,marilia,212222,-22.216667,-49.933333000000005
305892,br,maringa,311727,-23.416667,-51.916667
306290,br,maua,386077,-23.666667,-46.45
306797,br,moji das cruzes,325753,-23.516667,-46.183333000000005
307003,br,montes claros,332384,-16.716667,-43.866667
307271,br,mossoro,202010,-5.191389,-37.344722
307586,br,natal,763057,-5.783333,-35.216667
307717,br,nilopolis,147283,-22.808487,-43.419792
307732,br,niteroi,456461,-22.90214,-43.130301
307811,br,nossa senhora do socorro,163996,-10.866667,-37.116667
307889,br,nova friburgo,153363,-22.266667,-42.533333
307903,br,nova iguacu,1002129,-22.759188,-43.431887
308066,br,novo hamburgo,253846,-29.683333,-51.133333
308356,br,olinda,366761,-8.016667,-34.85
308464,br,osasco,677869,-23.566667,-46.783333
308755,br,palhoca,122425,-27.633333,-48.666667
308781,br,palmas,196332,-10.222778,-48.277778000000005
309105,br,paranagua,141014,-25.516667,-48.5
309235,br,parnaiba,138011,-2.9091669999999996,-41.774722
309239,br,parnamirim,150347,-5.9166669999999995,-35.25
309465,br,passo fundo,179532,-28.266667,-52.4
309512,br,patos de minas,126236,-18.583333,-46.533333
309675,br,paulista,289977,-7.95,-34.883333
310107,br,pelotas,320680,-31.766667,-52.333333
310328,br,petrolina,194653,-9.4,-40.5
310329,br,petropolis,272694,-22.510833,-43.184444
310514,br,pindamonhangaba,132220,-22.916667,-45.466667
310690,br,piracicaba,342216,-22.716667,-47.633333
310943,br,poa,107434,-23.533333,-46.333333
311131,br,pocos de caldas,146590,-21.8,-46.566666999999995
311285,br,ponta grossa,292179,-25.083333,-50.15
311522,br,porto alegre,1372763,-30.033333,-51.2
312079,br,porto seguro,123196,-16.433332999999998,-39.083333
312125,br,porto velho,306206,-8.766667,-63.9
312222,br,pouso alegre,115203,-22.216667,-45.933333000000005
312293,br,praia grande,250032,-24.0,-46.4
312402,br,presidente prudente,209507,-22.116667,-51.366667
312678,br,queimados,135742,-22.722897,-43.556315999999995
313011,br,recife,1478118,-8.05,-34.9
313161,br,resende,111515,-22.4679,-44.4575
313586,br,ribeirao das neves,406840,-19.783333,-44.1
313635,br,ribeirao pires,111890,-23.716667,-46.416667
313636,br,ribeirao preto,551278,-21.166667,-47.8
313738,br,rio branco,257645,-9.966667,-67.8
313767,br,rio claro,180151,-22.4,-47.55
313816,br,rio de janeiro,6023742,-22.9,-43.233333
313901,br,rio grande,187842,-32.033333,-52.083333
314160,br,rondonopolis,152921,-16.466667,-54.63333299999999
314270,br,sabara,158359,-19.9,-43.8
314559,br,salvador,2711903,-12.983333,-38.516667
314820,br,santa cruz do sul,106115,-29.716667,-52.433333
315017,br,santa luzia,243506,-19.783333,-43.866667
315093,br,santa maria,249224,-29.683333,-53.8
315243,br,santarem,189053,-2.433333,-54.7
315311,br,santa rita,119895,-7.133333,-34.966667
315488,br,santo andre,662387,-23.666667,-46.516667
315698,br,santos,411411,-23.95,-46.333333
315795,br,sao bernardo do campo,743386,-23.7,-46.55
315842,br,sao caetano do sul,136456,-23.6,-46.566666999999995
315870,br,sao carlos,205039,-22.016667,-47.9
316098,br,sao goncalo,939101,-22.800278,-43.025556
316193,br,sao joao de meriti,454855,-22.798614,-43.360894
316493,br,sao jose do rio preto,374706,-20.8,-49.383333
316499,br,sao jose dos campos,613776,-23.183333,-45.883333
316515,br,sao jose dos pinhais,229988,-25.516667,-49.216667
316544,br,sao jose,203142,-27.633333,-48.65
316559,br,sao leopoldo,209233,-29.766667,-51.15
316617,br,sao luis,917252,-2.516667,-44.266667
316800,br,sao paulo,10021437,-23.473293,-46.665803
317127,br,sao vicente,324464,-23.966667,-46.383333
317192,br,sapucaia,130939,-29.833333000000003,-51.15
317626,br,serra,394160,-20.116667,-40.3
317745,br,sete lagoas,201337,-19.45,-44.233333
325332,br,sobral,157998,-3.7,-40.35
325405,br,sorocaba,558874,-23.483333,-47.45
325747,br,sumare,227982,-22.8,-47.283333
325808,br,suzano,283319,-23.533333,-46.333333
325845,br,taboao da serra,214527,-23.6,-46.766667
326438,br,taubate,251647,-23.033333,-45.55
326526,br,teofilo otoni,101172,-17.85,-41.5
326540,br,teresina,744526,-5.0833330000000005,-42.816666999999995
326549,br,teresopolis,123980,-22.424064,-42.968013
326760,br,timon,124429,-5.1,-42.816666999999995
327467,br,uberaba,260847,-19.75,-47.916667
327472,br,uberlandia,563545,-18.916667,-48.3
327674,br,uruguaiana,123482,-29.75,-57.083333
327924,br,varginha,116573,-21.55,-45.433333000000005
328025,br,varzea grande,249766,-15.65,-56.13333299999999
328037,br,varzea paulista,110938,-23.2,-46.833333
328301,br,viamao,285274,-30.083333000000003,-51.033333
328737,br,vila velha,394937,-20.333333,-40.283333
328898,br,vitoria da conquista,253144,-14.85,-40.85
328899,br,vitoria de santo antao,107385,-8.116667,-35.3
328912,br,vitoria,312662,-20.316667,-40.35
328974,br,volta redonda,249584,-22.533333,-44.116667
329460,bs,nassau,227936,25.0833333,-77.35
329996,bw,gaborone,208411,-24.6463889,25.9119444
331713,by,brest,300716,52.1,23.7
333489,by,gomel,481000,52.4416667,30.9833333
333982,by,hrodna,317366,53.681388899999995,23.8147222
337489,by,mazyr,112136,52.05,29.2666667
337744,by,minsk,1742123,53.9,27.566666700000003
339056,by,orsha,125347,54.51527779999999,30.4052778
339684,by,pinsk,130777,52.1213889,26.0727778
341199,by,salihorsk,101614,52.8,27.5333333
346347,ca,abbotsford,151685,49.05,-122.3
346599,ca,barrie,182070,44.383333,-79.7
347007,ca,calgary,968475,51.083333,-114.083333
347736,ca,edmonton,822319,53.55,-113.5
348285,ca,guelph,115763,43.55,-80.25
348310,ca,halifax,266012,44.65,-63.6
348323,ca,hamilton,653637,43.25,-79.833333
348680,ca,kelowna,125110,49.9,-119.483333
348741,ca,kingston,114243,44.233333,-76.483333
348762,ca,kitchener,409111,43.45,-80.5
349065,ca,london,346774,42.983333,-81.25
349487,ca,montreal,3268513,45.5,-73.583333
349847,ca,oshawa,247989,43.9,-78.866667
349854,ca,ottawa,874433,45.416667,-75.7
350239,ca,quebec,645623,46.8,-71.25
350324,ca,regina,176182,50.45,-104.616667
350892,ca,saskatoon,198957,52.133333,-106.666667
350999,ca,sherbrooke,129447,45.4,-71.9
351246,ca,sudbury,109724,46.5,-80.966667
351416,ca,toronto,4612187,43.666667,-79.416667
351447,ca,trois-rivieres,119693,46.35,-72.55
351536,ca,vancouver,1837970,49.25,-123.133333
351574,ca,victoria,289625,48.433333000000005,-123.35
351658,ca,waterloo,110800,43.466667,-80.533333
351795,ca,windsor,278013,42.333333,-83.033333
351804,ca,winnipeg,632069,49.883333,-97.166667
352864,cd,bandundu,118203,-3.316667,17.366667
354658,cd,boma,344522,-5.85,13.05
355532,cd,bukavu,225431,-2.5083330000000004,28.860833000000003
355902,cd,butembo,154649,0.15,29.283333
357322,cd,gandajika,154414,-6.75,23.95
357417,cd,gemena,117631,3.25,19.766667
357526,cd,goma,144151,-1.679167,29.222778
357979,cd,ilebo,107086,-4.316667,20.583333
358289,cd,isiro,127068,2.766667,27.616667
359252,cd,kalemie,147065,-5.933333,29.2
359814,cd,kananga,463556,-5.8958330000000005,22.417778
361746,cd,kikwit,186995,-5.038611,18.818056
362213,cd,kindu,135690,-2.95,25.95
362418,cd,kinshasa,7787832,-4.3,15.3
362696,cd,kisangani,539164,0.516667,25.2
363929,cd,likasi,422726,-10.981389,26.733333
364623,cd,lubumbashi,1374808,-11.666667,27.466667
366252,cd,matadi,180115,-5.816667,13.45
366528,cd,mbandaka,184189,0.0666669999999999,18.266667
366650,cd,mbuji-mayi,874974,-6.15,23.6
369117,cd,mwene-ditu,189215,-7.0,23.45
372856,cd,tshikapa,267508,-6.4166669999999995,20.8
373486,cd,uvira,170422,-3.4066669999999997,29.145833000000003
375522,cf,bangui,684190,4.366666700000001,18.5833333
381536,cg,brazzaville,1115773,-4.2591667,15.284722199999996
387266,ch,basel,164474,47.558395,7.573271000000001
387316,ch,bern,123018,46.916667,7.466667
388129,ch,geneva,181492,46.195602,6.1481129999999995
388703,ch,lausanne,118015,46.533333,6.6666669999999995
390604,ch,zurich,346185,47.366667,8.55
390651,ci,abengourou,144074,6.729722,-3.4963889999999997
390670,ci,abidjan,3692570,5.309657,-4.012656
391053,ci,agboville,108684,5.92801,-4.213186
391716,ci,anyama,158250,5.494622,-4.051831
393540,ci,bouake,572149,7.693846000000001,-5.030307
394012,ci,daloa,217876,6.8773550000000006,-6.450221
394675,ci,divo,184481,5.83739,-5.357229
395540,ci,gagnoa,125647,6.131933999999999,-5.950601
397981,ci,korhogo,172114,9.458031,-5.629608
399512,ci,man,140217,7.412513000000001,-7.55383
402099,ci,san-pedro,195873,4.748508,-6.636301
402756,ci,soubre,123214,5.783766,-6.59388
404170,ci,yamoussoukro,200659,6.820548,-5.276741
405115,cl,antofagasta,309835,-23.65,-70.4
405141,cl,arica,186000,-18.475,-70.30417
405334,cl,calama,143085,-22.466667,-68.93333299999999
405750,cl,chillan,150396,-36.6,-72.116667
405999,cl,concepcion,215414,-36.833333,-73.05
406025,cl,copiapo,129281,-27.366667,-70.333333
406029,cl,coquimbo,161319,-29.953333,-71.343611
406137,cl,curico,102439,-34.983333,-71.233333
406883,cl,iquique,227501,-20.22083,-70.14305999999999
407233,cl,la serena,154523,-29.907778000000004,-71.25416700000001
407532,cl,los angeles,125431,-37.466667,-72.35
408075,cl,osorno,135774,-40.566666999999995,-73.15
408503,cl,puerto montt,160055,-41.469848,-72.944745
408545,cl,punta arenas,117432,-53.15,-70.916667
408670,cl,quilpue,130264,-33.045,-71.449444
408723,cl,rancagua,212696,-34.17083,-70.74444
408885,cl,san bernardo,249856,-33.6,-70.716667
409030,cl,santiago,4837248,-33.45,-70.666667
409103,cl,talcahuano,252969,-36.716667,-73.116667
409110,cl,talca,197480,-35.433333000000005,-71.666667
409144,cl,temuco,238131,-38.733333,-72.6
409293,cl,valdivia,133420,-39.8,-73.233333
409300,cl,valparaiso,282450,-33.047778,-71.601111
409349,cl,vina del mar,294553,-33.008055999999996,-71.519722
410030,cm,bafoussam,290798,5.4666667,10.4166667
410199,cm,bamenda,393871,5.9333333,10.1666667
410599,cm,bertoua,218217,4.5833333,13.6833333
411898,cm,douala,1338144,4.0502778,9.7
412142,cm,edea,203170,3.8,10.133333300000002
412822,cm,garoua,436932,9.3,13.4
413941,cm,kousseri,435986,12.0783333,15.0308333
413967,cm,kumba,144428,4.6438889,9.4386111
414304,cm,loum,177448,4.7161111,9.7463889
414801,cm,maroua,319974,10.5955556,14.324722199999998
415264,cm,mbouda,111690,5.633333299999999,10.25
415887,cm,mokolo,275750,10.7402778,13.8027778
416666,cm,ngaoundere,231376,7.3166667,13.5833333
417386,cm,nkongsamba,117076,4.9533333,9.9325
419064,cm,yaounde,1299446,3.8666667,11.516666699999998
419293,cn,acheng,144665,45.545452,126.977031
419723,cn,aksu,340020,41.123056,80.264444
419814,cn,altay,139341,47.866667,88.116667
419912,cn,anbu,162964,23.448953,116.680916
420004,cn,anda,181271,46.4,125.316667
420392,cn,ankang,132654,32.68,109.017222
420673,cn,anqing,358661,30.509167,117.050556
420680,cn,anqiu,105665,36.434166999999995,119.1925
420729,cn,anshan,1199275,41.123611,122.99
420757,cn,anshun,351936,26.25,105.933333
420941,cn,anyang,781129,36.099444,114.328889
421776,cn,badaojiang,183880,41.943056,126.428611
422098,cn,baicheng,316970,45.616667,122.816667
424377,cn,baiyin,188533,36.558333000000005,104.208056
425758,cn,bantou,118557,25.443056,118.403333
425984,cn,baoding,995652,38.851111,115.490278
426226,cn,baoji,438295,34.365907,107.359045
426403,cn,baoshan,123791,46.558611,131.424444
427293,cn,beian,145670,48.266667,126.6
427335,cn,beibei,112019,29.825556,106.433889
427765,cn,beihai,289568,21.483333,109.1
428181,cn,beipiao,154999,41.791944,120.779167
428994,cn,bengbu,576648,32.940833000000005,117.360833
429087,cn,benxi,987717,41.288611,123.765
429638,cn,binzhou,115893,37.366667,118.016667
430021,cn,boshan,153596,36.483333,117.833333
430127,cn,bozhou,174140,33.877221999999996,115.770278
430217,cn,buhe,106347,30.287567,112.229788
431331,cn,cangzhou,527681,38.316666999999995,116.866667
433555,cn,changchun,2537421,43.88,125.322778
433612,cn,changde,517780,29.046378000000004,111.678304
434120,cn,changji,198776,44.016667,87.31666700000001
435652,cn,changzhou,949018,31.783333,119.966667
435973,cn,chaohu,138463,31.6,117.866667
436216,cn,chaoyang,410005,41.570278,120.458611
436317,cn,chaozhou,424787,23.665129,116.637864
437558,cn,chengde,449325,40.770278000000005,118.169722
437595,cn,chengdu,3950437,30.666666999999997,104.066667
437684,cn,chenghai,152453,23.461319,116.770071
439444,cn,chenzhou,179038,25.8,113.033333
441158,cn,chifeng,346654,42.268333,118.963611
443706,cn,chizhou,148375,30.657778000000004,117.483056
443938,cn,chongqing,3967028,29.562778,106.552778
445265,cn,chuncheng,153547,22.166667,111.783333
446063,cn,chuzhou,280582,32.321944,118.297778
446864,cn,daan,120340,29.382222,106.015
449885,cn,dalian,2035307,38.912222,121.602222
449902,cn,daliang,210411,22.850416,113.247006
449978,cn,dali,134040,25.7,100.183333
450996,cn,dandong,631973,40.129166999999995,124.394722
451393,cn,danshui,126701,22.798396,114.467158
453410,cn,datong,1052678,40.093611,113.291389
453883,cn,dawukou,131880,39.041944,106.395833
453984,cn,daxian,130749,31.215921,107.500922
455359,cn,dehui,108818,44.533333,125.7
455990,cn,deyang,152194,31.130191999999997,104.381981
456016,cn,dezhou,379555,37.448611,116.2925
456532,cn,didao,109561,45.366667,130.8
457322,cn,dingzhou,152934,38.513056,114.995556
458550,cn,donghai,188602,22.945935,115.642043
459268,cn,dongli,110107,20.791389,110.349722
459303,cn,dongling,171454,41.814444,123.575833
460216,cn,dongtai,110988,32.852311,120.309472
460881,cn,dongying,306450,37.456389,118.485556
462337,cn,dunhua,148844,43.3725,128.2425
463085,cn,encheng,110921,22.183892,112.302597
464017,cn,ezhou,193652,30.396071999999997,114.886546
465560,cn,fengcheng,120514,40.453610999999995,124.071667
467360,cn,foshan,627348,23.026771,113.131483
468188,cn,fuling,166507,29.702221999999995,107.391944
468586,cn,fushun,1400646,41.7,123.883333
468762,cn,fuxin,689050,42.015556,121.658889
468854,cn,fuyang,170023,32.9,115.816667
468953,cn,fuyu,138704,45.183333000000005,124.816667
468997,cn,fuzhou,1179720,26.061389,119.30611100000002
470274,cn,ganzhou,249071,25.85,114.933333
471319,cn,gaomi,150793,36.383333,119.752778
472101,cn,gaozhou,166069,21.939243,110.846074
472468,cn,gejiu,136135,23.306022,103.163512
473761,cn,gongzhuling,140909,43.507222,124.812222
474750,cn,guangshui,154771,31.616111,113.815556
474842,cn,guangyuan,213365,32.442015000000005,105.822996
474855,cn,guangzhou,3152825,23.116667,113.25
476330,cn,guilin,649352,25.281944,110.286389
476449,cn,guiyang,1171633,26.583333000000003,106.716667
478479,cn,haibowan,218427,39.664722,106.812222
478489,cn,haicheng,191651,40.851582,122.747537
478491,cn,haicheng,130386,22.975326000000003,115.331794
478618,cn,haikou,112644,24.779854,102.575483
478620,cn,haikou,615835,20.045833,110.341667
478639,cn,hailar,211066,49.2,119.7
478672,cn,hailun,109881,47.45,126.933333
478694,cn,haimen,125427,23.193486,116.614218
479085,cn,hami,137072,42.8,93.45
479219,cn,handan,1358318,36.566666999999995,114.533333
479354,cn,hangu,208369,39.248889,117.789167
479364,cn,hangzhou,1878129,30.29365,120.161419
479874,cn,hanzhong,145986,33.072778,107.030278
480266,cn,harbin,3229883,45.75,126.65
480463,cn,hebi,244662,35.899167,114.1925
480692,cn,hefei,1388904,31.863889,117.280833
480737,cn,hegang,743307,47.4,130.366667
480930,cn,heihe,109427,50.266667,127.466667
482466,cn,hengshan,164844,45.2,130.916667
482550,cn,hengshui,456356,37.732222,115.701111
482678,cn,hengyang,759602,26.888056,112.615
483549,cn,heze,254602,35.243056,115.441111
483881,cn,hohhot,774477,40.810556,111.652222
484257,cn,honggang,147977,46.466667,124.866667
484426,cn,honghu,175761,29.816667,113.466667
486641,cn,houma,100630,35.61358,111.356601
491496,cn,huadian,139047,42.963333,126.747778
491664,cn,huaibei,903039,33.974444,116.791667
491714,cn,huaihua,127322,27.549444,109.959167
491758,cn,huainan,1027655,32.626389,116.996944
491900,cn,huaiyin,555230,33.588611,119.019167
492661,cn,huangcun,104904,39.721389,116.329167
494306,cn,huangpu,116307,23.053325,113.512148
495224,cn,huangyan,150448,28.647778,121.259444
495353,cn,huangzhou,122563,30.45,114.8
496585,cn,huicheng,125919,23.038449,116.28988
497088,cn,huizhou,289201,23.083333,114.4
497455,cn,hulan ergi,265344,47.204167,123.633333
497463,cn,hulan,109104,45.983333,126.6
497668,cn,humen,191891,22.818985,113.673064
498982,cn,huzhou,158320,30.870301,120.093297
500310,cn,jiamusi,549549,46.833333,130.35
501163,cn,jiangmen,532419,22.583333,113.083333
501553,cn,jiangyin,107918,31.905063,120.26851
501554,cn,jiangyin,107918,31.928248999999997,120.312567
501559,cn,jiangyou,127225,31.766667,104.716667
501701,cn,jian,171718,27.05,114.9
502262,cn,jiaohe,123018,43.728611,127.344722
502308,cn,jiaojiang,470804,28.680278,121.442778
502620,cn,jiaozhou,165026,36.283889,120.003333
502638,cn,jiaozuo,517540,35.239722,113.233056
502842,cn,jiaxing,466101,30.752197999999996,120.749997
502883,cn,jiayuguan,122396,39.816666999999995,98.3
502941,cn,jiazi,130298,22.877914,116.067054
503420,cn,jieshi,137444,22.813377,115.825742
503429,cn,jieshou,141993,33.25,115.35
503851,cn,jilin,1881977,43.850833,126.560278
503968,cn,jinan,2069266,36.668333,116.997222
504049,cn,jinchang,144363,38.495278000000006,102.173889
504062,cn,jinchengjiang,104138,24.7,108.033333
504328,cn,jingdezhen,310565,29.2947,117.207887
505026,cn,jinhua,142206,29.107778000000003,119.654722
505064,cn,jining,258757,41.0275,113.105833
505065,cn,jining,450327,35.405,116.581389
505901,cn,jinxi,313247,40.764317,120.85327
506044,cn,jinzhou,604269,41.107778,121.141667
506258,cn,jishou,102332,28.316667,109.716667
506267,cn,jishu,103988,44.316666999999995,126.8
506672,cn,jiujiang,258807,29.607940000000003,115.887205
506970,cn,jiupu,123843,41.066666999999995,122.95
507070,cn,jiutai,175115,44.1525,125.832778
507411,cn,jixi,403759,45.3,130.966667
508454,cn,kaifeng,576915,34.744167,114.418611
508521,cn,kaili,151956,26.5,107.583333
508623,cn,kaiyuan,198423,23.697668,103.303723
509975,cn,karamay,174828,45.600376,84.86014200000001
510050,cn,kashi,274717,39.454722,75.979722
511517,cn,korla,179465,41.759722,86.14694399999999
513192,cn,kunming,1023674,25.038889,102.718333
513615,cn,kuytun,187242,44.416667,85.0
514203,cn,laiwu,124108,36.192778,117.656944
514215,cn,laiyang,169594,36.975833,120.713611
514619,cn,langfang,720119,39.509722,116.694722
515364,cn,lanzhou,1417742,36.056389,103.792222
515761,cn,laohekou,253112,32.385833,111.667778
516965,cn,lasa,118721,29.65,91.1
517591,cn,leiyang,129116,26.402382,112.859078
517775,cn,lengshuijiang,115399,27.688056,111.429444
517898,cn,leshan,154477,29.562275,103.76386
518103,cn,liancheng,100341,21.646734,110.28172
519423,cn,lianran,106795,24.922707,102.484959
519686,cn,liaocheng,226930,36.443889,115.964722
519913,cn,liaoyang,687890,41.226111,123.05611100000002
520151,cn,licheng,172775,23.295537,113.828357
521922,cn,linchuan,125847,27.938274,116.29268799999998
521999,cn,linfen,232566,36.088889,111.518889
522789,cn,linhai,152937,28.85,121.116667
523157,cn,linqing,110046,36.845556,115.711667
523218,cn,linshui,109955,36.424722,114.204722
523343,cn,linxia,202402,35.600278,103.206389
523364,cn,linxi,100316,39.7,118.433333
525725,cn,liusha,118023,23.310722,116.168691
526440,cn,liuzhou,763168,24.312582,109.389157
527588,cn,longfeng,152074,46.55,125.116667
527884,cn,longjiang,106384,47.330278,123.183611
527994,cn,longjing,117185,42.771389,129.423333
529091,cn,longyan,125778,25.107222,117.0225
529363,cn,loudi,150684,27.734444,111.994444
529698,cn,luancheng,597130,37.879166999999995,114.651667
529742,cn,luan,179665,31.756944,116.49138899999998
531841,cn,luohe,417356,33.571667,114.035278
532721,cn,luoyang,1390581,34.683611,112.453611
532729,cn,luoyang,123144,23.162442,114.273423
532898,cn,luqiao,427890,28.580834999999997,121.377148
533418,cn,luzhou,295056,28.872390999999997,105.44049
533529,cn,maanshan,540198,31.695678000000004,118.498248
533596,cn,maba,113609,24.684125,113.598386
533752,cn,macheng,126366,31.178333,115.031944
536534,cn,maoming,473251,21.65,110.9
538577,cn,meilu,104168,21.45713,110.765907
539583,cn,mentougou,197772,39.939167,116.091667
539733,cn,mianyang,264136,31.459339,104.754235
540862,cn,mingshui,114858,36.716667,117.5
542062,cn,mudanjiang,665915,44.583333,129.6
543581,cn,nancha,121367,47.133333,129.26666699999998
543597,cn,nanchang,1871351,28.55,115.933333
543782,cn,nanchong,204368,30.775757,106.102938
544641,cn,nanjing,3087010,32.061667,118.777778
545205,cn,nanning,803788,22.816667,108.316667
545265,cn,nanpiao,157044,41.098218,120.747923
545863,cn,nantong,666251,32.030278,120.874722
546298,cn,nanyang,251532,32.994721999999996,112.532778
546958,cn,nehe,108253,48.483333,124.833333
547040,cn,neijiang,546854,29.583536,105.06216
547998,cn,ningbo,719867,29.878186,121.549453
552064,cn,panzhihua,461513,26.547902,101.705386
553246,cn,peking,7480601,39.928889,116.388333
554290,cn,pingdingshan,889675,33.738471999999994,113.301194
554584,cn,pingliang,108156,35.539167,106.686111
554814,cn,pingshan,113631,22.993761,114.713109
555020,cn,pingxiang,372123,27.616667,113.85
556234,cn,pulandian,104277,39.395278000000005,121.966944
556407,cn,puqi,132891,29.716667,113.883333
556667,cn,puyang,666322,35.702778,115.005278
557423,cn,qianguo,113611,45.117115000000005,124.856761
557571,cn,qianjiang,179079,30.415128000000003,112.88595
560130,cn,qingdao,1642245,36.098611,120.371944
561317,cn,qingyuan,151287,23.7,113.033333
561403,cn,qinhuangdao,759718,39.931667,119.588333
561613,cn,qinzhou,100996,21.95,108.616667
561724,cn,qiqihar,882364,47.340833,123.967222
561821,cn,qitaihe,345033,45.8,130.85
562775,cn,quanzhou,184143,24.913889,118.585833
563032,cn,qujing,146015,25.483333,103.783333
563476,cn,ranghulu,226298,46.65,124.866667
564415,cn,rizhao,246387,35.390278,119.545833
564460,cn,rongcheng,108908,29.845046999999997,112.951441
564463,cn,rongcheng,102157,26.266667,104.016667
564464,cn,rongcheng,1001985,23.528858,116.364159
564774,cn,ruian,125208,27.776047,120.658588
565411,cn,sanbu,140454,22.36078,112.688088
567285,cn,sanmenxia,357767,34.774722,111.181389
567306,cn,sanming,209444,26.248611,117.61861100000002
569019,cn,shahe,125132,36.854721999999995,114.4975
570824,cn,shanghai,14608512,31.045556,121.399722
572251,cn,shangqiu,181218,34.383333,115.616667
572269,cn,shangrao,318769,28.453221000000003,117.968604
574960,cn,shaoguan,628749,24.8,113.583333
575201,cn,shaowu,112585,27.340891,117.483096
575208,cn,shaoxing,421283,30.011019,120.571528
575219,cn,shaoyang,649452,26.965893,111.241376
575294,cn,shaping,107589,22.477547,112.845784
575397,cn,shashi,498780,30.307221999999996,112.244722
577223,cn,shenyang,3512192,41.792221999999995,123.432778
577263,cn,shenzhen,1002592,22.533333,114.133333
578701,cn,shihezi,572772,44.3,86.033333
580351,cn,shilong,109733,23.112269,113.842476
581213,cn,shishou,122411,29.716667,112.4
581839,cn,shiyan,408055,32.6475,110.778056
582317,cn,shizuishan,136570,39.041944,106.395833
582604,cn,shuangcheng,130710,45.35,126.283333
583676,cn,shuangyashan,209521,46.636111,131.153889
585352,cn,shunyi,117623,40.125,116.645278
588611,cn,suihua,252245,46.640556,126.996944
588641,cn,suining,124924,30.508017,105.573324
588798,cn,sujiatun,148113,41.659167,123.339167
590039,cn,suzhou,205130,33.636111,116.978889
590040,cn,suzhou,1343091,31.311389,120.618056
590867,cn,taian,750340,36.185278,117.12
590936,cn,taicheng,145440,22.251347,112.779904
591861,cn,taiyuan,2722475,37.726944,112.470833
591892,cn,taizhou,612356,32.493333,119.910627
592962,cn,tanggu,535298,39.021111,117.646944
593628,cn,tangshan,2054526,37.3325,114.701389
595108,cn,taonan,112819,45.333333,122.783333
596753,cn,tengzhou,105456,35.077061,117.151758
597396,cn,tianjin,3766207,39.142222,117.176667
597527,cn,tianmen,224871,30.65,113.1
598527,cn,tieling,333907,42.293056,123.841389
598532,cn,tieli,109636,46.95,128.05
599769,cn,tongchuan,223603,34.898799,108.950562
600090,cn,tongliao,261110,43.6125,122.265278
600107,cn,tongling,312588,30.933333,117.816667
600589,cn,tongzhou,163326,39.905278,116.599444
605016,cn,urumqi,1508225,43.800965000000005,87.600459
609047,cn,wanxian,188980,30.803889,108.389722
609669,cn,weifang,394732,36.71,119.101944
609729,cn,weihai,152595,37.501667,122.113611
609981,cn,weinan,172321,34.503546,109.508908
610398,cn,wencheng,115370,37.193611,122.051111
611322,cn,wenzhou,865672,27.999415999999997,120.66682
612026,cn,wuda,129922,39.499444,106.711667
612217,cn,wufeng,101728,27.45,104.833333
612385,cn,wuhan,4184206,30.580125,114.273405
612499,cn,wuhu,507524,31.14607,118.57068999999998
613120,cn,wulanhaote,165846,46.083333,122.083333
613667,cn,wuning,130387,29.258873,120.231083
614385,cn,wuwei,109319,37.928056,102.641389
614491,cn,wuxi,1108647,31.568872999999996,120.288573
614505,cn,wuxue,220661,29.850578,115.552504
614738,cn,wuzhou,265846,23.483333,111.316667
616684,cn,xiamen,578337,24.479794,118.081869
617011,cn,xiangdong,103815,27.7,113.7
617037,cn,xiangfan,462956,32.042203,112.144794
618143,cn,xiantao,239406,30.383333,113.4
618174,cn,xian,3953191,34.258333,108.928611
618207,cn,xianyang,1034081,34.33778,108.70261
619705,cn,xiaolan,187865,22.673810999999997,113.231874
622957,cn,xiazhen,125667,34.802222,117.111667
623299,cn,xichang,126787,27.896422,102.263415
626537,cn,xingtai,611739,37.063056,114.494167
626672,cn,xingyi,119000,25.05,104.983333
626902,cn,xining,767531,36.616667,101.766667
627596,cn,xinpu,392444,34.599722,119.159444
627875,cn,xintai,222459,35.900556,117.751944
628217,cn,xinxiang,743601,35.308889,113.867222
628362,cn,xinyang,1590668,32.095833,114.120278
628634,cn,xinzhou,154003,38.409167,112.733333
630598,cn,xuanhua,373422,40.610278,115.044722
630678,cn,xuanzhou,127758,30.9525,118.755278
630721,cn,xuchang,449258,34.016667,113.816667
631992,cn,xuzhou,1199193,34.180454,117.15707
632031,cn,yaan,108758,29.989788,103.003694
632340,cn,yakeshi,116284,49.283333,120.733333
632500,cn,yanan,107960,36.598889,109.491667
632596,cn,yancheng,628441,33.385556,120.125278
633950,cn,yangjiang,399735,21.85,111.966667
635845,cn,yangzhou,539715,32.397222,119.435833
636235,cn,yanji,326957,42.771389,129.423333
636579,cn,yantai,719332,37.533333,121.4
639456,cn,yibin,242111,28.699702,104.549173
639466,cn,yichang,476725,30.77135,111.321458
639498,cn,yichun,152169,27.833333000000003,114.4
639499,cn,yichun,155762,47.7,128.9
639570,cn,yidu,117056,36.696667,118.479722
640028,cn,yinchuan,475101,38.468056,106.273056
640128,cn,yingcheng,265886,30.95,113.55
640129,cn,yingcheng,115538,24.165876,113.412675
640362,cn,yingkou,591159,40.637318,122.502508
640690,cn,yingzhong,108883,31.166110999999997,112.583056
640756,cn,yining,257671,43.881111,81.24583299999999
641453,cn,yiyang,202608,28.589167,112.328333
641483,cn,yizheng,176006,32.269166999999996,119.17888899999998
641572,cn,yongan,134858,25.98,117.364167
644002,cn,yuci,235929,37.680278,112.731944
644545,cn,yueyang,528140,29.140833,113.111111
645320,cn,yulin,148485,22.633333,110.15
645487,cn,yuncheng,201950,35.023056,110.992778
646394,cn,yushan,140039,31.377623,120.954305
646523,cn,yushu,124736,44.8,126.533333
646857,cn,yuyao,114177,30.05,121.149444
647070,cn,zalantun,132224,48.0,122.716667
647420,cn,zaoyang,184509,32.127221999999996,112.754167
647448,cn,zaozhuang,183665,34.864722,117.554167
648586,cn,zhangdian,669770,36.790556,118.063333
649095,cn,zhangjiakou,692602,40.81,114.879444
650250,cn,zhangzhou,589831,24.513333,117.655556
650330,cn,zhanjiang,637790,21.281452,110.342713
650498,cn,zhaocheng,100774,37.359167,120.396389
650542,cn,zhaodong,154406,46.083333,125.983333
650995,cn,zhaoqing,361969,23.051157,112.459722
651059,cn,zhaotong,109400,27.316667,103.716667
651138,cn,zhaoyang,105918,32.939167,119.834167
652073,cn,zhenjiang,632552,32.209167,119.434167
652429,cn,zhicheng,159383,30.295556,111.504722
653726,cn,zhongshan,342306,22.520576,113.382318
654359,cn,zhoucheng,103829,24.355,102.542222
654378,cn,zhoucun,122402,36.816666999999995,117.816667
654800,cn,zhoukou,377061,33.633333,114.633333
655657,cn,zhucheng,109968,35.994721999999996,119.3975
655847,cn,zhuhai,501199,22.276944,113.567778
656224,cn,zhuji,110721,29.718765,120.242333
656411,cn,zhumadian,253536,32.979444,114.029444
656589,cn,zhuozhou,116310,39.481111,115.963333
657144,cn,zhuzhou,709358,27.691868,113.152137
657264,cn,zigong,689961,29.341621999999997,104.776887
657874,cn,zouxian,190537,35.400556,116.965556
657985,cn,zunyi,466292,27.543056,106.823056
659175,co,armenia,315332,4.533889,-75.681111
659566,co,barrancabermeja,191406,7.065278,-73.854722
659600,co,barranquilla,1380437,10.963889,-74.796389
659945,co,bello,392945,6.337315,-75.557951
660231,co,bogota,7102602,4.649178,-74.062827
660479,co,bucaramanga,571827,7.125392999999999,-73.119804
660502,co,buenaventura,240391,3.880099,-77.031164
660606,co,buga,118006,3.900889,-76.29782900000001
660881,co,cali,2392897,3.437222,-76.5225
661629,co,cartagena,952036,10.399722,-75.514444
661637,co,cartago,134829,4.746389,-75.91166700000001
664317,co,cucuta,721406,7.893907,-72.50782099999999
664661,co,dos quebradas,179586,4.839164,-75.667265
667969,co,envigado,163010,6.170643,-75.585307
668224,co,florencia,130339,1.614382,-75.606229
668272,co,floridablanca,252271,7.062222,-73.08644
668591,co,girardot,130292,4.298659,-74.804681
668594,co,giron,108468,7.068205,-73.169809
670661,co,ibague,421689,4.438889,-75.232222
670882,co,itagui,281858,6.171944,-75.611389
676440,co,magangue,100315,9.242024,-74.754671
676463,co,maicao,130351,11.383208,-72.243208
676521,co,malambo,101536,10.859533,-74.773861
676636,co,manizales,357819,5.068890000000001,-75.517383
677077,co,medellin,2000001,6.2518400000000005,-75.563591
677622,co,monteria,272424,8.747983999999999,-75.881428
678035,co,neiva,352859,2.927299,-75.281885
678681,co,palmira,247991,3.539444,-76.303611
679031,co,pasto,382242,1.213611,-77.281111
679303,co,pereira,440123,4.813333,-75.696111
682853,co,santa marta,431788,11.240791,-74.19904
683347,co,sincelejo,261190,9.304722,-75.397778
683434,co,soacha,313950,4.579368,-74.216819
683466,co,sogamoso,126553,5.7143440000000005,-72.933908
683475,co,soledad,342562,10.918433,-74.76459
684454,co,tulua,165504,4.084656,-76.19536
684480,co,tunja,117480,5.535278,-73.367778
684704,co,valledupar,308242,10.46314,-73.253224
685222,co,villavicencio,321721,4.142002,-73.626645
687674,cr,san jose,335056,9.933333,-84.083333
688811,cu,bayamo,192641,20.3791667,-76.6433333
689187,cu,camaguey,347572,21.380833300000003,-77.9169444
689708,cu,ciego de avila,142032,21.84,-78.7619444
689721,cu,cienfuegos,186648,22.1461111,-80.4355556
691539,cu,guantanamo,272808,20.1444444,-75.2091667
691750,cu,holguin,319114,20.887222199999997,-76.2630556
693342,cu,las tunas,203690,20.9616667,-76.95111109999999
694061,cu,manzanillo,128194,20.3433333,-77.1166667
694187,cu,matanzas,146738,23.0411111,-81.5775
694750,cu,palma soriano,102830,20.2172222,-75.99888890000001
695026,cu,pinar del rio,186997,22.4175,-83.6980556
696109,cu,sancti spiritus,127073,21.929722199999997,-79.4425
696531,cu,santa clara,250518,22.1666667,-79.7666667
696754,cu,santiago de cuba,555878,20.0247222,-75.8219444
697837,cv,praia,111611,14.9166667,-23.5166667
699574,cy,lemesos,154018,34.675,33.033333299999995
702165,cz,brno,377407,49.2,16.633333
713615,cz,olomouc,102792,49.59404,17.25119
713812,cz,ostrava,317136,49.811852,18.255282
714500,cz,plzen,165531,49.75,13.366667
714981,cz,prague,1154508,50.083333,14.466667
722416,de,aachen,251104,50.770833,6.105278
725123,de,augsburg,261842,48.366667,10.883333
727047,de,bergisch gladbach,106611,50.983333,7.133333
727152,de,berlin,3398362,52.516667000000005,13.4
727693,de,bielefeld,327198,52.033333,8.533333
728551,de,bochum,387061,51.483333,7.216667
729013,de,bonn,314081,50.733333,7.1
729391,de,bottrop,120829,51.516667,6.9166669999999995
729940,de,bremen,546429,53.083333,8.8
729953,de,bremerhaven,119688,53.55,8.583333
730524,de,brunswick,245259,52.266667,10.533333
731652,de,chemnitz,246654,50.833333,12.916667
731815,de,cologne,968823,50.933333000000005,6.95
731887,de,cottbus,115246,51.766667,14.333332999999998
732352,de,darmstadt,139757,49.870556,8.649444
733974,de,dortmund,594255,51.516667,7.45
734216,de,dresden,480801,51.05,13.75
734419,de,duisburg,505271,51.433333000000005,6.75
734643,de,dusseldorf,577139,51.216667,6.766667
736747,de,erfurt,196719,50.983333,11.033333
736812,de,erlangen,102781,49.589721999999995,11.003889
737170,de,essen,576914,51.45,7.016667
738569,de,frankfurt,648034,50.116667,8.683333
738724,de,freiburg,213920,48.0,7.85
739458,de,furth,112959,49.466667,10.966667
740255,de,gelsenkirchen,271647,51.516667,7.05
740378,de,gera,104463,50.866667,12.083333
741762,de,gottingen,123570,51.533333,9.933333
744483,de,hagen,199497,51.35,7.466667
744859,de,halle,232452,51.5,12.0
744968,de,hamburg,1733846,53.55,10.0
745071,de,hamm,186289,51.683333000000005,7.8
745172,de,hanover,519144,52.366667,9.716667
746211,de,heidelberg,144703,49.416667,8.7
746298,de,heilbronn,121822,49.140278,9.22
747122,de,herne,173121,51.55,7.216667
747640,de,hildesheim,102958,52.15,9.966667
750785,de,ingolstadt,120598,48.766667,11.433333
752203,de,karlsruhe,284786,49.004721999999994,8.385833
752336,de,kassel,193117,51.316666999999995,9.5
752928,de,kiel,235264,54.333333,10.133333
754968,de,koblenz,108146,50.35,7.6
756130,de,krefeld,239908,51.333333,6.566667
758380,de,leipzig,492637,51.3,12.333333
758800,de,leverkusen,159088,51.016667,6.983333
759968,de,lubeck,213171,53.86666700000001,10.7
760104,de,ludwigshafen,162514,49.481111,8.435278
760541,de,magdeburg,224428,52.166667,11.666667
760687,de,mainz,187940,50.0,8.271111
760882,de,mannheim,309626,49.488333,8.464722
762872,de,moers,109167,51.45,6.65
763045,de,monchengladbach,264969,51.2,6.433333
763686,de,mulheim,172779,51.433333000000005,6.883333
763822,de,munich,1246133,48.15,11.5833
763854,de,munster,272452,51.966667,7.633333
765664,de,neuss,152975,51.2,6.683333
767224,de,nuremberg,497593,49.447778,11.068333
767883,de,oberhausen,220916,51.466667,6.85
769425,de,offenbach,120641,50.1,8.766667
769587,de,oldenburg,160347,53.166667,8.2
769884,de,osnabruck,165372,52.266667,8.05
770427,de,paderborn,143096,51.716667,8.766667
771192,de,pforzheim,120366,48.883333,8.7
771948,de,potsdam,145291,52.4,13.066667
773097,de,ratisbon,129643,49.015,12.095556
773314,de,recklinghausen,122727,51.616667,7.2
773895,de,remscheid,118230,51.183333000000005,7.2
774150,de,reutlingen,113625,48.483333,9.216667
775413,de,rostock,196833,54.083333,12.133333
776179,de,saarbrucken,181779,49.233333,7.0
776394,de,salzgitter,111622,52.083333,10.333333
780089,de,siegen,108228,50.866667,8.033333
780533,de,solingen,165192,51.183333000000005,7.0833330000000005
782718,de,stuttgart,591688,48.766667,9.183333
784439,de,trier,100649,49.75,6.633333
784944,de,ulm,120745,48.4,10.0
790106,de,wiesbaden,272337,50.083333,8.25
790991,de,witten,101122,51.433333000000005,7.333333
791310,de,wolfsburg,123184,52.433333,10.8
791819,de,wuppertal,363240,51.266667,7.183333
791874,de,wurzburg,134499,49.787778,9.936111
792949,dj,jibuti,623891,11.595,43.148055600000006
793005,dk,aalborg,122219,57.035498,9.941163
793293,dk,arhus,226716,56.153423,10.22553
794171,dk,copenhagen,1089958,55.666667,12.583333
798212,dk,odense,145931,55.393475,10.394935
806051,do,higuey,123803,18.6166667,-68.7
807863,do,la romana,208439,18.4166667,-68.9666667
808439,do,la vega,102431,19.2166667,-70.5166667
810894,do,puerto plata,119908,19.8,-70.6833333
811458,do,san cristobal,154045,18.4166667,-70.1
811472,do,san francisco de macoris,124772,19.3,-70.25
811544,do,san pedro de macoris,217901,18.45,-69.3
811608,do,santiago,555911,19.45,-70.7
811613,do,santo domingo,2202016,18.4666667,-69.9
812738,dz,algiers,1980242,36.7630556,3.0505556
814172,dz,constantine,450126,36.365,6.614722200000001
819111,dz,medea,147710,36.2675,2.75
821929,dz,wahran,646025,35.6911111,-0.6416666999999999
821932,dz,warqla,150611,31.9575,5.3277778
822233,ec,ambato,154369,-1.25,-78.6166667
823581,ec,cuenca,276964,-2.8833333,-78.9833333
824523,ec,guayaquil,1952029,-2.1666667,-79.9
826140,ec,ibarra,108666,0.35,-78.1166667
827051,ec,loja,117796,-4.0,-79.2166667
827164,ec,machala,198123,-3.2666667,-79.9666667
827229,ec,manta,183166,-0.95,-80.7333333
827359,ec,milagro,110093,-2.0666667000000003,-79.5333333
828198,ec,portoviejo,170326,-1.05,-80.45
828510,ec,quevedo,119436,-1.0333333,-79.45
828562,ec,quito,1399814,-0.2166667,-78.5
828641,ec,riobamba,124478,-1.6666667000000002,-78.6333333
829373,ec,santo domingo,200421,-0.25,-79.15
838060,ee,tallinn,394023,59.4338889,24.7280556
838155,ee,tartu,101092,58.366111100000005,26.7361111
840437,eg,alexandria,3811512,31.198055600000004,29.9191667
841796,eg,aswan,241282,24.0875,32.898888899999996
841798,eg,asyut,420614,27.1827778,31.1827778
842351,eg,benha,167070,30.460833299999997,31.1875
842458,eg,beni suef,189637,29.063888899999995,31.088888899999997
842667,eg,cairo,7734602,30.05,31.25
842891,eg,dekernes,137559,31.0883333,31.596944399999995
843393,eg,el faiyum,306421,29.3077778,30.84
843844,eg,el mahalla el kubra,431088,30.976111100000004,31.166944399999995
845727,eg,gizeh,2443490,30.008611100000003,31.2122222
845976,eg,ismailia,284851,30.5833333,32.2666667
849903,eg,luxor,422408,25.6833333,32.65
852045,eg,port said,538377,31.2666667,32.3
852099,eg,qalyub,100521,30.183055600000003,31.2052778
852283,eg,qena,235390,26.17,32.7272222
853033,eg,sohag,209440,26.55,31.7
853049,eg,suez,488124,29.9666667,32.55
853160,eg,talkha,157756,31.053055600000004,31.373888899999997
853231,eg,tanta,404934,30.7911111,30.998055600000004
854095,er,asmara,563948,15.3333333,38.9333333
855176,es,a coruna,236010,43.366609,-8.406812
855427,es,albacete,155083,38.995845,-1.857773
855570,es,alcala de henares,195152,40.482048,-3.359957
855627,es,alcobendas,101860,40.543933,-3.635688
855659,es,alcorcon,169343,40.346467,-3.812453
855896,es,algeciras,104766,36.133257,-5.450511
856053,es,almeria,181497,36.833333,-2.45
857335,es,badajoz,133042,38.877894,-6.970613
857336,es,badalona,222413,41.447145,2.244789
857585,es,barcelona,1570378,41.398371,2.1741
858710,es,bilbao,349270,43.260919,-2.938764
859258,es,burgos,168319,42.350221000000005,-3.675273
859573,es,cadiz,137698,36.515789,-6.279692
860525,es,cartagena,201977,37.605121,-0.986232
864600,es,cordoba,311186,37.89155,-4.772748
865919,es,dos hermanas,104666,37.282867,-5.920884
868120,es,fuenlabrada,202088,40.284189000000005,-3.794147
868671,es,getafe,167550,40.308423,-3.70596
868682,es,gijon,262573,43.535731,-5.661519
868881,es,granada,248942,37.178354,-3.5992010000000003
869554,es,huelva,145901,37.271446999999995,-6.949464
869930,es,jaen,116291,37.772403999999995,-3.79013
870012,es,jerez,189230,36.686454,-6.136063
871772,es,las palmas,365418,28.099727,-15.413429999999998
872132,es,leganes,192000,40.326946,-3.760422
872185,es,leon,127480,42.600031,-5.570316
872427,es,lleida,119320,41.616667,0.633333
872542,es,logrono,142103,42.466667,-2.45
873329,es,madrid,3102644,40.408566,-3.69222
873410,es,malaga,557875,36.726665999999994,-4.4348019999999995
873599,es,marbella,115484,36.510485,-4.885745
873967,es,mataro,114923,41.542113,2.444503
875071,es,mostoles,212504,40.320923,-3.862849
875203,es,murcia,410364,37.987041,-1.130042
876289,es,oviedo,198250,43.363223,-5.853128
876479,es,palma,378884,39.574337,2.655222
876514,es,pamplona,191549,42.814075,-1.641153
879461,es,sabadell,198589,41.54329,2.109423
879546,es,salamanca,155175,40.9681,-5.66202
880781,es,santa cruz de tenerife,193852,28.460238,-16.280616000000002
881039,es,santander,185209,43.464721999999995,-3.804444
881729,es,sevilla,686647,37.382408,-5.976133
882451,es,tarragona,128391,41.116667,1.25
882592,es,terrassa,187770,41.561111,2.0080560000000003
883016,es,torrejon de ardoz,111998,40.455354,-3.469733999999999
883991,es,valencia,769897,39.466667,-0.366667
884030,es,valladolid,315859,41.655181,-4.72372
884659,es,vigo,286585,42.232823,-8.722636999999999
886178,es,vitoria,224774,42.85,-2.666667
886361,es,zaragoza,635509,41.645309999999995,-0.884861
886916,et,addis abeba,2757807,9.024325,38.749226
888385,et,awassa,133120,7.05,38.466667
888551,et,bahir dar,168929,11.6,37.383333
890715,et,debre zeyit,104234,8.75,38.983333
890989,et,dese,136080,11.133333,39.633333
891209,et,dire dawa,252347,9.593056,41.866111
893084,et,gondar,153942,12.6,37.466667
894420,et,jimma,128330,7.666667,36.833333
896756,et,nazret,214034,8.55,39.266667
900546,fi,espoo,229528,60.216667,24.666667
901447,fi,helsinki,558457,60.17555600000001,24.934167
907686,fi,oulu,128618,65.016667,25.466667
911309,fi,tampere,202688,61.5,23.75
911871,fi,turku,175944,60.45,22.283333
916561,fr,aix-en-provence,142133,43.528695,5.448791
916973,fr,amiens,138816,49.9,2.3
917145,fr,angers,158585,47.473806,-0.54774
921118,fr,besancon,120139,47.248778,6.018152
922497,fr,bordeaux,219311,44.840439,-0.5805
922893,fr,boulogne-billancourt,109765,48.835684,2.2473419999999997
923666,fr,brest,150554,48.390756,-4.486165
924644,fr,caen,115358,49.197188,-0.326822
928874,fr,clermont-ferrand,137364,45.779657,3.086281
931780,fr,dijon,153692,47.316666999999995,5.016667
937469,fr,grenoble,154853,45.171546,5.722387
947819,fr,le havre,188605,49.5,0.1333329999999999
948019,fr,le mans,147413,48.000386,0.204709
953155,fr,lille,189746,50.632971000000005,3.058585
953193,fr,limoges,134549,45.831534000000005,1.2578049999999998
954397,fr,lyon,463700,45.748457,4.846711
955700,fr,marseille,792823,43.285413,5.37606
956970,fr,metz,128021,49.115461,6.175875
958827,fr,montpellier,238887,43.61092,3.87723
959677,fr,mulhouse,111972,47.738082,7.347932000000001
959872,fr,nancy,106857,48.69211,6.187755999999999
959899,fr,nantes,284677,47.216509,-1.5523790000000002
960400,fr,nice,341621,43.713644,7.259519999999999
960468,fr,nimes,137532,43.833778,4.359623
961426,fr,orleans,118190,47.902891,1.903887
962094,fr,paris,2110694,48.866667,2.333333
962582,fr,perpignan,104783,42.696172,2.897098
966081,fr,reims,192688,49.25,4.033333
966191,fr,rennes,213334,48.111981,-1.674291
967276,fr,rouen,108101,49.433333000000005,1.083333
969815,fr,saint-etienne,170416,45.435382,4.391051
976383,fr,strasbourg,273506,48.600381,7.787355000000001
977677,fr,toulon,154465,43.117705,5.941712
977683,fr,toulouse,411145,43.599515999999994,1.433188
977793,fr,tours,135143,47.394836,0.7039770000000001
981403,fr,villeurbanne,126230,45.765502000000005,4.875522
984391,ga,libreville,578156,0.3833333,9.45
986140,ga,port-gentil,109163,-0.7166667,8.7833333
986529,gb,aberdeen,183791,57.13333299999999,-2.1
987713,gb,basildon,101363,51.566666999999995,0.466667
987855,gb,belfast,585994,54.583333,-5.933333
988110,gb,birmingham,984336,52.466667,-1.916667
988177,gb,blackburn,106154,53.75,-2.483333
988193,gb,blackpool,143101,53.816667,-3.05
988347,gb,bolton,141331,53.583333,-2.433333
988501,gb,bournemouth,175017,50.716667,-1.883333
988583,gb,bradford,299310,53.783333,-1.75
988795,gb,brighton,139001,50.833333,-0.15
988821,gb,bristol,430714,51.45,-2.583333
989333,gb,cambridge,128489,52.2,0.116667
989414,gb,cardiff,302142,51.5,-3.2
989773,gb,chelmsford,102671,51.733333,0.483333
989778,gb,cheltenham,103249,51.9,-2.083333
990263,gb,colchester,109415,51.883333,0.9
990616,gb,coventry,308314,52.416667,-1.55
990714,gb,crawley,107061,51.116667,-0.183333
991215,gb,derby,235029,52.933333,-1.5
991525,gb,dudley,199060,52.5,-2.083333
991571,gb,dundee,151593,56.5,-2.9666669999999997
991725,gb,eastbourne,112906,50.8,0.25
991950,gb,edinburgh,435794,55.95,-3.2
992225,gb,exeter,113119,50.7,-3.5333330000000003
992922,gb,gillingham,101187,51.4,0.566667
992962,gb,glasgow,610271,55.833333,-4.25
993033,gb,gloucester,128722,51.833333,-2.166667
994491,gb,huddersfield,149018,53.65,-1.7833330000000005
994765,gb,ipswich,143768,52.083333,1.166667
995226,gb,kingston upon hull,302297,53.716667,-0.333333
995751,gb,leeds,455124,53.8,-1.583333
995768,gb,leicester,339240,52.63333299999999,-1.133333
995769,gb,leicester,339240,52.664913,-1.034894
996117,gb,liverpool,468946,53.416667,-3.0
996635,gb,london,7421228,51.514125,-0.093689
996892,gb,luton,193670,51.883333,-0.416667
997036,gb,manchester,395516,53.5,-2.2166669999999997
997398,gb,middlesbrough,142708,54.572778,-1.162778
998003,gb,newcastle upon tyne,192382,54.98805600000001,-1.619444
998078,gb,newport,117327,51.583333,-2.983333
998209,gb,northampton,197323,52.25,-0.883333
998390,gb,norwich,177636,52.63333299999999,1.3
998396,gb,nottingham,246655,52.966667,-1.166667
998499,gb,oldham,104783,53.55,-2.1166669999999996
998663,gb,oxford,154567,51.75,-1.25
998935,gb,peterborough,140142,52.583333,-0.25
999060,gb,plymouth,247298,50.396389,-4.138611
999150,gb,poole,150092,50.716667,-2.0
999251,gb,portsmouth,194151,50.7967,-1.083333
999334,gb,preston,190688,53.766667000000005,-2.7166669999999997
999561,gb,reading,244071,51.433333000000005,-1.0
999872,gb,rotherham,117619,53.433333,-1.35
1000105,gb,saint helens,102555,53.45,-2.733333
1000568,gb,sheffield,447048,53.36666700000001,-1.5
1000883,gb,slough,134072,51.5,-0.583333
1000965,gb,southampton,246201,50.9,-1.4
1001010,gb,southend-on-sea,163378,51.533333,0.7
1001406,gb,stockport,139053,53.4,-2.15
1001450,gb,stoke-on-trent,260420,53.0,-2.183333
1001674,gb,sunderland,177965,54.91194399999999,-1.383333
1001698,gb,sutton coldfield,107030,52.566667,-1.816667
1001761,gb,swansea,170885,51.633333,-3.966667
1001783,gb,swindon,162439,51.516667,-1.7833330000000005
1002860,gb,walsall,172142,52.6,-2.0
1003013,gb,watford,125708,51.666667,-0.4
1003166,gb,west bromwich,135618,52.516667000000005,-2.0
1003869,gb,wolverhampton,252792,52.583333,-2.1333330000000004
1003982,gb,worcester,100023,52.166667,-2.166667
1004163,gb,york,144202,53.954115,-1.064262
1010687,ge,tbilisi,1049516,41.725,44.7908333
1013451,gh,accra,1963460,5.55,-0.2166667
1017646,gh,cape coast,143044,5.1,-1.25
1021778,gh,kumasi,1468797,6.6833333,-1.6166667
1024363,gh,obuasi,119063,6.2,-1.6666667000000002
1025685,gh,sekondi,104194,4.9333333,-1.7
1026245,gh,takoradi,114989,4.883333299999999,-1.75
1026295,gh,tamale,360644,9.4,-0.8333333
1026511,gh,tema,351556,5.616666700000001,-0.0166667
1026554,gh,teshie,144012,5.5833333,-0.1
1028830,gm,brikama,101805,13.2675,-16.6461111
1030690,gm,serekunda,218790,13.4425,-16.681388899999998
1032155,gn,conakry,1871185,9.509166699999998,-13.712222199999998
1034178,gn,kankan,114103,10.383333300000002,-9.3
1034568,gn,kindia,117095,10.0666667,-12.85
1036508,gn,nzerekore,132842,7.747222200000001,-8.823888900000002
1039797,gq,bata,173036,1.85,9.75
1040556,gq,malabo,156039,3.75,8.7833333
1043967,gr,athens,729139,37.9833333,23.7333333
1048151,gr,iraklion,137155,35.325,25.1305556
1048680,gr,kallithea,107767,37.95,23.7
1053055,gr,larisa,128760,39.6372222,22.4202778
1057911,gr,patrai,163361,38.2444444,21.734444399999997
1058166,gr,peristerion,137660,38.0166667,23.7
1062185,gr,thessaloniki,354291,40.6402778,22.9438889
1067256,gt,escuintla,101047,14.305,-90.785
1067487,gt,guatemala city,973208,14.621111,-90.526944
1067488,gt,guatemala,973208,14.621111,-90.526944
1068976,gt,mixco,460576,14.633333,-90.606389
1069577,gt,petapa,137839,14.502778,-90.551667
1069891,gt,quetzaltenango,132231,14.833332999999998,-91.516667
1070473,gt,san juan sacatepequez,133613,14.718889,-90.644167
1071627,gt,villa canales,119084,14.481389000000002,-90.531667
1071631,gt,villa nueva,397158,14.526944,-90.5875
1072472,gw,bissau,388094,11.85,-15.5833333
1076982,gy,georgetown,235017,6.8,-58.1666667
1080247,hn,choloma,139117,15.616666699999998,-87.95
1082590,hn,el progreso,100821,15.4,-87.8
1084390,hn,la ceiba,130230,15.7833333,-86.8
1089541,hn,san pedro sula,489506,15.5,-88.0333333
1090183,hn,tegucigalpa,850961,14.1,-87.2166667
1099778,hr,rijeka,141173,45.34305560000001,14.409166699999998
1100703,hr,split,176315,43.5138889,16.455833300000002
1102706,hr,zagreb,698967,45.8,16.0
1104956,ht,cap-haitien,134823,19.757777800000003,-72.2041667
1105054,ht,carrefour,439590,18.5383333,-72.4122222
1106176,ht,delmas,377194,18.5447222,-72.30277779999999
1111547,ht,petionville,108235,18.5125,-72.28527779999999
1111980,ht,port-au-prince,1234750,18.5391667,-72.335
1116114,hu,budapest,1708088,47.5,19.083333
1117224,hu,debrecen,204825,47.533333,21.633333
1119660,hu,gyor,129009,47.687281,17.637616
1121731,hu,kecskemet,106062,46.9,19.783333
1125065,hu,miskolc,179430,48.1,20.783333
1126094,hu,nyiregyhaza,116809,47.95,21.716667
1126965,hu,pecs,156661,46.075363,18.232845
1129214,hu,szeged,160609,46.25,20.166667
1129251,hu,szekesfehervar,103772,47.195503,18.4096
1132570,id,adiwerna,134202,-6.9375,109.1325
1134333,id,ambon,355607,-3.695426,128.181405
1135443,id,arjawinangun,105852,-6.645278,108.410278
1135804,id,astanajapura,148055,-6.8017,108.6311
1136340,id,babakan,124801,-6.8275,108.498333
1139281,id,balikpapan,433939,-1.283333,116.833333
1139953,id,banda aceh,250796,5.5577,95.3222
1140434,id,bandung,1699822,-6.9038889999999995,107.61861100000002
1141101,id,banjaran,165136,-6.8716669999999995,107.77
1142235,id,banjarmasin,572910,-3.333333,114.583333
1144063,id,banyuwangi,108178,-8.2215,114.3646
1146170,id,baturaja,134824,-4.133333,104.166667
1147239,id,bekasi,1520204,-6.2349,106.9896
1147428,id,belawan,102709,3.7755,98.6832
1148206,id,bengkulu,309759,-3.8,102.266667
1149755,id,binjai,228794,3.5639999999999996,98.724
1150172,id,bitung,137361,1.4451,125.1824
1150881,id,blitar,132431,-8.0983,112.1681
1152198,id,bogor,769328,-6.594444,106.789167
1153712,id,bontang,101693,0.1333329999999999,117.5
1154637,id,brebes,186936,-6.8691,109.0378
1159571,id,ciamis,123631,-7.3257,108.3534
1159576,id,ciampea,207445,-6.540278,106.695556
1159630,id,cianjur,146883,-6.822222,107.139444
1159828,id,cibadak,229745,-6.536389,106.770278
1160411,id,cibinong,188674,-6.398611,106.688611
1160441,id,cibitung,198119,-6.272222,107.103611
1160899,id,cicalengka,158211,-6.932222,107.470278
1162607,id,cikampek,145613,-6.419722,107.455833
1162755,id,cikarang,106486,-6.261111,107.152778
1163453,id,cikupa,174184,-6.228889,106.519444
1163454,id,cikupa,174184,-6.3724,106.1945
1163784,id,cilegon,299790,-6.0144,106.0542
1163950,id,cileungsi,202360,-6.394722,106.959167
1163959,id,cileunyi,111570,-6.793889,107.851944
1164260,id,cimahi,378027,-6.698333,107.275278
1165133,id,ciomas,152335,-6.601389,106.771389
1165478,id,ciparay,114226,-6.941667,107.349167
1165963,id,ciputat,207848,-6.2375,106.695556
1166170,id,cirebon,254314,-6.7063,108.557
1166399,id,cisaat,141005,-6.775278,106.771389
1166590,id,cisarua,103933,-6.448333,107.120556
1167151,id,citeureup,110162,-6.362778,106.675278
1168442,id,curug,191617,-6.2533330000000005,106.617222
1168443,id,curug,191617,-6.3367,106.2256
1170808,id,denpasar,405959,-8.65,115.216667
1170839,id,depok,104537,-7.696667,110.2175
1170840,id,depok,1198195,-6.343333,106.498889
1174073,id,dumai,143775,1.6833330000000002,101.45
1178272,id,garut,122421,-7.2024,107.8878
1181965,id,gorontalo,144202,0.5412,123.0595
1182390,id,grogol,100624,-7.296389,110.746944
1186187,id,indramayu,123271,-6.326389,108.32
1186762,id,jakarta,8540306,-6.174444,106.829444
1187051,id,jambi,420391,-1.6,103.616667
1188954,id,jember,298620,-8.1705,113.702
1190120,id,jombang,126479,-7.55,112.233333
1198965,id,karang tengah,138471,-6.9086110000000005,106.910556
1199190,id,karawang,198894,-6.303333,107.305556
1201566,id,kebumen,144457,-7.323333,109.600833
1201947,id,kediri,235171,-7.816667,112.016667
1203083,id,kedungwuni,117262,-6.970383,109.647942
1203632,id,kemang,111027,-6.741389,107.019167
1204405,id,kendari,235329,-3.945,122.498889
1206630,id,kisaran,129928,2.9845,99.6158
1206979,id,klaten,126845,-7.705833,110.606389
1210424,id,kresek,110304,-6.1313889999999995,106.379722
1211845,id,kupang,282421,-10.166667,123.583333
1216244,id,lawang,159517,-7.8353,112.6947
1217624,id,lembang,183283,-6.786389,107.7025
1218915,id,leuwiliang,191992,-6.575833,106.636944
1220257,id,loa janan,212820,-0.583333,117.083333
1222006,id,lumajang,123640,-8.1335,113.2248
1222881,id,madiun,186116,-7.6298,111.5239
1223068,id,magelang,111470,-7.470556,110.217778
1223241,id,majalaya,226720,-7.0485,107.7631
1223442,id,makasar,1321832,-5.14,119.4221
1223672,id,malang,746780,-7.9797,112.6304
1224181,id,manado,451910,1.487,124.8455
1226281,id,martapura,131452,-3.416667,114.85
1226882,id,mataram,318712,-8.583333,116.116667
1227528,id,medan,1751190,3.583333,98.666667
1229106,id,metro,149552,-5.113055999999999,105.306667
1230493,id,mojokerto,112570,-7.4664,112.4338
1239953,id,pacet,328324,-6.750278,107.046667
1240105,id,padalarang,124953,-6.8425,107.484722
1240329,id,padang,840458,-0.953154,100.367659
1242260,id,palembang,1241334,-2.916667,104.75
1242659,id,palu,282461,-0.8917,119.8707
1242745,id,pamanukan,114386,-6.284167,107.810556
1243089,id,pamulang,174549,-6.342778,106.738333
1244361,id,pangkah,113387,-6.9745,109.1732
1246772,id,parung,193991,-6.3276,106.9715
1247087,id,pasarkemis,154227,-6.170278,106.530278
1247309,id,paseh,126287,-6.803889,107.867222
1249009,id,pasuruan,158618,-7.6453,112.9075
1249278,id,pati,122798,-6.7559,111.038
1249851,id,payakumbuh,121652,-0.22019,100.630781
1250623,id,pekalongan,257973,-6.8886,109.6753
1251181,id,pemalang,184169,-6.9,109.366667
1252652,id,perbaungan,157378,3.5679,98.956
1255306,id,plumbon,167187,-6.576944,108.317778
1257445,id,pontianak,455226,-0.033333,109.333333
1257866,id,prabumulih,103476,-3.45,104.25
1258422,id,pringsewu,124791,-5.358215,104.974407
1258473,id,probolinggo,181678,-7.7543,113.2159
1260283,id,purwakarta,215816,-6.5569440000000005,107.443333
1260331,id,purwodadi,150278,-7.0868,110.9158
1260360,id,purwokerto,217245,-7.421389,109.234444
1260385,id,purworejo,105077,-7.763611,112.738889
1261734,id,rancaekek,152108,-6.960278,107.7575
1262378,id,rangkasbitung,126904,-6.3591,106.2494
1262623,id,rantauprapat,103011,2.1,99.833333
1264224,id,rengasdengklok,201687,-6.159167,107.298056
1266650,id,salatiga,172664,-7.321389,110.507778
1267252,id,samarinda,355223,-0.5,117.15
1269659,id,sawangan,114063,-6.2775,106.529444
1271684,id,semarang,1288221,-6.9932,110.4203
1272954,id,sepatan,118434,-6.118889,106.575
1273133,id,serang,164777,-6.1149,106.1502
1274715,id,sidoarjo,139205,-7.4478,112.7183
1277181,id,singaraja,133796,-8.1127,115.0949
1277258,id,singkawang,101851,0.9,109.0
1279991,id,soreang,151135,-7.033056,107.518333
1280089,id,sorong,125538,-0.883333,131.25
1280785,id,subang,129009,-6.57,107.756667
1281084,id,sukabumi,276431,-6.918056,106.926667
1281551,id,sukaraja,157205,-6.587778,106.8375
1282989,id,sumedang,206919,-6.858611,107.916389
1283919,id,sunggal,157936,3.5765,98.6151
1284052,id,surabaya,2374920,-7.249167,112.750833
1284080,id,surakarta,555368,-7.556111,110.831667
1286010,id,taman,181626,-6.9,109.383333
1286011,id,taman,126875,-7.1785,112.8978
1286511,id,tambun,314271,-6.105278,107.222222
1287862,id,tanete,105109,-5.3306,120.1371
1287912,id,tangerang,1372185,-6.178056,106.63
1288789,id,tanjung morawa,157908,3.5193,98.7914
1289762,id,tasikmalaya,271160,-7.3274,108.2207
1290206,id,tebingtinggi,117547,3.3285,99.1625
1290993,id,tegal,237110,-6.8694,109.1402
1291820,id,teluknaga,128336,-6.065,106.644167
1292989,id,ternate,101736,0.8,127.4
1302849,id,ungaran,127873,-7.139722,110.405
1305522,id,waru,147506,-7.36,112.724722
1307073,id,weru,139013,-6.711,108.5037
1308809,id,yogyakarta,636711,-7.782778,110.360833
1312124,ie,cork,188908,51.8986111,-8.495833300000001
1313066,ie,dublin,1024027,53.3330556,-6.2488889
1318245,il,ashdod,202681,31.736056,34.655944
1318246,il,ashdod,202681,31.792133000000003,34.649656
1318266,il,ashqelon,108342,31.669256,34.571490000000004
1318385,il,bat yam,130973,32.023056,34.750278
1318520,il,bene beraq,140849,32.090278000000005,34.839721999999995
1319330,il,haifa,269961,32.815556,34.989167
1319590,il,jerusalem,714685,31.78,35.23
1320567,il,netanya,172405,32.332915,34.859918
1320915,il,ramat gan,126864,32.080556,34.814167
1321407,il,tel aviv-yafo,370480,32.067778000000004,34.764722
1321872,in,abohar,130613,30.15,74.18333299999999
1321888,in,achalpur,111287,21.257222,77.508611
1321964,in,adilabad,118539,19.666667,78.533333
1321980,in,adoni,163649,15.633333,77.283333
1322027,in,agartala,203292,23.836389,91.275
1322061,in,agra,1430194,27.183333,78.016667
1322103,in,ahmadabad,3719933,23.033333,72.616667
1322109,in,ahmadnagar,367168,19.083333,74.733333
1322180,in,aizawl,265353,23.724444,92.7175
1322210,in,ajmer,517947,26.45,74.633333
1322285,in,akola,428892,20.733333,77.0
1322344,in,alandur,153789,13.0025,80.20611099999999
1322357,in,alappuzha,176799,9.494167,76.3275
1322398,in,aligarh,753280,27.883333,78.083333
1322438,in,allahabad,1073544,25.45,81.85
1322501,in,alwar,283248,27.566667,76.6
1322590,in,ambala,146797,30.378333,76.780833
1322613,in,ambarnath,217778,19.2,73.166667
1322621,in,ambattur,341078,13.076667,80.088611
1322652,in,ambur,109883,12.783333,78.7
1322769,in,amravati,603885,20.933333,77.75
1322775,in,amritsar,1092528,31.633056,74.86555600000001
1322777,in,amroha,176271,28.916666999999997,78.466667
1322810,in,anand,138018,22.566667,72.93333299999999
1322830,in,anantapur,240469,14.683333,77.6
1323064,in,ara,223700,25.566667,84.666667
1323286,in,asansol,504320,23.683333,86.983333
1323522,in,aurangabad,1016520,19.883333,75.333333
1323543,in,avadi,250066,13.115556,80.101667
1323601,in,azamgarh,116655,26.06,83.186111
1323796,in,badlapur,104636,19.15,73.266667
1323843,in,bagaha,103866,27.1,84.083333
1324005,in,bahadurgarh,153666,28.683333,76.916667
1324034,in,baharampur,180564,24.1,88.25
1324084,in,bahraich,182236,27.583333000000003,81.6
1324106,in,baidyabati,115515,22.785,88.324722
1324400,in,baleshwar,114331,21.494167,86.931667
1324474,in,ballia,109722,25.75,84.166667
1324492,in,bally,297001,22.646111,88.340278
1324532,in,balurghat,141418,25.216667,88.766667
1324697,in,banda,152233,25.483333,80.333333
1324808,in,bangalore,4931603,12.983333,77.583333
1324815,in,bangaon,111704,23.066667,88.81666700000001
1324923,in,bankura,133979,23.25,87.06666700000001
1324963,in,bansbaria,108485,22.971944,88.39944399999999
1325147,in,barakpur,148188,22.761389,88.371944
1325174,in,baranagar,260097,22.643333,88.365278
1325202,in,barasat,298270,22.684167,88.44111099999999
1325260,in,barddhaman,301754,23.240556,87.869444
1325291,in,bareli,745509,28.35,79.416667
1325390,in,baripada,116227,21.935,86.721389
1325464,in,barnala,105024,30.383333,75.55
1325537,in,barsi,110992,18.233333,75.7
1325693,in,basirhat,117431,22.657222,88.89416700000001
1325728,in,basti,115126,26.8,82.716667
1325755,in,batala,145479,31.818610999999997,75.20277800000001
1325909,in,beawar,130786,26.1,74.31666700000001
1325948,in,begusarai,103071,25.416667,86.133333
1326046,in,belgaum,428756,15.866667,74.5
1326082,in,bellary,336710,15.15,76.93333299999999
1326247,in,bettiah,127022,26.8,84.5
1326348,in,bhadravati,163917,13.866667,75.716667
1326352,in,bhadreswar,121674,22.824444,88.35055600000001
1326379,in,bhagalpur,361587,25.25,87.0
1326686,in,bharatpur,229400,27.216667,77.483333
1326750,in,bharuch,153538,21.7,72.966667
1326820,in,bhatpara,483175,22.871389,88.408889
1326877,in,bhavnagar,555014,21.766667,72.15
1326985,in,bhilai,625203,21.216667,81.43333299999999
1326998,in,bhilwara,326454,25.35,74.633333
1327008,in,bhimavaram,142979,16.533333,81.533333
1327038,in,bhind,174053,26.564167,78.788333
1327069,in,bhiwandi,707090,19.3,73.06666700000001
1327070,in,bhiwani,190868,28.783333,76.133333
1327153,in,bhopal,1600080,23.266667,77.4
1327180,in,bhubaneswar,762307,20.233333,85.833333
1327195,in,bhuj,133458,23.266667,69.666667
1327266,in,bhusawal,183016,21.05,75.766667
1327333,in,bidar,204088,17.9,77.55
1327338,in,bid,148477,18.983333,75.766667
1327365,in,bihar,244256,25.183333,85.516667
1327396,in,bijapur,271087,16.833333,75.7
1327450,in,bikaner,576056,28.016667,73.3
1327487,in,bilaspur,282736,22.083333,82.15
1327882,in,bokaro,418578,23.783333,85.966667
1327914,in,bombay,12692717,18.975,72.82583299999999
1328054,in,botad,117060,22.166667,71.666667
1328092,in,brahmapur,324753,19.316667,84.783333
1328154,in,budaun,161571,28.05,79.116667
1328243,in,bulandshahr,198631,28.4,77.85
1328323,in,burhanpur,202717,21.3,76.233333
1328402,in,calcutta,4631819,22.569722,88.369722
1328774,in,champdani,103699,22.797778,88.365833
1328832,in,chandannagar,180640,22.869167,88.377222
1328860,in,chandausi,112646,28.45,78.766667
1328901,in,chandigarh,914374,30.7343,76.7933
1328962,in,chandrapur,328377,19.95,79.3
1329173,in,chas,112153,23.633333,86.166667
1329516,in,chhapra,197350,25.766667,84.75
1329546,in,chhatarpur,111606,24.9,79.6
1329603,in,chhindwara,134862,22.066667,78.93333299999999
1329732,in,chikmagalur,121494,13.316667,75.783333
1329993,in,chitradurga,138599,14.233332999999998,76.4
1330012,in,chittaurgarh,106718,24.883333,74.633333
1330223,in,churu,103541,28.3,74.95
1330310,in,cuddapah,127024,14.466667,78.81666700000001
1330657,in,damoh,118789,23.833333,79.45
1330830,in,darbhanga,287180,26.166667,85.9
1330883,in,darjiling,123808,27.033333,88.266667
1331144,in,dehra dun,522135,30.316667,78.033333
1331147,in,dehri,129952,24.866667,84.18333299999999
1331162,in,delhi,10928270,28.666666999999997,77.216667
1331265,in,deoria,113638,26.504721999999997,83.787222
1331473,in,dewas,261245,22.966667,76.06666700000001
1331625,in,dhanbad,219660,23.8,86.45
1331855,in,dharmavaram,114062,14.433333,77.716667
1331911,in,dhaulpur,102469,26.7,77.9
1332106,in,dhule,367010,20.9,74.783333
1332186,in,dibrugarh,122160,27.481667,94.902778
1332307,in,dimapur,135866,25.9,93.733333
1332323,in,dindigul,200814,10.35,77.95
1332777,in,dum dum,122731,22.622222,88.416944
1332884,in,durgapur,518922,23.483333,87.31666700000001
1332891,in,durg,255310,21.183333,81.283333
1333016,in,eluru,183401,16.7,81.1
1333055,in,erode,147283,11.35,77.733333
1333075,in,etah,120020,27.633333,78.666667
1333081,in,etawah,257472,26.7769,79.0239
1333096,in,faizabad,153062,26.783333,82.133333
1333132,in,faridabad,1280909,28.433333,77.31666700000001
1333145,in,farrukhabad,241176,27.4,79.56666700000001
1333193,in,fatehpur,166496,25.933333,80.8
1333237,in,firozabad,306439,27.15,78.416667
1333240,in,firozpur,102138,30.916666999999997,74.6
1333279,in,gadag,162583,15.416667000000002,75.616667
1333526,in,gandhidham,136605,23.083333,70.133333
1333530,in,gandhinagar,231314,23.216667,72.68333299999999
1333581,in,ganganagar,231855,29.916666999999997,73.883333
1333590,in,gangapur,120123,26.483333,76.716667
1333610,in,gangawati,106259,15.433333,76.533333
1333978,in,gaya,423737,24.783333,85.0
1334169,in,ghaziabad,1199306,28.666666999999997,77.43333299999999
1334177,in,ghazipur,103105,25.583333,83.56666700000001
1334463,in,godhra,131921,22.75,73.633333
1334623,in,gonda,133596,27.133333,81.93333299999999
1334624,in,gondal,101808,21.966667,70.8
1334732,in,gorakhpur,674312,26.755,83.373889
1334873,in,gudalur,160993,11.75,79.75
1334901,in,gudivada,116174,16.45,80.983333
1334999,in,gulbarga,483655,17.333333,76.833333
1335067,in,guna,153705,24.65,77.31666700000001
1335159,in,guntakal,120978,15.166667000000002,77.383333
1335163,in,guntur,530636,16.3,80.45
1335208,in,gurgaon,197353,28.466667,77.033333
1335293,in,guwahati,899132,26.183333,91.733333
1335299,in,gwalior,882551,26.223611,78.179167
1335325,in,habra,139310,22.834444,88.6275
1335408,in,hajipur,133621,25.683333,85.216667
1335442,in,haldia,207466,22.025278,88.05833299999999
1335448,in,haldwani,139512,29.216667,79.516667
1335468,in,halisahar,128184,22.949722,88.419444
1335606,in,hanumangarh,155698,29.583333000000003,74.31666700000001
1335624,in,haora,1027771,22.589167,88.310278
1335632,in,hapur,242944,28.716667,77.783333
1335675,in,hardoi,122647,27.116667,80.15
1335708,in,haridwar,186099,29.966667,78.166667
1335898,in,hassan,128542,13.000556,76.09944399999999
1335941,in,hathras,126895,27.6,78.05
1336010,in,hazaribag,140079,23.983333,85.35
1336118,in,hindupur,133313,13.828889000000002,77.49333299999999
1336195,in,hisar,296456,29.166666999999997,75.716667
1336286,in,hoshangabad,109370,22.75,77.716667
1336288,in,hoshiarpur,158154,31.532221999999997,75.917222
1336291,in,hospet,197862,15.266667000000002,76.4
1336293,in,hosur,103769,12.716667,77.81666700000001
1336309,in,hubli,840285,15.35,75.166667
1336412,in,hyderabad,3598199,17.375278,78.47444399999999
1336429,in,ichalkaranji,274405,16.7,74.466667
1336518,in,imphal,223537,24.816667,93.95
1336558,in,indore,1837230,22.716667,75.833333
1336584,in,ingraj bazar,170056,25.0,88.15
1336703,in,itarsi,100585,22.616667,77.75
1336731,in,jabalpur,1030276,23.166667,79.95
1336794,in,jagadhri,112590,30.166666999999997,77.3
1336928,in,jaipur,2711937,26.916666999999997,75.81666700000001
1337052,in,jalandhar,785234,31.325556,75.579167
1337107,in,jalna,262055,19.833333,75.883333
1337116,in,jalpaiguri,107843,26.516667,88.733333
1337138,in,jamalpur,100791,25.3,86.5
1337198,in,jammu,465600,32.733333,74.866667
1337199,in,jamnagar,492087,22.466667,70.06666700000001
1337226,in,jamshedpur,616404,22.8,86.18333299999999
1337249,in,jamuria,160257,23.7,87.083333
1337493,in,jaunpur,169589,25.733333,82.68333299999999
1337597,in,jetpur,118076,21.733333,70.616667
1337679,in,jhansi,412968,25.433333,78.583333
1337796,in,jhunjhunun,113201,28.1307,75.4014
1337850,in,jind,161271,29.316667,76.31666700000001
1337917,in,jodhpur,921540,26.286667,73.03
1338069,in,junagadh,184459,21.516667,70.466667
1338374,in,kaithal,140614,29.8,76.383333
1338431,in,kakinada,292956,16.933332999999998,82.216667
1338752,in,kalol,106958,23.25,72.483333
1338821,in,kalyan,1262355,19.25,73.15
1338877,in,kamarhati,332997,22.671111,88.37472199999999
1339029,in,kanchipuram,155043,12.833333,79.716667
1339031,in,kanchrapara,136967,22.97,88.431944
1339286,in,kanpur,2823523,26.466667,80.35
1339389,in,kapra,198349,17.486667,78.56611099999999
1339601,in,karimnagar,228770,18.433333,79.15
1339678,in,karnal,225064,29.683333,76.983333
1339850,in,kashipur,103149,29.216667,78.95
1339984,in,katihar,192575,25.533333,87.583333
1340581,in,khammam,170522,17.25,80.15
1340646,in,khandwa,182860,21.833333,76.333333
1340674,in,khanna,117146,30.704444,76.223056
1340719,in,kharagpur,219686,22.333333,87.333333
1340763,in,khardaha,128358,22.718611,88.378056
1341335,in,khurja,105920,28.25,77.85
1341599,in,kochi,604751,9.966667,76.233333
1341754,in,kolar,126452,13.133333,78.133333
1341766,in,kolhapur,516184,16.7,74.216667
1341794,in,kollam,394198,8.880556,76.591667
1341975,in,korba,419326,22.35,82.68333299999999
1342061,in,kota,763141,25.183333,75.833333
1342325,in,krishnanagar,145941,23.4,88.5
1342539,in,kulti,305434,23.733333,86.85
1342582,in,kumbakonam,139276,10.966667,79.383333
1343263,in,lakhimpur,140237,27.95,80.766667
1343277,in,lakhnau,2472250,26.85,80.916667
1343385,in,lalitpur,126487,24.683333,78.416667
1343622,in,latur,348994,18.4,76.583333
1343942,in,loni,164927,28.75,77.283333
1343994,in,ludhiana,1545476,30.9,75.85
1344112,in,machilipatnam,192848,16.166667,81.133333
1344144,in,madanapalle,108605,13.55,78.5
1344248,in,madhyamgram,161142,22.7,88.45
1344273,in,madras,4328416,13.083333,80.283333
1344292,in,madurai,909988,9.933333,78.116667
1344442,in,mahbubnagar,136150,16.733333,77.983333
1344469,in,mahesana,102675,23.6,72.4
1344658,in,maisuru,868385,12.307222,76.649722
1344899,in,malegaon,435397,20.55,74.533333
1344904,in,maler kotla,113848,30.516667,75.883333
1345313,in,mandsaur,125002,24.066667,75.06666700000001
1345331,in,mandya,134857,12.524167,76.895833
1345375,in,mangaluru,417423,12.863889,74.835278
1346001,in,mathura,330543,27.5,77.68333299999999
1346098,in,mau,246074,25.941667,83.561111
1346542,in,mirzapur,220051,25.15,82.583333
1346614,in,moga,130559,30.8,75.166667
1346816,in,moradabad,721210,28.833333000000003,78.783333
1346852,in,morena,152020,26.496944,78.0
1346873,in,mormugao,102355,15.4,73.8
1346893,in,morvi,118021,22.816667,70.833333
1346926,in,motihari,112156,26.65,84.916667
1347250,in,munger,203185,25.383333,86.466667
1347374,in,murwara,195877,23.85,80.4
1347453,in,muzaffarnagar,349741,29.466667,77.68333299999999
1347455,in,muzaffarpur,333235,26.116667,85.4
1347514,in,nadiad,202080,22.7,72.866667
1347630,in,nagda,103513,23.45,75.416667
1347635,in,nagercoil,213877,8.193889,77.431389
1347997,in,nagpur,2228191,21.15,79.1
1348079,in,naihati,253245,22.902778,88.416944
1348183,in,nalgonda,121839,17.05,79.266667
1348291,in,nanded,485150,19.15,77.333333
1348353,in,nandurbar,100711,21.366667,74.25
1348363,in,nandyal,165355,15.483332999999998,78.483333
1348393,in,nangloi jat,194381,28.683333,77.06666700000001
1348815,in,navadwip,111134,23.416667,88.366667
1348840,in,navsari,136204,20.85,72.916667
1349146,in,new delhi,10928270,28.6,77.2
1349152,in,neyveli,131213,11.533333,79.483333
1349460,in,nizamabad,305472,18.666667,78.116667
1349746,in,ongole,172891,15.5,80.05
1349764,in,orai,158280,25.983333,79.466667
1350110,in,palakkad,132740,10.7725,76.651389
1350133,in,palanpur,123301,24.166667,72.43333299999999
1350222,in,pali,210117,25.766667,73.333333
1350249,in,pallavaram,157158,12.976111,80.183611
1350312,in,palwal,121974,28.15,77.333333
1350515,in,panihati,378741,22.694167,88.374444
1350517,in,panipat,292828,29.388889,76.968056
1350592,in,panvel,128056,18.983333,73.1
1350738,in,parbhani,289652,19.266667,76.783333
1350981,in,patan,117871,23.833333,72.116667
1351038,in,pathankot,174319,32.283333,75.65
1351107,in,patiala,329248,30.326666999999997,76.400278
1351144,in,patna,1600085,25.6,85.116667
1351509,in,phagwara,100154,31.217778000000003,75.769444
1351721,in,pilibhit,131021,28.633333,79.8
1351759,in,pimpri,1284702,18.616667,73.8
1352085,in,pondicherry,227434,11.93,79.83
1352108,in,ponnani,105521,10.766667,75.9
1352132,in,porbandar,138881,21.633333,69.6
1352144,in,port blair,112062,11.666667,92.75
1352251,in,proddatur,177816,14.733332999999998,78.55
1352270,in,pudukkottai,112128,10.383333,78.81666700000001
1352364,in,pune,2935968,18.533333,73.866667
1352452,in,puri,170856,19.8,85.85
1352467,in,purnia,198474,25.783333,87.466667
1352481,in,puruliya,122544,23.333333,86.366667
1352830,in,rae bareli,186451,26.216667,81.233333
1352920,in,raichur,225981,16.2,77.366667
1352925,in,raiganj,170268,25.616667,88.116667
1352928,in,raigarh,121291,21.9,83.4
1352985,in,raipur,680066,21.233333,81.633333
1353035,in,rajamahendri,304838,16.983333,81.783333
1353049,in,rajapalaiyam,124179,9.45,77.56666700000001
1353130,in,rajkot,1177434,22.3,70.783333
1353175,in,rajpur,444549,22.4125,88.418056
1353451,in,rampur,296447,28.816667,79.033333
1353523,in,ranchi,945079,23.35,85.333333
1353605,in,raniganj,131274,23.616667,87.133333
1353822,in,ratlam,236868,23.316667,75.06666700000001
1353859,in,raurkela,226886,22.2,84.883333
1354062,in,rewa,208483,24.533333,81.3
1354064,in,rewari,112087,28.183333,76.616667
1354142,in,rishra,117026,22.714167,88.347778
1354163,in,robertsonpet,135229,12.966667,78.283333
1354198,in,rohtak,317266,28.9,76.56666700000001
1354542,in,sagar,247359,23.833333,78.716667
1354588,in,saharanpur,484921,29.966667,77.55
1354598,in,saharsa,145779,25.883333,86.6
1354988,in,sambalpur,162901,21.45,83.966667
1354993,in,sambhal,196129,28.583333000000003,78.55
1355648,in,sasaram,145798,24.95,84.033333
1355673,in,satara,112802,17.683332999999998,73.983333
1355736,in,satna,257805,24.583333,80.833333
1355833,in,sawai madhopur,108620,25.983333,76.366667
1355902,in,selam,778462,11.65,78.166667
1356018,in,seoni,101389,22.083333,79.533333
1356152,in,shahjahanpur,320466,27.883333,79.916667
1356282,in,shantipur,149998,23.25,88.466667
1356453,in,shiliguri,515623,26.716111,88.423611
1356457,in,shillong,132853,25.575556,91.873056
1356468,in,shimla,173517,31.103333000000003,77.17222199999999
1356471,in,shimoga,319577,13.922222,75.573611
1356558,in,sholapur,997358,17.683332999999998,75.916667
1356584,in,shrirampur,226338,22.752778,88.34222199999999
1356754,in,sikar,199946,27.616667,75.15
1356797,in,silchar,152399,24.816667,92.8
1357135,in,sirsa,181652,29.533333,75.016667
1357232,in,sitapur,164451,27.566667,80.68333299999999
1357289,in,siwan,119194,26.216667,84.366667
1357500,in,sonipat,250538,28.983333,77.016667
1357598,in,srikakulam,118312,18.3,83.9
1357613,in,srinagar,975926,34.092222,74.802222
1357820,in,sultanpur,110379,26.266667,82.06666700000001
1358006,in,surat,2894675,20.966667,72.9
1358017,in,surendranagar,179640,22.7,71.68333299999999
1358028,in,suriapet,111741,17.15,79.616667
1358160,in,tadepallegudem,108176,16.833333,81.5
1358439,in,tambaram,150056,12.927222,80.110556
1358866,in,tenali,151793,16.25,80.583333
1358994,in,thana,1486453,19.2,72.966667
1359006,in,thanesar,138288,29.983333,76.81666700000001
1359017,in,thanjavur,219591,10.8,79.15
1359130,in,thiruvananthapuram,784223,8.506944,76.956944
1359163,in,thrissur,325140,10.516667,76.216667
1359438,in,tiruchchirappalli,775551,10.805,78.685556
1359475,in,tirunelveli,435882,8.733333,77.7
1359481,in,tirupati,250849,13.65,79.416667
1359501,in,tiruppur,397554,11.1,77.35
1359535,in,tiruvannamalai,138255,12.216667,79.06666700000001
1359552,in,tiruvottiyur,229019,13.157778,80.304167
1359568,in,titagarh,127763,22.736389000000003,88.373611
1359660,in,tonk,151341,26.166667,75.783333
1359862,in,tumkur,307384,13.342222,77.101667
1360033,in,udgir,101072,18.383333,77.116667
1360061,in,udupi,129124,13.35,74.75
1360091,in,ujjain,457395,23.183333,75.766667
1360124,in,ulhasnagar,516625,19.216667,73.15
1360134,in,ulubaria,222293,22.471667,88.11361099999999
1360287,in,unnao,161687,26.533333,80.5
1360507,in,vadodara,1409565,22.3,73.2
1360694,in,varanasi,1164520,25.333333,83.0
1360778,in,vejalpur,121618,22.683333,73.56666700000001
1360815,in,velluru,177096,12.933333,79.133333
1360864,in,veraval,163336,20.9,70.366667
1360901,in,vidisha,140059,23.533333,77.81666700000001
1360922,in,vijayawada,874684,16.516667,80.616667
1360989,in,virar,150419,19.466667,72.8
1361016,in,visakhapatnam,1063293,17.7,83.3
1361049,in,vizianagaram,179379,18.116667,83.416667
1361211,in,warangal,557864,18.0,79.583333
1361223,in,wardha,113768,20.75,78.616667
1361404,in,yamunanagar,208945,30.1,77.283333
1361436,in,yavatmal,128185,20.4,78.133333
1361456,in,yelahanka,116457,13.1075,77.600278
1364651,iq,baghdad,5672516,33.3386111,44.39388889999999
1366209,iq,dahuk,129127,36.8658333,42.9997222
1369003,iq,irbil,932854,36.19,44.008888899999995
1370801,iq,kirkuk,601442,35.46805560000001,44.3922222
1379002,ir,abadan,370220,30.3392,48.3043
1381960,ir,ahvaz,854980,31.3203,48.6693
1384503,ir,amol,199398,36.469612,52.350724
1385914,ir,arak,503673,34.091741,49.689164
1386063,ir,ardabil,410773,38.2498,48.2933
1388662,ir,babol,202812,36.551321,52.678951
1391102,ir,bandar-e anzali,110834,37.4727,49.4622
1391443,ir,baneh,104939,35.9975,45.8853
1395410,ir,birjand,197004,32.866277000000004,59.221139
1395728,ir,bojnurd,192062,37.47473,57.32903100000001
1396748,ir,borujerd,251976,33.8973,48.7516
1397192,ir,bukan,213349,36.521,46.2089
1397561,ir,bushehr,157778,28.9684,50.8385
1411103,ir,dezful,212367,32.3825,48.402
1412267,ir,do rud,114404,33.5,49.0571
1414110,ir,esfahan,1547241,32.657218,51.677608
1414606,ir,eslamshahr,318855,35.5605,51.2346
1422035,ir,gonbad-e qabus,131427,37.250042,55.167207999999995
1422296,ir,gorgan,244955,36.838659,54.434749
1425219,ir,hamadan,514134,34.799215999999994,48.514556
1428960,ir,ilam,140951,33.6374,46.4227
1429226,ir,iranshahr,131242,27.202446,60.684757999999995
1430046,ir,jahrom,107910,28.5024,53.5534
1431416,ir,jiroft,111560,28.6535,57.7646
1437203,ir,karaj,1448996,35.8355,51.0103
1438257,ir,kashan,301107,33.9888,51.4773
1439361,ir,kerman,577547,30.283209000000003,57.078790000000005
1439366,ir,kermanshah,766742,34.314167,47.065
1442217,ir,khomeynishahr,277355,32.700175,51.521134
1442443,ir,khorramabad,329847,33.487778000000006,48.355833
1442504,ir,khorramshahr,331254,30.4397,48.1664
1442923,ir,khoy,175386,38.5503,44.9521
1446138,ir,kuhdasht,100216,33.535,47.6061
1450104,ir,mahabad,162448,36.7499,45.7229
1452005,ir,maragheh,168290,37.3893,46.2376
1452047,ir,marand,124201,38.4329,45.7749
1452316,ir,marivan,111495,35.527,46.1763
1452502,ir,marv dasht,129483,29.8742,52.8025
1452744,ir,mashhad,2307254,36.297,59.6062
1452864,ir,masjed-e soleyman,111522,31.9364,49.3039
1454749,ir,miandoab,132830,36.9694,46.1027
1460768,ir,neyshabur,220954,36.213288,58.79575500000001
1462567,ir,orumiyeh,602443,37.5553,45.0724
1464356,ir,parsabad,101715,39.6482,47.9174
1470594,ir,qarchak,251857,35.439444,51.568889
1471748,ir,qazvin,333652,36.2797,50.0049
1473172,ir,qom,1011103,34.6401,50.8764
1473412,ir,quchan,111765,37.105996999999995,58.509547
1473986,ir,rafsanjan,147691,30.4067,55.9939
1474679,ir,rasht,594619,37.280769,49.58319
1476732,ir,sabzevar,226208,36.212598,57.681906000000005
1478331,ir,sanandaj,349200,35.3144,46.9923
1478952,ir,saqqez,151249,36.2463,46.2665
1480369,ir,sari,255416,36.563319,53.060087
1481482,ir,saveh,175545,35.0213,50.3566
1482158,ir,semnan,124831,35.572914000000004,53.397139
1484887,ir,shahr-e kord,129167,32.325556,50.864444
1484961,ir,shahreza,100806,32.0089,51.8668
1485057,ir,shahrud,131895,36.418189,54.976282
1487345,ir,shiraz,1249972,29.6036,52.5388
1489423,ir,sirjan,207661,29.452,55.6814
1491448,ir,tabriz,1424701,38.08,46.2919
1497922,ir,varamin,179620,35.3242,51.6457
1499692,ir,yazd,477926,31.897221999999996,54.3675
1500354,ir,zabol,121999,31.0287,61.5012
1500997,ir,zanjan,357489,36.6736,48.4787
1503263,is,reykjavik,113907,64.15,-21.95
1503947,it,ancona,100982,43.633333,13.5
1504685,it,bari,303049,41.133333,16.85
1504896,it,bergamo,113603,45.683333000000005,9.716667
1505136,it,bologna,367168,44.483333,11.333333
1505553,it,brescia,193713,45.55,10.25
1505828,it,cagliari,157343,39.216667,9.116667
1508281,it,catania,307331,37.5,15.1
1510543,it,ferrara,131252,44.833333,11.583333
1510706,it,florence,347194,43.766667,11.25
1510727,it,foggia,143826,41.45,15.566667
1510860,it,forli,111574,44.223611,12.052778
1511373,it,genoa,585815,44.416667,8.95
1511552,it,giugliano in campania,107680,40.933333000000005,14.2
1512606,it,latina,124330,41.466667,12.866667
1512734,it,leghorn,146762,43.55,10.316667
1514147,it,messina,237956,38.183333000000005,15.566667
1514245,it,milan,1156903,45.466667,9.2
1514358,it,modena,180641,44.666667,10.916667
1515083,it,monza,120857,45.583333,9.266667
1515323,it,naples,981284,40.833333,14.25
1515497,it,novara,105903,45.466667,8.633333
1515909,it,padova,205247,45.416667,11.883333
1516024,it,palermo,669582,38.116667,13.366667
1516181,it,parma,155693,44.8,10.333333
1516445,it,perugia,157077,43.133333,12.366667
1516452,it,pescara,118136,42.466667,14.216667
1517744,it,prato,178915,43.883333,11.1
1518086,it,ravenna,143396,44.4175,12.201111
1518126,it,reggio di calabria,181990,38.1,15.65
1518258,it,rimini,132031,44.063333,12.580833
1518602,it,rome,2643736,41.9,12.483333
1518933,it,salerno,144147,40.683333000000005,14.783333
1520775,it,sassari,119187,40.727222,8.560278
1521865,it,syracuse,127666,37.066666999999995,15.3
1521933,it,taranto,191364,40.476111,17.229722
1522075,it,terni,108006,42.566666999999995,12.616667
1522593,it,trento,106703,46.066666999999995,11.133333
1522646,it,trieste,204379,45.648610999999995,13.78
1522727,it,turin,846489,45.05,7.666667
1523198,it,venice,259126,45.438611,12.326667
1523245,it,verona,247082,45.45,11.0
1523343,it,vicenza,108636,45.55,11.55
1525442,jm,kingston,583999,18.0,-76.8
1526029,jm,portmore,102865,17.966666699999998,-76.8666667
1526396,jm,spanish town,145024,17.9833333,-76.95
1527809,jo,irbid,296050,32.555556,35.85
1528813,jp,abiko,131774,35.866667,140.01666699999998
1528877,jp,ageo,219405,35.969722,139.588611
1529057,jp,akashi,297281,34.633333,134.98333300000002
1529100,jp,akishima,107926,35.720848,139.379991
1529101,jp,akita,320071,39.716667,140.116667
1529135,jp,amagasaki,442176,34.716667,135.416667
1529206,jp,anjo,168664,34.95,137.083333
1529392,jp,asahikawa,356615,43.767778,142.370278
1529404,jp,asaka,128061,35.804722,139.601944
1529451,jp,ashikaga,159673,36.333333,139.45
1529524,jp,atsugi,229203,35.438889,139.359722
1529696,jp,beppu,125067,33.273610999999995,131.491944
1529826,jp,chigasaki,231660,35.326111,139.403889
1529928,jp,chofu,212978,35.655556,139.552222
1530020,jp,daito,129523,34.7,135.616667
1530154,jp,ebetsu,133955,43.108056,141.550556
1530159,jp,ebina,123667,35.381212,139.396515
1530323,jp,fuchu,240082,35.666667,139.48333300000002
1530353,jp,fujieda,132860,34.866667,138.26666699999998
1530357,jp,fuji,240017,35.15,138.65
1530366,jp,fujimi,108462,35.873739,139.555375
1530376,jp,fujinomiya,121517,35.216667,138.616667
1530390,jp,fujisawa,394630,35.341944,139.47
1530467,jp,fukaya,106597,36.2,139.283333
1530573,jp,fukuyama,383302,34.483333,133.366667
1530589,jp,funabashi,560754,35.693056,139.98333300000002
1531049,jp,habikino,121052,34.534062,135.583343
1531076,jp,hachinohe,239047,40.505,141.491944
1531078,jp,hachioji,579402,35.655833,139.32388899999998
1531086,jp,hadano,174284,35.371111,139.223611
1531150,jp,hakodate,275733,41.775833,140.73666699999998
1531231,jp,hamamatsu,605105,34.7,137.73333300000002
1531339,jp,handa,116120,34.883333,136.933333
1531925,jp,hikone,110927,35.25,136.25
1531933,jp,himeji,481496,34.816666999999995,134.7
1531961,jp,hino,171778,35.673056,139.400278
1532003,jp,hirakata,406335,34.8,135.633333
1532058,jp,hiratsuka,259056,35.323056,139.342222
1532095,jp,hirosaki,174973,40.593056,140.4725
1532108,jp,hiroshima,1143850,34.434844,132.740622
1532146,jp,hitachi,186311,36.6,140.65
1532218,jp,hofu,116926,34.05,131.566667
1532520,jp,ibaraki,263408,34.816666999999995,135.566667
1532572,jp,ichihara,283537,35.516667,140.083333
1532588,jp,ichikawa,458249,35.719722,139.924722
1532614,jp,ichinomiya,280333,35.3,136.8
1532702,jp,iida,107112,35.516667,137.833333
1532804,jp,ikoma,117604,34.683333000000005,135.7
1532828,jp,imabari,115356,34.066666999999995,132.966667
1532975,jp,inazawa,102131,35.25,136.783333
1533081,jp,iruma,151548,35.845515999999996,139.412003
1533106,jp,isehara,103402,35.390556,139.307778
1533113,jp,isesaki,130694,36.316666999999995,139.2
1533199,jp,ishinomaki,117235,38.416667,141.3
1533295,jp,itami,193526,34.766667,135.416667
1533408,jp,iwaki,357313,37.05,140.883333
1533412,jp,iwakuni,104006,34.15,132.183333
1533472,jp,iwatsuki,108835,35.942778000000004,139.691944
1533530,jp,izumi,189087,34.483333,135.433333
1533602,jp,joetsu,136235,37.111749,138.268442
1533713,jp,kadoma,131729,34.733333,135.583333
1533832,jp,kakamigahara,132243,35.416667,136.866667
1533866,jp,kakogawa,271636,34.766667,134.85
1533889,jp,kamagaya,106288,35.803041,140.021792
1533897,jp,kamakura,166019,35.308889,139.550278
1534656,jp,kariya,139160,34.983333,136.98333300000002
1534707,jp,kashihara,126224,34.45,135.76666699999998
1534740,jp,kashiwa,340228,35.854444,139.968889
1534759,jp,kasugai,298591,35.233333,136.98333300000002
1534760,jp,kasuga,112300,33.526111,130.487032
1534769,jp,kasukabe,206919,35.976389000000005,139.753611
1534917,jp,kawagoe,337937,35.908611,139.485278
1534927,jp,kawaguchi,468574,35.805,139.72055600000002
1534996,jp,kawanishi,160522,34.816666999999995,135.416667
1535038,jp,kawasaki,1306804,35.520556,139.717222
1535303,jp,kiryu,110221,36.4,139.333333
1535312,jp,kisarazu,122527,35.374722,139.9225
1535322,jp,kishiwada,205563,34.466667,135.366667
1535411,jp,kitakyushu,997545,33.833333,130.833333
1535422,jp,kitami,113138,43.803056,143.890833
1535576,jp,kobe,1528487,34.691303999999995,135.182995
1535625,jp,kodaira,187369,35.726389000000005,139.48388899999998
1535668,jp,koganei,115968,35.691389,139.501111
1535805,jp,kokubunji,118682,35.702222,139.475556
1535841,jp,komaki,151026,35.283333,136.916667
1535861,jp,komatsu,109047,36.4,136.45
1535925,jp,konan,100390,35.333333,136.866667
1535964,jp,koriyama,340563,37.4,140.383333
1535996,jp,koshigaya,317443,35.883333,139.783333
1536259,jp,kumagaya,155816,36.133333,139.383333
1536362,jp,kurashiki,437585,34.583333,133.76666699999998
1536375,jp,kure,196626,34.233333,132.566667
1536486,jp,kurume,238199,33.316666999999995,130.51666699999998
1536513,jp,kusatsu,127681,35.016667,135.966667
1536597,jp,kuwana,113108,35.066666999999995,136.7
1536679,jp,machida,399971,35.540278,139.45083300000002
1536977,jp,matsubara,130857,34.566666999999995,135.55
1536986,jp,matsudo,470287,35.783333,139.9
1537018,jp,matsumoto,210669,36.233333,137.966667
1537038,jp,matsusaka,124614,34.566666999999995,136.533333
1537473,jp,misato,129695,35.860597,139.864486
1537487,jp,mishima,113480,35.116667,138.916667
1537508,jp,mitaka,178739,35.683333000000005,139.55
1537624,jp,miyakonojo,130995,31.733333,131.066667
1537852,jp,moriguchi,148352,34.733333,135.566667
1538116,jp,musashino,137480,35.706111,139.55944399999998
1538246,jp,nagaoka,195320,37.45,138.85
1538258,jp,nagareyama,156003,35.883333,139.933333
1538259,jp,nagareyama,156003,35.850556,139.891389
1538335,jp,nagoya,2191291,35.180198,136.906739
1538840,jp,narashino,156085,35.683333000000005,140.033333
1538852,jp,narita,100644,35.783333,140.316667
1538952,jp,neyagawa,245112,34.75,135.633333
1539021,jp,niigata,505276,37.902221999999995,139.02361100000002
1539024,jp,niihama,123061,33.959326000000004,133.316722
1539057,jp,niiza,153591,35.797915,139.52539099999998
1539283,jp,nishinomiya,468929,34.716667,135.333333
1539301,jp,nishio,103338,34.866667,137.05
1539406,jp,nobeoka,121951,32.583333,131.666667
1539433,jp,noda,121414,35.941111,139.858056
1539635,jp,numazu,204320,35.1,138.866667
1539724,jp,obihiro,173892,42.917221999999995,143.204444
1539814,jp,odawara,203038,35.255556,139.159722
1539868,jp,ogaki,150572,35.35,136.616667
1540187,jp,okazaki,352364,34.916667,137.15
1540205,jp,okinawa,125485,26.335833,127.801389
1540385,jp,ome,149324,35.783889,139.243056
1540445,jp,omuta,131975,33.033333,130.45
1540771,jp,ota,152106,36.3,139.366667
1540786,jp,otaru,143794,43.189444,141.002222
1540934,jp,oyama,159938,36.3,139.8
1541169,jp,sagamihara,648811,35.553056,139.354444
1541179,jp,saga,165237,33.249322,130.298799
1541226,jp,saitama,1077730,35.895534000000005,139.67747
1541273,jp,sakai,782347,34.583333,135.466667
1541318,jp,sakata,100446,38.916667,139.855
1541371,jp,sakura,182553,35.716667,140.23333300000002
1541428,jp,sanda,132864,34.883333,135.23333300000002
1541551,jp,sasebo,237446,33.159167,129.722778
1541625,jp,sayama,160846,35.824166999999996,139.376389
1541776,jp,seto,134247,35.233333,137.1
1542286,jp,shimonoseki,245789,33.95,130.95
1543023,jp,soka,231449,35.820278,139.804444
1543159,jp,suita,351634,34.75,135.533333
1543307,jp,suzuka,191479,34.883333,136.583333
1543356,jp,tachikawa,173696,35.692778000000004,139.418056
1543460,jp,tajimi,107819,35.316666999999995,137.133333
1543604,jp,takaoka,170079,36.75,137.01666699999998
1543611,jp,takarazuka,219790,34.8,135.35
1543619,jp,takasaki,240860,36.333333,139.01666699999998
1543689,jp,takatsuki,354472,34.85,135.616667
1543878,jp,tama,147477,35.643599,139.468436
1544280,jp,toda,118733,35.809444,139.6925
1544416,jp,tokorozawa,339441,35.786389,139.467778
1544448,jp,tokuyama,101134,34.05,131.816667
1544449,jp,tokyo,31480498,35.685,139.751389
1544454,jp,tomakomai,174808,42.636944,141.60333300000002
1544574,jp,tondabayashi,132875,34.5,135.6
1544682,jp,tottori,154099,35.5,134.23333300000002
1544718,jp,toyohashi,378377,34.766667,137.383333
1544728,jp,toyokawa,120538,34.816666999999995,137.4
1544735,jp,toyonaka,384463,34.783333,135.466667
1544756,jp,toyota,362386,35.083333,137.15
1544823,jp,tsuchiura,136386,36.090469,140.210473
1544928,jp,tsukuba,175593,36.083333,140.116667
1545094,jp,ube,173735,33.943056,131.251111
1545151,jp,ueda,126607,36.4,138.26666699999998
1545230,jp,uji,192926,34.883333,135.8
1545384,jp,urasoe,110284,26.259023,127.730124
1545404,jp,urayasu,143761,35.663338,139.908548
1545405,jp,urayasu,143761,35.670556,139.888611
1545772,jp,yachiyo,182894,35.735306,140.12445300000002
1545842,jp,yaizu,121059,34.866667,138.333333
1546099,jp,yao,273216,34.616667,135.6
1546164,jp,yatsushiro,104343,32.5,130.6
1546238,jp,yokkaichi,295843,34.966667,136.616667
1546289,jp,yokosuka,428999,35.283611,139.667222
1546315,jp,yonago,141369,35.433333000000005,133.333333
1546612,jp,zama,134674,35.488889,139.388611
1546966,ke,eldoret,218472,0.5166667,35.283333299999995
1548116,ke,kisumu,216479,-0.1,34.75
1548667,ke,mombasa,799727,-4.05,39.6666667
1548867,ke,nairobi,2750561,-1.2833333,36.8166667
1548872,ke,nakuru,259934,-0.2833333,36.0666667
1549197,ke,ruiru,114636,-1.15,36.966666700000005
1553008,kh,phnum penh,1573523,11.55,104.9166667
1626528,kr,seoul,10323448,37.5985,126.9783
1641229,kz,aktau,187700,43.65,51.2
1641442,kz,almaty,1204820,43.25,76.95
1641680,kz,aqtobe,262471,50.298056,57.181389
1641910,kz,astana,345621,51.181111,71.427778
1641961,kz,atyrau,146440,47.116667,51.883333
1644393,kz,ekibastuz,144133,51.666667,75.366667
1649915,kz,oskemen,319082,49.978889,82.61027800000001
1650056,kz,pavlodar,329014,52.3,76.95
1650191,kz,petropavl,200891,54.875278,69.162778
