Country_1,City_1,Population_1,Latitude_1,Longitude_1,Country_2,City_2,Population_2,Latitude_2,Longitude_2,Distance,Messages,Answers
cn,rongcheng,1001985,23.528858,116.364159,ru,angarsk,243161,52.536667,103.886389,3390.0455920497448,"[{'role': 'system', 'content': 'Answer in json format only: {""distance"": < e.g. ""1945.399479"" >}. The value must be in kilometers and no explanation, just the answer!'}, {'role': 'user', 'content': 'What is the distance between rongcheng, China and angarsk, Russian Federation?'}]","{""distance"": ""4344.667611""}"
py,fernando de la mora,120180,-25.316667,-57.6,ph,cebu,758597,10.311111,123.891667,18335.869385368725,"[{'role': 'system', 'content': 'Answer in json format only: {""distance"": < e.g. ""1945.399479"" >}. The value must be in kilometers and no explanation, just the answer!'}, {'role': 'user', 'content': 'What is the distance between fernando de la mora, Paraguay and cebu, Philippines?'}]","{""distance"": ""19445.399479""}"
cn,huangzhou,122563,30.45,114.8,cn,guiyang,1171633,26.583333000000003,106.716667,899.4781662039392,"[{'role': 'system', 'content': 'Answer in json format only: {""distance"": < e.g. ""1945.399479"" >}. The value must be in kilometers and no explanation, just the answer!'}, {'role': 'user', 'content': 'What is the distance between huangzhou, China and guiyang, China?'}]","{""distance"": ""1066.544""}"
tr,iskenderun,160046,36.587185,36.173468,au,cairns,154318,-16.92304,145.766251,12848.309266992212,"[{'role': 'system', 'content': 'Answer in json format only: {""distance"": < e.g. ""1945.399479"" >}. The value must be in kilometers and no explanation, just the answer!'}, {'role': 'user', 'content': 'What is the distance between iskenderun, Türkiye and cairns, Australia?'}]","{""distance"": ""14045.74167""}"
in,azamgarh,116655,26.06,83.186111,in,amritsar,1092528,31.633056,74.86555600000001,1019.5663256779692,"[{'role': 'system', 'content': 'Answer in json format only: {""distance"": < e.g. ""1945.399479"" >}. The value must be in kilometers and no explanation, just the answer!'}, {'role': 'user', 'content': 'What is the distance between azamgarh, India and amritsar, India?'}]","{""distance"": ""846.669251""}"
cl,concepcion,215414,-36.833333,-73.05,in,rajapalaiyam,124179,9.45,77.56666700000001,15780.013267015678,"[{'role': 'system', 'content': 'Answer in json format only: {""distance"": < e.g. ""1945.399479"" >}. The value must be in kilometers and no explanation, just the answer!'}, {'role': 'user', 'content': 'What is the distance between concepcion, Chile and rajapalaiyam, India?'}]","{""distance"": ""17337.682""}"
mx,guaymas,103454,27.933333,-110.9,us,los angeles,3877129,34.0522222,-118.2427778,975.1526708048608,"[{'role': 'system', 'content': 'Answer in json format only: {""distance"": < e.g. ""1945.399479"" >}. The value must be in kilometers and no explanation, just the answer!'}, {'role': 'user', 'content': 'What is the distance between guaymas, Mexico and los angeles, United States?'}]","{""distance"": ""768.185""}"
vn,hue,287228,16.466667,107.6,jp,izumi,189087,34.483333,135.433333,3417.4986650700043,"[{'role': 'system', 'content': 'Answer in json format only: {""distance"": < e.g. ""1945.399479"" >}. The value must be in kilometers and no explanation, just the answer!'}, {'role': 'user', 'content': 'What is the distance between hue, Viet Nam and izumi, Japan?'}]","{""distance"": ""3845.517685""}"
ly,sabha,126387,27.0333333,14.4333333,cn,shaowu,112585,27.340891,117.483096,9833.121563057744,"[{'role': 'system', 'content': 'Answer in json format only: {""distance"": < e.g. ""1945.399479"" >}. The value must be in kilometers and no explanation, just the answer!'}, {'role': 'user', 'content': 'What is the distance between sabha, Libya and shaowu, China?'}]","{""distance"": ""7945.899479""}"
my,shah alam,481670,3.083333,101.533333,us,columbus,736836,39.9611111,-82.99888890000001,15215.581706933011,"[{'role': 'system', 'content': 'Answer in json format only: {""distance"": < e.g. ""1945.399479"" >}. The value must be in kilometers and no explanation, just the answer!'}, {'role': 'user', 'content': 'What is the distance between shah alam, Malaysia and columbus, United States?'}]","{""distance"": ""17541.919""}"
in,brahmapur,324753,19.316667,84.783333,id,cikupa,174184,-6.228889,106.519444,3696.237620200349,"[{'role': 'system', 'content': 'Answer in json format only: {""distance"": < e.g. ""1945.399479"" >}. The value must be in kilometers and no explanation, just the answer!'}, {'role': 'user', 'content': 'What is the distance between brahmapur, India and cikupa, Indonesia?'}]","{""distance"": ""2985.367753""}"
id,sorong,125538,-0.883333,131.25,us,evansville,115474,37.9747222,-87.5558333,14308.732721881746,"[{'role': 'system', 'content': 'Answer in json format only: {""distance"": < e.g. ""1945.399479"" >}. The value must be in kilometers and no explanation, just the answer!'}, {'role': 'user', 'content': 'What is the distance between sorong, Indonesia and evansville, United States?'}]","{""distance"": ""15447.758907""}"
cn,xintai,222459,35.900556,117.751944,ly,tubruq,121052,32.083611100000006,23.9763889,8308.024509371371,"[{'role': 'system', 'content': 'Answer in json format only: {""distance"": < e.g. ""1945.399479"" >}. The value must be in kilometers and no explanation, just the answer!'}, {'role': 'user', 'content': 'What is the distance between xintai, China and tubruq, Libya?'}]","{""distance"": ""7945.514082""}"
cn,liaoyang,687890,41.226111,123.05611100000002,ph,meycauayan,184838,14.7328,120.96,2943.2519564908557,"[{'role': 'system', 'content': 'Answer in json format only: {""distance"": < e.g. ""1945.399479"" >}. The value must be in kilometers and no explanation, just the answer!'}, {'role': 'user', 'content': 'What is the distance between liaoyang, China and meycauayan, Philippines?'}]","{""distance"": ""2157.753191""}"
ir,arak,503673,34.091741,49.689164,id,sidoarjo,139205,-7.4478,112.7183,8063.185178100006,"[{'role': 'system', 'content': 'Answer in json format only: {""distance"": < e.g. ""1945.399479"" >}. The value must be in kilometers and no explanation, just the answer!'}, {'role': 'user', 'content': 'What is the distance between arak, Iran, Islamic Republic of and sidoarjo, Indonesia?'}]","{""distance"": ""7431.196111""}"
cn,yueyang,528140,29.140833,113.111111,jp,tomakomai,174808,42.636944,141.60333300000002,2955.325879971804,"[{'role': 'system', 'content': 'Answer in json format only: {""distance"": < e.g. ""1945.399479"" >}. The value must be in kilometers and no explanation, just the answer!'}, {'role': 'user', 'content': 'What is the distance between yueyang, China and tomakomai, Japan?'}]","{""distance"": ""1945.399479""}"
us,philadelphia,1453268,39.9522222,-75.1641667,cn,nanning,803788,22.816667,108.316667,13046.14505542886,"[{'role': 'system', 'content': 'Answer in json format only: {""distance"": < e.g. ""1945.399479"" >}. The value must be in kilometers and no explanation, just the answer!'}, {'role': 'user', 'content': 'What is the distance between philadelphia, United States and nanning, China?'}]","{""distance"": ""12585.469""}"
in,malegaon,435397,20.55,74.533333,de,bochum,387061,51.483333,7.216667,6682.546658825448,"[{'role': 'system', 'content': 'Answer in json format only: {""distance"": < e.g. ""1945.399479"" >}. The value must be in kilometers and no explanation, just the answer!'}, {'role': 'user', 'content': 'What is the distance between malegaon, India and bochum, Germany?'}]","{""distance"": ""6895.934121""}"
sa,mecca,1199659,21.426667,39.826111,ng,lafiagi,102780,8.866667,5.4166669999999995,3938.556071633049,"[{'role': 'system', 'content': 'Answer in json format only: {""distance"": < e.g. ""1945.399479"" >}. The value must be in kilometers and no explanation, just the answer!'}, {'role': 'user', 'content': 'What is the distance between mecca, Saudi Arabia and lafiagi, Nigeria?'}]","{""distance"": ""5395.887619""}"
ng,owerri,215053,5.483333,7.030407,fr,aix-en-provence,142133,43.528695,5.448791,4217.984479169169,"[{'role': 'system', 'content': 'Answer in json format only: {""distance"": < e.g. ""1945.399479"" >}. The value must be in kilometers and no explanation, just the answer!'}, {'role': 'user', 'content': 'What is the distance between owerri, Nigeria and aix-en-provence, France?'}]","{""distance"": ""4484.268""}"
in,ghaziabad,1199306,28.666666999999997,77.43333299999999,us,bakersfield,291389,35.3733333,-119.0177778,12709.78885403878,"[{'role': 'system', 'content': 'Answer in json format only: {""distance"": < e.g. ""1945.399479"" >}. The value must be in kilometers and no explanation, just the answer!'}, {'role': 'user', 'content': 'What is the distance between ghaziabad, India and bakersfield, United States?'}]","{""distance"": ""12573.041""}"
in,puri,170856,19.8,85.85,sz,manzini,110543,-26.4833333,31.366666700000003,7798.394600166308,"[{'role': 'system', 'content': 'Answer in json format only: {""distance"": < e.g. ""1945.399479"" >}. The value must be in kilometers and no explanation, just the answer!'}, {'role': 'user', 'content': 'What is the distance between puri, India and manzini, Eswatini?'}]","{""distance"": ""7577.951""}"
co,soledad,342562,10.918433,-74.76459,gr,thessaloniki,354291,40.6402778,22.9438889,9869.38784153345,"[{'role': 'system', 'content': 'Answer in json format only: {""distance"": < e.g. ""1945.399479"" >}. The value must be in kilometers and no explanation, just the answer!'}, {'role': 'user', 'content': 'What is the distance between soledad, Colombia and thessaloniki, Greece?'}]","{""distance"": ""10114.758827""}"
fr,lyon,463700,45.748457,4.846711,mx,uruapan,237319,19.416667,-102.066667,9725.62521336279,"[{'role': 'system', 'content': 'Answer in json format only: {""distance"": < e.g. ""1945.399479"" >}. The value must be in kilometers and no explanation, just the answer!'}, {'role': 'user', 'content': 'What is the distance between lyon, France and uruapan, Mexico?'}]","{""distance"": ""9181.036205""}"
sd,sinnar,130138,13.55,33.6333333,tr,esenyurt,211443,41.033333,28.675278,3083.6470590517124,"[{'role': 'system', 'content': 'Answer in json format only: {""distance"": < e.g. ""1945.399479"" >}. The value must be in kilometers and no explanation, just the answer!'}, {'role': 'user', 'content': 'What is the distance between sinnar, Sudan and esenyurt, Türkiye?'}]","{""distance"": ""3294.241""}"
br,itaquaquecetuba,336686,-23.483333,-46.35,br,porto velho,306206,-8.766667,-63.9,2479.961390690499,"[{'role': 'system', 'content': 'Answer in json format only: {""distance"": < e.g. ""1945.399479"" >}. The value must be in kilometers and no explanation, just the answer!'}, {'role': 'user', 'content': 'What is the distance between itaquaquecetuba, Brazil and porto velho, Brazil?'}]","{""distance"": ""2814.741""}"
cn,xiangfan,462956,32.042203,112.144794,in,udupi,129124,13.35,74.75,4331.9848329988135,"[{'role': 'system', 'content': 'Answer in json format only: {""distance"": < e.g. ""1945.399479"" >}. The value must be in kilometers and no explanation, just the answer!'}, {'role': 'user', 'content': 'What is the distance between xiangfan, China and udupi, India?'}]","{""distance"": ""3945.117964""}"
in,nadiad,202080,22.7,72.866667,us,las vegas,540111,36.175,-115.1363889,13433.901786388791,"[{'role': 'system', 'content': 'Answer in json format only: {""distance"": < e.g. ""1945.399479"" >}. The value must be in kilometers and no explanation, just the answer!'}, {'role': 'user', 'content': 'What is the distance between nadiad, India and las vegas, United States?'}]","{""distance"": ""13057.855""}"
tr,van,371911,38.492393,43.383109999999995,in,baidyabati,115515,22.785,88.324722,4592.815498342804,"[{'role': 'system', 'content': 'Answer in json format only: {""distance"": < e.g. ""1945.399479"" >}. The value must be in kilometers and no explanation, just the answer!'}, {'role': 'user', 'content': 'What is the distance between van, Türkiye and baidyabati, India?'}]","{""distance"": ""4144.549197""}"
cn,zigong,689961,29.341621999999997,104.776887,pl,kielce,208598,50.833333,20.666667,7144.824153043519,"[{'role': 'system', 'content': 'Answer in json format only: {""distance"": < e.g. ""1945.399479"" >}. The value must be in kilometers and no explanation, just the answer!'}, {'role': 'user', 'content': 'What is the distance between zigong, China and kielce, Poland?'}]","{""distance"": ""7385.391111""}"
de,halle,232452,51.5,12.0,id,lembang,183283,-6.786389,107.7025,10990.138526085051,"[{'role': 'system', 'content': 'Answer in json format only: {""distance"": < e.g. ""1945.399479"" >}. The value must be in kilometers and no explanation, just the answer!'}, {'role': 'user', 'content': 'What is the distance between halle, Germany and lembang, Indonesia?'}]","{""distance"": ""10811.669778""}"
in,thanjavur,219591,10.8,79.15,fr,nimes,137532,43.833778,4.359623,7967.207182187447,"[{'role': 'system', 'content': 'Answer in json format only: {""distance"": < e.g. ""1945.399479"" >}. The value must be in kilometers and no explanation, just the answer!'}, {'role': 'user', 'content': 'What is the distance between thanjavur, India and nimes, France?'}]","{""distance"": ""8147.667963""}"
mx,queretaro,611803,20.6,-100.383333,br,arapiraca,166566,-9.75,-36.65,7738.3378396246335,"[{'role': 'system', 'content': 'Answer in json format only: {""distance"": < e.g. ""1945.399479"" >}. The value must be in kilometers and no explanation, just the answer!'}, {'role': 'user', 'content': 'What is the distance between queretaro, Mexico and arapiraca, Brazil?'}]","{""distance"": ""7431.967431""}"
us,charlotte,598351,35.226944399999994,-80.8433333,it,leghorn,146762,43.55,10.316667,7504.488406426655,"[{'role': 'system', 'content': 'Answer in json format only: {""distance"": < e.g. ""1945.399479"" >}. The value must be in kilometers and no explanation, just the answer!'}, {'role': 'user', 'content': 'What is the distance between charlotte, United States and leghorn, Italy?'}]","{""distance"": ""7584.963""}"
cn,wuhan,4184206,30.580125,114.273405,lb,bayrut,1252010,33.8719444,35.5097222,7240.979321770854,"[{'role': 'system', 'content': 'Answer in json format only: {""distance"": < e.g. ""1945.399479"" >}. The value must be in kilometers and no explanation, just the answer!'}, {'role': 'user', 'content': 'What is the distance between wuhan, China and bayrut, Lebanon?'}]","{""distance"": ""6945.538712""}"
id,sukaraja,157205,-6.587778,106.8375,pk,jhelum,164128,32.933132,73.72636700000001,5602.837684571317,"[{'role': 'system', 'content': 'Answer in json format only: {""distance"": < e.g. ""1945.399479"" >}. The value must be in kilometers and no explanation, just the answer!'}, {'role': 'user', 'content': 'What is the distance between sukaraja, Indonesia and jhelum, Pakistan?'}]","{""distance"": ""4628.914""}"
sk,kosice,236563,48.716666700000005,21.25,ng,aba,897613,5.106576,7.366667,5009.461982532149,"[{'role': 'system', 'content': 'Answer in json format only: {""distance"": < e.g. ""1945.399479"" >}. The value must be in kilometers and no explanation, just the answer!'}, {'role': 'user', 'content': 'What is the distance between kosice, Slovakia and aba, Nigeria?'}]","{""distance"": ""5223.756213""}"
in,satara,112802,17.683332999999998,73.983333,cn,harbin,3229883,45.75,126.65,5744.409167570057,"[{'role': 'system', 'content': 'Answer in json format only: {""distance"": < e.g. ""1945.399479"" >}. The value must be in kilometers and no explanation, just the answer!'}, {'role': 'user', 'content': 'What is the distance between satara, India and harbin, China?'}]","{""distance"": ""4457.481151""}"
ca,kelowna,125110,49.9,-119.483333,in,bhubaneswar,762307,20.233333,85.833333,11846.624146316182,"[{'role': 'system', 'content': 'Answer in json format only: {""distance"": < e.g. ""1945.399479"" >}. The value must be in kilometers and no explanation, just the answer!'}, {'role': 'user', 'content': 'What is the distance between kelowna, Canada and bhubaneswar, India?'}]","{""distance"": ""11417.413048""}"
tz,musoma,121125,-1.5,33.8,jp,hachinohe,239047,40.505,141.491944,11610.939837729824,"[{'role': 'system', 'content': 'Answer in json format only: {""distance"": < e.g. ""1945.399479"" >}. The value must be in kilometers and no explanation, just the answer!'}, {'role': 'user', 'content': 'What is the distance between musoma, Tanzania, United Republic of and hachinohe, Japan?'}]","{""distance"": ""11036.838201""}"
ru,blagoveshchensk,221298,50.266667,127.533333,cl,santiago,4837248,-33.45,-70.666667,17621.761753611743,"[{'role': 'system', 'content': 'Answer in json format only: {""distance"": < e.g. ""1945.399479"" >}. The value must be in kilometers and no explanation, just the answer!'}, {'role': 'user', 'content': 'What is the distance between blagoveshchensk, Russian Federation and santiago, Chile?'}]","{""distance"": ""17417.418478""}"
ml,sikasso,144801,11.3166667,-5.6666667,id,rancaekek,152108,-6.960278,107.7575,12716.450946703186,"[{'role': 'system', 'content': 'Answer in json format only: {""distance"": < e.g. ""1945.399479"" >}. The value must be in kilometers and no explanation, just the answer!'}, {'role': 'user', 'content': 'What is the distance between sikasso, Mali and rancaekek, Indonesia?'}]","{""distance"": ""12857.411""}"
us,corona,152954,33.8752778,-117.56555559999998,cn,qianguo,113611,45.117115000000005,124.856761,9238.771633671786,"[{'role': 'system', 'content': 'Answer in json format only: {""distance"": < e.g. ""1945.399479"" >}. The value must be in kilometers and no explanation, just the answer!'}, {'role': 'user', 'content': 'What is the distance between corona, United States and qianguo, China?'}]","{""distance"": ""9446.341""}"
ir,khorramabad,329847,33.487778000000006,48.355833,ru,bratsk,259994,56.1497,101.6085,4744.685588647794,"[{'role': 'system', 'content': 'Answer in json format only: {""distance"": < e.g. ""1945.399479"" >}. The value must be in kilometers and no explanation, just the answer!'}, {'role': 'user', 'content': 'What is the distance between khorramabad, Iran, Islamic Republic of and bratsk, Russian Federation?'}]","{""distance"": ""4947.819""}"
mx,tlaquepaque,493667,20.65,-103.316667,sd,rabak,135389,13.15,32.7333333,13933.093469309424,"[{'role': 'system', 'content': 'Answer in json format only: {""distance"": < e.g. ""1945.399479"" >}. The value must be in kilometers and no explanation, just the answer!'}, {'role': 'user', 'content': 'What is the distance between tlaquepaque, Mexico and rabak, Sudan?'}]","{""distance"": ""13411.669352""}"
pl,zabrze,192177,50.306355,18.783333,cn,zhaocheng,100774,37.359167,120.396389,7648.479361792543,"[{'role': 'system', 'content': 'Answer in json format only: {""distance"": < e.g. ""1945.399479"" >}. The value must be in kilometers and no explanation, just the answer!'}, {'role': 'user', 'content': 'What is the distance between zabrze, Poland and zhaocheng, China?'}]","{""distance"": ""7457.492""}"
ru,bataysk,109964,47.139747,39.75181,ru,kurgan,343132,55.45,65.333333,1993.6823889075577,"[{'role': 'system', 'content': 'Answer in json format only: {""distance"": < e.g. ""1945.399479"" >}. The value must be in kilometers and no explanation, just the answer!'}, {'role': 'user', 'content': 'What is the distance between bataysk, Russian Federation and kurgan, Russian Federation?'}]","{""distance"": ""1945.399479""}"
cn,huicheng,125919,23.038449,116.28988,es,albacete,155083,38.995845,-1.857773,10607.645562091348,"[{'role': 'system', 'content': 'Answer in json format only: {""distance"": < e.g. ""1945.399479"" >}. The value must be in kilometers and no explanation, just the answer!'}, {'role': 'user', 'content': 'What is the distance between huicheng, China and albacete, Spain?'}]","{""distance"": ""9467.391855""}"
cn,yancheng,628441,33.385556,120.125278,za,botshabelo,309810,-29.123036,26.773653999999997,12011.455315052464,"[{'role': 'system', 'content': 'Answer in json format only: {""distance"": < e.g. ""1945.399479"" >}. The value must be in kilometers and no explanation, just the answer!'}, {'role': 'user', 'content': 'What is the distance between yancheng, China and botshabelo, South Africa?'}]","{""distance"": ""11447.517""}"
tz,shinyanga,107365,-3.6666667,33.4333333,ph,tarlac,182413,15.489449,120.591932,9821.17193891688,"[{'role': 'system', 'content': 'Answer in json format only: {""distance"": < e.g. ""1945.399479"" >}. The value must be in kilometers and no explanation, just the answer!'}, {'role': 'user', 'content': 'What is the distance between shinyanga, Tanzania, United Republic of and tarlac, Philippines?'}]","{""distance"": ""9445.899479""}"
np,biratnagar,182331,26.4833333,87.2833333,id,klaten,126845,-7.705833,110.606389,4544.838662701112,"[{'role': 'system', 'content': 'Answer in json format only: {""distance"": < e.g. ""1945.399479"" >}. The value must be in kilometers and no explanation, just the answer!'}, {'role': 'user', 'content': 'What is the distance between biratnagar, Nepal and klaten, Indonesia?'}]","{""distance"": ""4456.251116""}"
us,richmond,103041,37.9358333,-122.3466667,ng,umuahia,264680,5.526269,7.489589,12949.32545713017,"[{'role': 'system', 'content': 'Answer in json format only: {""distance"": < e.g. ""1945.399479"" >}. The value must be in kilometers and no explanation, just the answer!'}, {'role': 'user', 'content': 'What is the distance between richmond, United States and umuahia, Nigeria?'}]","{""distance"": ""8641.390728""}"
cu,las tunas,203690,20.9616667,-76.95111109999999,br,guaruja,310430,-24.0,-46.266667,5982.973066902769,"[{'role': 'system', 'content': 'Answer in json format only: {""distance"": < e.g. ""1945.399479"" >}. The value must be in kilometers and no explanation, just the answer!'}, {'role': 'user', 'content': 'What is the distance between las tunas, Cuba and guaruja, Brazil?'}]","{""distance"": ""6237.491""}"
jp,nagaoka,195320,37.45,138.85,ng,enugu,653436,6.4402,7.4943,13016.448293180632,"[{'role': 'system', 'content': 'Answer in json format only: {""distance"": < e.g. ""1945.399479"" >}. The value must be in kilometers and no explanation, just the answer!'}, {'role': 'user', 'content': 'What is the distance between nagaoka, Japan and enugu, Nigeria?'}]","{""distance"": ""13457.411""}"
mx,san luis rio colorado,139261,32.463056,-114.776667,bo,la paz,812819,-16.5,-68.15,7349.163253628089,"[{'role': 'system', 'content': 'Answer in json format only: {""distance"": < e.g. ""1945.399479"" >}. The value must be in kilometers and no explanation, just the answer!'}, {'role': 'user', 'content': 'What is the distance between san luis rio colorado, Mexico and la paz, Bolivia, Plurinational State of?'}]","{""distance"": ""5481.367""}"
kz,aktau,187700,43.65,51.2,cn,yaan,108758,29.989788,103.003694,4779.261905423138,"[{'role': 'system', 'content': 'Answer in json format only: {""distance"": < e.g. ""1945.399479"" >}. The value must be in kilometers and no explanation, just the answer!'}, {'role': 'user', 'content': 'What is the distance between aktau, Kazakhstan and yaan, China?'}]","{""distance"": ""3496.742119""}"
us,jacksonville,797557,30.3319444,-81.6558333,ng,kishi,155520,9.083333,3.85,9080.776694697322,"[{'role': 'system', 'content': 'Answer in json format only: {""distance"": < e.g. ""1945.399479"" >}. The value must be in kilometers and no explanation, just the answer!'}, {'role': 'user', 'content': 'What is the distance between jacksonville, United States and kishi, Nigeria?'}]","{""distance"": ""8941.419119""}"
cn,linfen,232566,36.088889,111.518889,br,juazeiro,137807,-9.5,-40.5,15933.905452313442,"[{'role': 'system', 'content': 'Answer in json format only: {""distance"": < e.g. ""1945.399479"" >}. The value must be in kilometers and no explanation, just the answer!'}, {'role': 'user', 'content': 'What is the distance between linfen, China and juazeiro, Brazil?'}]","{""distance"": ""17475.491""}"
za,orkney,145843,-26.980232,26.672717,jp,atsugi,229203,35.438889,139.359722,13663.474930996825,"[{'role': 'system', 'content': 'Answer in json format only: {""distance"": < e.g. ""1945.399479"" >}. The value must be in kilometers and no explanation, just the answer!'}, {'role': 'user', 'content': 'What is the distance between orkney, South Africa and atsugi, Japan?'}]","{""distance"": ""17441.822298""}"
cn,qingyuan,151287,23.7,113.033333,ng,birnin kebbi,108172,12.453889,4.1975,11318.247086636638,"[{'role': 'system', 'content': 'Answer in json format only: {""distance"": < e.g. ""1945.399479"" >}. The value must be in kilometers and no explanation, just the answer!'}, {'role': 'user', 'content': 'What is the distance between qingyuan, China and birnin kebbi, Nigeria?'}]","{""distance"": ""10411.491642""}"
eg,qena,235390,26.17,32.7272222,jo,irbid,296050,32.555556,35.85,769.8786438274444,"[{'role': 'system', 'content': 'Answer in json format only: {""distance"": < e.g. ""1945.399479"" >}. The value must be in kilometers and no explanation, just the answer!'}, {'role': 'user', 'content': 'What is the distance between qena, Egypt and irbid, Jordan?'}]","{""distance"": ""541.411618""}"
ca,vancouver,1837970,49.25,-123.133333,tw,hsintien,275698,24.95,121.53333329999998,9602.914995144389,"[{'role': 'system', 'content': 'Answer in json format only: {""distance"": < e.g. ""1945.399479"" >}. The value must be in kilometers and no explanation, just the answer!'}, {'role': 'user', 'content': 'What is the distance between vancouver, Canada and hsintien, Taiwan, Province of China?'}]","{""distance"": ""8177.492""}"
ru,saransk,303397,54.1838,45.1749,mx,aguascalientes,658193,21.883333,-102.3,11022.142450144232,"[{'role': 'system', 'content': 'Answer in json format only: {""distance"": < e.g. ""1945.399479"" >}. The value must be in kilometers and no explanation, just the answer!'}, {'role': 'user', 'content': 'What is the distance between saransk, Russian Federation and aguascalientes, Mexico?'}]","{""distance"": ""10314.74194""}"
ir,khomeynishahr,277355,32.700175,51.521134,co,manizales,357819,5.068890000000001,-75.517383,13046.049898762978,"[{'role': 'system', 'content': 'Answer in json format only: {""distance"": < e.g. ""1945.399479"" >}. The value must be in kilometers and no explanation, just the answer!'}, {'role': 'user', 'content': 'What is the distance between khomeynishahr, Iran, Islamic Republic of and manizales, Colombia?'}]","{""distance"": ""12731.901298""}"
gb,oxford,154567,51.75,-1.25,es,madrid,3102644,40.408566,-3.69222,1274.5123067988302,"[{'role': 'system', 'content': 'Answer in json format only: {""distance"": < e.g. ""1945.399479"" >}. The value must be in kilometers and no explanation, just the answer!'}, {'role': 'user', 'content': 'What is the distance between oxford, United Kingdom and madrid, Spain?'}]","{""distance"": ""1437.341""}"
in,ratlam,236868,23.316667,75.06666700000001,mx,puebla,1392137,19.05,-98.2,15261.109943661992,"[{'role': 'system', 'content': 'Answer in json format only: {""distance"": < e.g. ""1945.399479"" >}. The value must be in kilometers and no explanation, just the answer!'}, {'role': 'user', 'content': 'What is the distance between ratlam, India and puebla, Mexico?'}]","{""distance"": ""15475.041""}"
ph,cagayan de oro,445212,8.481111,124.643056,mx,los reyes,251179,19.35,-98.966667,14339.456896344043,"[{'role': 'system', 'content': 'Answer in json format only: {""distance"": < e.g. ""1945.399479"" >}. The value must be in kilometers and no explanation, just the answer!'}, {'role': 'user', 'content': 'What is the distance between cagayan de oro, Philippines and los reyes, Mexico?'}]","{""distance"": ""14517.64111""}"
cn,guangzhou,3152825,23.116667,113.25,ir,mahabad,162448,36.7499,45.7229,6559.950428611874,"[{'role': 'system', 'content': 'Answer in json format only: {""distance"": < e.g. ""1945.399479"" >}. The value must be in kilometers and no explanation, just the answer!'}, {'role': 'user', 'content': 'What is the distance between guangzhou, China and mahabad, Iran, Islamic Republic of?'}]","{""distance"": ""5791.415221""}"
sv,san salvador,526013,13.7086111,-89.2030556,ml,mopti,108790,14.5,-4.2,9116.447952196711,"[{'role': 'system', 'content': 'Answer in json format only: {""distance"": < e.g. ""1945.399479"" >}. The value must be in kilometers and no explanation, just the answer!'}, {'role': 'user', 'content': 'What is the distance between san salvador, El Salvador and mopti, Mali?'}]","{""distance"": ""8940.976942""}"
in,navsari,136204,20.85,72.916667,ke,nakuru,259934,-0.2833333,36.0666667,4640.80776915339,"[{'role': 'system', 'content': 'Answer in json format only: {""distance"": < e.g. ""1945.399479"" >}. The value must be in kilometers and no explanation, just the answer!'}, {'role': 'user', 'content': 'What is the distance between navsari, India and nakuru, Kenya?'}]","{""distance"": ""5681.391056""}"
ir,abadan,370220,30.3392,48.3043,ng,ugep,200293,5.8086,8.0812,5005.895097116158,"[{'role': 'system', 'content': 'Answer in json format only: {""distance"": < e.g. ""1945.399479"" >}. The value must be in kilometers and no explanation, just the answer!'}, {'role': 'user', 'content': 'What is the distance between abadan, Iran, Islamic Republic of and ugep, Nigeria?'}]","{""distance"": ""5741.415101""}"
by,hrodna,317366,53.681388899999995,23.8147222,za,brits,122576,-25.634731,27.780224,8795.167783684676,"[{'role': 'system', 'content': 'Answer in json format only: {""distance"": < e.g. ""1945.399479"" >}. The value must be in kilometers and no explanation, just the answer!'}, {'role': 'user', 'content': 'What is the distance between hrodna, Belarus and brits, South Africa?'}]","{""distance"": ""9137.041""}"
jp,kashihara,126224,34.45,135.76666699999998,in,karnal,225064,29.683333,76.983333,5498.591835262688,"[{'role': 'system', 'content': 'Answer in json format only: {""distance"": < e.g. ""1945.399479"" >}. The value must be in kilometers and no explanation, just the answer!'}, {'role': 'user', 'content': 'What is the distance between kashihara, Japan and karnal, India?'}]","{""distance"": ""5835.041911""}"
ru,pskov,201992,57.8136,28.3496,in,agartala,203292,23.836389,91.275,6198.25963198404,"[{'role': 'system', 'content': 'Answer in json format only: {""distance"": < e.g. ""1945.399479"" >}. The value must be in kilometers and no explanation, just the answer!'}, {'role': 'user', 'content': 'What is the distance between pskov, Russian Federation and agartala, India?'}]","{""distance"": ""4947.415819""}"
ma,rabat,1894386,34.013784,-6.844268,bd,bhairab bazar,105470,24.0666667,90.9666667,9223.900046379642,"[{'role': 'system', 'content': 'Answer in json format only: {""distance"": < e.g. ""1945.399479"" >}. The value must be in kilometers and no explanation, just the answer!'}, {'role': 'user', 'content': 'What is the distance between rabat, Morocco and bhairab bazar, Bangladesh?'}]","{""distance"": ""7945.341117""}"
id,ungaran,127873,-7.139722,110.405,us,chandler,234297,33.3061111,-111.8405556,14799.765150001846,"[{'role': 'system', 'content': 'Answer in json format only: {""distance"": < e.g. ""1945.399479"" >}. The value must be in kilometers and no explanation, just the answer!'}, {'role': 'user', 'content': 'What is the distance between ungaran, Indonesia and chandler, United States?'}]","{""distance"": ""15517.392""}"
gq,bata,173036,1.85,9.75,us,fort lauderdale,170510,26.1219444,-80.14361109999999,9915.059236782812,"[{'role': 'system', 'content': 'Answer in json format only: {""distance"": < e.g. ""1945.399479"" >}. The value must be in kilometers and no explanation, just the answer!'}, {'role': 'user', 'content': 'What is the distance between bata, Equatorial Guinea and fort lauderdale, United States?'}]","{""distance"": ""9447.492618""}"
cn,suzhou,1343091,31.311389,120.618056,id,weru,139013,-6.711,108.5037,4400.773106250039,"[{'role': 'system', 'content': 'Answer in json format only: {""distance"": < e.g. ""1945.399479"" >}. The value must be in kilometers and no explanation, just the answer!'}, {'role': 'user', 'content': 'What is the distance between suzhou, China and weru, Indonesia?'}]","{""distance"": ""4587.414""}"
de,nuremberg,497593,49.447778,11.068333,cn,haicheng,191651,40.851582,122.747537,7985.2423237008925,"[{'role': 'system', 'content': 'Answer in json format only: {""distance"": < e.g. ""1945.399479"" >}. The value must be in kilometers and no explanation, just the answer!'}, {'role': 'user', 'content': 'What is the distance between nuremberg, Germany and haicheng, China?'}]","{""distance"": ""7447.492""}"
id,taman,126875,-7.1785,112.8978,za,port elizabeth,967722,-33.917988,25.570066,9326.26797608222,"[{'role': 'system', 'content': 'Answer in json format only: {""distance"": < e.g. ""1945.399479"" >}. The value must be in kilometers and no explanation, just the answer!'}, {'role': 'user', 'content': 'What is the distance between taman, Indonesia and port elizabeth, South Africa?'}]","{""distance"": ""10415.847""}"
br,montes claros,332384,-16.716667,-43.866667,lk,kotte,118199,6.902777799999999,79.9083333,13831.577167019364,"[{'role': 'system', 'content': 'Answer in json format only: {""distance"": < e.g. ""1945.399479"" >}. The value must be in kilometers and no explanation, just the answer!'}, {'role': 'user', 'content': 'What is the distance between montes claros, Brazil and kotte, Sri Lanka?'}]","{""distance"": ""15417.411""}"
cn,xinxiang,743601,35.308889,113.867222,in,basti,115126,26.8,82.716667,3104.4189133512054,"[{'role': 'system', 'content': 'Answer in json format only: {""distance"": < e.g. ""1945.399479"" >}. The value must be in kilometers and no explanation, just the answer!'}, {'role': 'user', 'content': 'What is the distance between xinxiang, China and basti, India?'}]","{""distance"": ""2556.491955""}"
bd,dinajpur,206251,25.6333333,88.6333333,vn,hanoi,1431377,21.033333,105.85,1831.237711471903,"[{'role': 'system', 'content': 'Answer in json format only: {""distance"": < e.g. ""1945.399479"" >}. The value must be in kilometers and no explanation, just the answer!'}, {'role': 'user', 'content': 'What is the distance between dinajpur, Bangladesh and hanoi, Viet Nam?'}]","{""distance"": ""1915.479""}"
br,sobral,157998,-3.7,-40.35,gr,larisa,128760,39.6372222,22.4202778,7991.760861348244,"[{'role': 'system', 'content': 'Answer in json format only: {""distance"": < e.g. ""1945.399479"" >}. The value must be in kilometers and no explanation, just the answer!'}, {'role': 'user', 'content': 'What is the distance between sobral, Brazil and larisa, Greece?'}]","{""distance"": ""8431.841""}"
us,downey,111862,33.94,-118.1316667,gb,poole,150092,50.716667,-2.0,8740.301793961233,"[{'role': 'system', 'content': 'Answer in json format only: {""distance"": < e.g. ""1945.399479"" >}. The value must be in kilometers and no explanation, just the answer!'}, {'role': 'user', 'content': 'What is the distance between downey, United States and poole, United Kingdom?'}]","{""distance"": ""8757.474111""}"
in,visakhapatnam,1063293,17.7,83.3,jp,takarazuka,219790,34.8,135.35,5467.0657652626605,"[{'role': 'system', 'content': 'Answer in json format only: {""distance"": < e.g. ""1945.399479"" >}. The value must be in kilometers and no explanation, just the answer!'}, {'role': 'user', 'content': 'What is the distance between visakhapatnam, India and takarazuka, Japan?'}]","{""distance"": ""5765.491""}"
cn,ankang,132654,32.68,109.017222,ht,delmas,377194,18.5447222,-72.30277779999999,14333.673440332506,"[{'role': 'system', 'content': 'Answer in json format only: {""distance"": < e.g. ""1945.399479"" >}. The value must be in kilometers and no explanation, just the answer!'}, {'role': 'user', 'content': 'What is the distance between ankang, China and delmas, Haiti?'}]","{""distance"": ""14319.74166""}"
eg,sohag,209440,26.55,31.7,ru,arzamas,109480,55.394852,43.83992,3351.283549337558,"[{'role': 'system', 'content': 'Answer in json format only: {""distance"": < e.g. ""1945.399479"" >}. The value must be in kilometers and no explanation, just the answer!'}, {'role': 'user', 'content': 'What is the distance between sohag, Egypt and arzamas, Russian Federation?'}]","{""distance"": ""4431.914068""}"
br,teresopolis,123980,-22.424064,-42.968013,br,divinopolis,193835,-20.15,-44.9,321.84098976489264,"[{'role': 'system', 'content': 'Answer in json format only: {""distance"": < e.g. ""1945.399479"" >}. The value must be in kilometers and no explanation, just the answer!'}, {'role': 'user', 'content': 'What is the distance between teresopolis, Brazil and divinopolis, Brazil?'}]","{""distance"": ""417.341""}"
in,nanded,485150,19.15,77.333333,ro,braila,213570,45.266667,27.983333,5366.469800374884,"[{'role': 'system', 'content': 'Answer in json format only: {""distance"": < e.g. ""1945.399479"" >}. The value must be in kilometers and no explanation, just the answer!'}, {'role': 'user', 'content': 'What is the distance between nanded, India and braila, Romania?'}]","{""distance"": ""5831.492""}"
es,leon,127480,42.600031,-5.570316,br,guaratingueta,105882,-22.815156,-45.18923,8306.08867771929,"[{'role': 'system', 'content': 'Answer in json format only: {""distance"": < e.g. ""1945.399479"" >}. The value must be in kilometers and no explanation, just the answer!'}, {'role': 'user', 'content': 'What is the distance between leon, Spain and guaratingueta, Brazil?'}]","{""distance"": ""7731.391817""}"
cn,suining,124924,30.508017,105.573324,gt,petapa,137839,14.502778,-90.551667,14735.580176524078,"[{'role': 'system', 'content': 'Answer in json format only: {""distance"": < e.g. ""1945.399479"" >}. The value must be in kilometers and no explanation, just the answer!'}, {'role': 'user', 'content': 'What is the distance between suining, China and petapa, Guatemala?'}]","{""distance"": ""15417.411""}"
gb,huddersfield,149018,53.65,-1.7833330000000005,jp,saga,165237,33.249322,130.298799,9331.333177581308,"[{'role': 'system', 'content': 'Answer in json format only: {""distance"": < e.g. ""1945.399479"" >}. The value must be in kilometers and no explanation, just the answer!'}, {'role': 'user', 'content': 'What is the distance between huddersfield, United Kingdom and saga, Japan?'}]","{""distance"": ""9475.641""}"
in,pilibhit,131021,28.633333,79.8,sn,dakar,2702820,14.670833300000002,-17.438055600000002,9929.80633973466,"[{'role': 'system', 'content': 'Answer in json format only: {""distance"": < e.g. ""1945.399479"" >}. The value must be in kilometers and no explanation, just the answer!'}, {'role': 'user', 'content': 'What is the distance between pilibhit, India and dakar, Senegal?'}]","{""distance"": ""9191.469082""}"
au,canberra,324025,-35.27603,149.13435,es,cordoba,311186,37.89155,-4.772748,17679.489688719746,"[{'role': 'system', 'content': 'Answer in json format only: {""distance"": < e.g. ""1945.399479"" >}. The value must be in kilometers and no explanation, just the answer!'}, {'role': 'user', 'content': 'What is the distance between canberra, Australia and cordoba, Spain?'}]","{""distance"": ""17417.14165""}"
ma,agadir,656110,30.420664,-9.593161,cl,punta arenas,117432,-53.15,-70.916667,10988.098219886737,"[{'role': 'system', 'content': 'Answer in json format only: {""distance"": < e.g. ""1945.399479"" >}. The value must be in kilometers and no explanation, just the answer!'}, {'role': 'user', 'content': 'What is the distance between agadir, Morocco and punta arenas, Chile?'}]","{""distance"": ""10415.431""}"
kz,semey,292795,50.411111,80.2275,in,raigarh,121291,21.9,83.4,3176.0017043693856,"[{'role': 'system', 'content': 'Answer in json format only: {""distance"": < e.g. ""1945.399479"" >}. The value must be in kilometers and no explanation, just the answer!'}, {'role': 'user', 'content': 'What is the distance between semey, Kazakhstan and raigarh, India?'}]","{""distance"": ""2357.492""}"
de,bergisch gladbach,106611,50.983333,7.133333,br,limeira,289671,-22.561667,-47.402778000000005,9735.93554658275,"[{'role': 'system', 'content': 'Answer in json format only: {""distance"": < e.g. ""1945.399479"" >}. The value must be in kilometers and no explanation, just the answer!'}, {'role': 'user', 'content': 'What is the distance between bergisch gladbach, Germany and limeira, Brazil?'}]","{""distance"": ""9467.641""}"
ca,guelph,115763,43.55,-80.25,cn,haimen,125427,23.193486,116.614218,12416.789391479177,"[{'role': 'system', 'content': 'Answer in json format only: {""distance"": < e.g. ""1945.399479"" >}. The value must be in kilometers and no explanation, just the answer!'}, {'role': 'user', 'content': 'What is the distance between guelph, Canada and haimen, China?'}]","{""distance"": ""11447.481131""}"
cn,huainan,1027655,32.626389,116.996944,in,chandannagar,180640,22.869167,88.377222,3009.769330112034,"[{'role': 'system', 'content': 'Answer in json format only: {""distance"": < e.g. ""1945.399479"" >}. The value must be in kilometers and no explanation, just the answer!'}, {'role': 'user', 'content': 'What is the distance between huainan, China and chandannagar, India?'}]","{""distance"": ""2461.481319""}"
br,dourados,162206,-22.216667,-54.8,kz,pavlodar,329014,52.3,76.95,14734.648633876344,"[{'role': 'system', 'content': 'Answer in json format only: {""distance"": < e.g. ""1945.399479"" >}. The value must be in kilometers and no explanation, just the answer!'}, {'role': 'user', 'content': 'What is the distance between dourados, Brazil and pavlodar, Kazakhstan?'}]","{""distance"": ""16417.411""}"
pe,iquitos,439114,-3.7480556,-73.24722220000001,my,kulim,170931,5.364991000000001,100.561773,19325.096585008116,"[{'role': 'system', 'content': 'Answer in json format only: {""distance"": < e.g. ""1945.399479"" >}. The value must be in kilometers and no explanation, just the answer!'}, {'role': 'user', 'content': 'What is the distance between iquitos, Peru and kulim, Malaysia?'}]","{""distance"": ""19957.413391""}"
kz,oskemen,319082,49.978889,82.61027800000001,ru,tula,468830,54.202133,37.644294,3063.888090098451,"[{'role': 'system', 'content': 'Answer in json format only: {""distance"": < e.g. ""1945.399479"" >}. The value must be in kilometers and no explanation, just the answer!'}, {'role': 'user', 'content': 'What is the distance between oskemen, Kazakhstan and tula, Russian Federation?'}]","{""distance"": ""3581.366115""}"
in,ranchi,945079,23.35,85.333333,br,maringa,311727,-23.416667,-51.916667,15677.955209365597,"[{'role': 'system', 'content': 'Answer in json format only: {""distance"": < e.g. ""1945.399479"" >}. The value must be in kilometers and no explanation, just the answer!'}, {'role': 'user', 'content': 'What is the distance between ranchi, India and maringa, Brazil?'}]","{""distance"": ""15717.414323""}"
jp,kurume,238199,33.316666999999995,130.51666699999998,br,rio de janeiro,6023742,-22.9,-43.233333,18702.636874091317,"[{'role': 'system', 'content': 'Answer in json format only: {""distance"": < e.g. ""1945.399479"" >}. The value must be in kilometers and no explanation, just the answer!'}, {'role': 'user', 'content': 'What is the distance between kurume, Japan and rio de janeiro, Brazil?'}]","{""distance"": ""18662.235617""}"
in,thrissur,325140,10.516667,76.216667,pl,sosnowiec,227295,50.272243,19.155039,6802.492819580863,"[{'role': 'system', 'content': 'Answer in json format only: {""distance"": < e.g. ""1945.399479"" >}. The value must be in kilometers and no explanation, just the answer!'}, {'role': 'user', 'content': 'What is the distance between thrissur, India and sosnowiec, Poland?'}]","{""distance"": ""6481.663131""}"
br,sorocaba,558874,-23.483333,-47.45,bd,rajshahi,700206,24.3666667,88.6,15574.649315225894,"[{'role': 'system', 'content': 'Answer in json format only: {""distance"": < e.g. ""1945.399479"" >}. The value must be in kilometers and no explanation, just the answer!'}, {'role': 'user', 'content': 'What is the distance between sorocaba, Brazil and rajshahi, Bangladesh?'}]","{""distance"": ""16,441.592821""}"
in,rewa,208483,24.533333,81.3,tz,zanzibar,403670,-6.1666667,39.1833333,5689.866836833501,"[{'role': 'system', 'content': 'Answer in json format only: {""distance"": < e.g. ""1945.399479"" >}. The value must be in kilometers and no explanation, just the answer!'}, {'role': 'user', 'content': 'What is the distance between rewa, India and zanzibar, Tanzania, United Republic of?'}]","{""distance"": ""6173.041""}"
ve,maracay,395412,10.2469444,-67.5958333,us,fremont,202615,37.5483333,-121.9875,6202.427695159136,"[{'role': 'system', 'content': 'Answer in json format only: {""distance"": < e.g. ""1945.399479"" >}. The value must be in kilometers and no explanation, just the answer!'}, {'role': 'user', 'content': 'What is the distance between maracay, Venezuela, Bolivarian Republic of and fremont, United States?'}]","{""distance"": ""5476.753586""}"
in,khardaha,128358,22.718611,88.378056,do,santo domingo,2202016,18.4666667,-69.9,14878.170505181137,"[{'role': 'system', 'content': 'Answer in json format only: {""distance"": < e.g. ""1945.399479"" >}. The value must be in kilometers and no explanation, just the answer!'}, {'role': 'user', 'content': 'What is the distance between khardaha, India and santo domingo, Dominican Republic?'}]","{""distance"": ""14477.835""}"
jp,ichihara,283537,35.516667,140.083333,in,neyveli,131213,11.533333,79.483333,6620.303018175693,"[{'role': 'system', 'content': 'Answer in json format only: {""distance"": < e.g. ""1945.399479"" >}. The value must be in kilometers and no explanation, just the answer!'}, {'role': 'user', 'content': 'What is the distance between ichihara, Japan and neyveli, India?'}]","{""distance"": ""5836.251191""}"
ru,novorossiysk,241860,44.724386,37.767524,cn,qinzhou,100996,21.95,108.616667,6833.540149787723,"[{'role': 'system', 'content': 'Answer in json format only: {""distance"": < e.g. ""1945.399479"" >}. The value must be in kilometers and no explanation, just the answer!'}, {'role': 'user', 'content': 'What is the distance between novorossiysk, Russian Federation and qinzhou, China?'}]","{""distance"": ""5824.211906""}"
co,envigado,163010,6.170643,-75.585307,br,salvador,2711903,-12.983333,-38.516667,4614.375882139952,"[{'role': 'system', 'content': 'Answer in json format only: {""distance"": < e.g. ""1945.399479"" >}. The value must be in kilometers and no explanation, just the answer!'}, {'role': 'user', 'content': 'What is the distance between envigado, Colombia and salvador, Brazil?'}]","{""distance"": ""4946.530401""}"
cn,chenzhou,179038,25.8,113.033333,jp,kasukabe,206919,35.976389000000005,139.753611,2780.813403250821,"[{'role': 'system', 'content': 'Answer in json format only: {""distance"": < e.g. ""1945.399479"" >}. The value must be in kilometers and no explanation, just the answer!'}, {'role': 'user', 'content': 'What is the distance between chenzhou, China and kasukabe, Japan?'}]","{""distance"": ""2915.469121""}"
ru,balashikha,150105,55.809452,37.958055,de,pforzheim,120366,48.883333,8.7,2117.987309869712,"[{'role': 'system', 'content': 'Answer in json format only: {""distance"": < e.g. ""1945.399479"" >}. The value must be in kilometers and no explanation, just the answer!'}, {'role': 'user', 'content': 'What is the distance between balashikha, Russian Federation and pforzheim, Germany?'}]","{""distance"": ""1945.399479""}"
us,santa rosa,155118,38.4405556,-122.7133333,in,tonk,151341,26.166667,75.783333,12598.604516148713,"[{'role': 'system', 'content': 'Answer in json format only: {""distance"": < e.g. ""1945.399479"" >}. The value must be in kilometers and no explanation, just the answer!'}, {'role': 'user', 'content': 'What is the distance between santa rosa, United States and tonk, India?'}]","{""distance"": ""12756.619135""}"
cn,xinyang,1590668,32.095833,114.120278,mm,monywa,182034,22.1166667,95.1333333,2178.232966250153,"[{'role': 'system', 'content': 'Answer in json format only: {""distance"": < e.g. ""1945.399479"" >}. The value must be in kilometers and no explanation, just the answer!'}, {'role': 'user', 'content': 'What is the distance between xinyang, China and monywa, Myanmar?'}]","{""distance"": ""1745.342121""}"
hu,szekesfehervar,103772,47.195503,18.4096,ru,rybinsk,216726,58.044598,38.842594,1823.3139579971185,"[{'role': 'system', 'content': 'Answer in json format only: {""distance"": < e.g. ""1945.399479"" >}. The value must be in kilometers and no explanation, just the answer!'}, {'role': 'user', 'content': 'What is the distance between szekesfehervar, Hungary and rybinsk, Russian Federation?'}]","{""distance"": ""1945.399479""}"
ca,waterloo,110800,43.466667,-80.533333,in,srikakulam,118312,18.3,83.9,12983.902062531512,"[{'role': 'system', 'content': 'Answer in json format only: {""distance"": < e.g. ""1945.399479"" >}. The value must be in kilometers and no explanation, just the answer!'}, {'role': 'user', 'content': 'What is the distance between waterloo, Canada and srikakulam, India?'}]","{""distance"": ""13057.377""}"
br,barretos,101222,-20.55,-48.55,mg,antsirabe,182804,-19.85,47.033333299999995,9808.61488418411,"[{'role': 'system', 'content': 'Answer in json format only: {""distance"": < e.g. ""1945.399479"" >}. The value must be in kilometers and no explanation, just the answer!'}, {'role': 'user', 'content': 'What is the distance between barretos, Brazil and antsirabe, Madagascar?'}]","{""distance"": ""11477.411""}"
cn,yantai,719332,37.533333,121.4,br,cachoeirinha,121086,-29.95,-51.083333,18921.868358592452,"[{'role': 'system', 'content': 'Answer in json format only: {""distance"": < e.g. ""1945.399479"" >}. The value must be in kilometers and no explanation, just the answer!'}, {'role': 'user', 'content': 'What is the distance between yantai, China and cachoeirinha, Brazil?'}]","{""distance"": ""18417.418778""}"
cn,kunming,1023674,25.038889,102.718333,lk,colombo,648119,6.9319444,79.84777779999999,3152.7985027891123,"[{'role': 'system', 'content': 'Answer in json format only: {""distance"": < e.g. ""1945.399479"" >}. The value must be in kilometers and no explanation, just the answer!'}, {'role': 'user', 'content': 'What is the distance between kunming, China and colombo, Sri Lanka?'}]","{""distance"": ""3041.667071""}"
us,reno,202142,39.5297222,-119.8127778,cn,linqing,110046,36.845556,115.711667,9824.32620636652,"[{'role': 'system', 'content': 'Answer in json format only: {""distance"": < e.g. ""1945.399479"" >}. The value must be in kilometers and no explanation, just the answer!'}, {'role': 'user', 'content': 'What is the distance between reno, United States and linqing, China?'}]","{""distance"": ""9067.294011""}"
ve,turmero,344746,10.233333300000002,-67.4833333,us,tucson,518907,32.2216667,-110.9258333,5075.856875347564,"[{'role': 'system', 'content': 'Answer in json format only: {""distance"": < e.g. ""1945.399479"" >}. The value must be in kilometers and no explanation, just the answer!'}, {'role': 'user', 'content': 'What is the distance between turmero, Venezuela, Bolivarian Republic of and tucson, United States?'}]","{""distance"": ""4937.792141""}"
gn,nzerekore,132842,7.747222200000001,-8.823888900000002,pt,lisbon,517798,38.716667,-9.133333,3430.4952888968314,"[{'role': 'system', 'content': 'Answer in json format only: {""distance"": < e.g. ""1945.399479"" >}. The value must be in kilometers and no explanation, just the answer!'}, {'role': 'user', 'content': 'What is the distance between nzerekore, Guinea and lisbon, Portugal?'}]","{""distance"": ""4147.492157""}"
mz,xai-xai,127366,-25.0519444,33.6441667,tr,eskisehir,515155,39.776667,30.520556,7183.873804549162,"[{'role': 'system', 'content': 'Answer in json format only: {""distance"": < e.g. ""1945.399479"" >}. The value must be in kilometers and no explanation, just the answer!'}, {'role': 'user', 'content': 'What is the distance between xai-xai, Mozambique and eskisehir, Türkiye?'}]","{""distance"": ""7491.944""}"
cn,zhaoyang,105918,32.939167,119.834167,ng,akure,420623,7.252560000000001,5.193118,11818.611938596425,"[{'role': 'system', 'content': 'Answer in json format only: {""distance"": < e.g. ""1945.399479"" >}. The value must be in kilometers and no explanation, just the answer!'}, {'role': 'user', 'content': 'What is the distance between zhaoyang, China and akure, Nigeria?'}]","{""distance"": ""10411.803""}"
fr,besancon,120139,47.248778,6.018152,ru,novocheboksarsk,128470,56.110947,47.47755,2979.656982477248,"[{'role': 'system', 'content': 'Answer in json format only: {""distance"": < e.g. ""1945.399479"" >}. The value must be in kilometers and no explanation, just the answer!'}, {'role': 'user', 'content': 'What is the distance between besancon, France and novocheboksarsk, Russian Federation?'}]","{""distance"": ""3795.641""}"
in,bhusawal,183016,21.05,75.766667,de,darmstadt,139757,49.870556,8.649444,6616.680107785875,"[{'role': 'system', 'content': 'Answer in json format only: {""distance"": < e.g. ""1945.399479"" >}. The value must be in kilometers and no explanation, just the answer!'}, {'role': 'user', 'content': 'What is the distance between bhusawal, India and darmstadt, Germany?'}]","{""distance"": ""6945.399479""}"
ma,nador,157665,35.174040999999995,-2.92866,gt,mixco,460576,14.633333,-90.606389,8882.006178036845,"[{'role': 'system', 'content': 'Answer in json format only: {""distance"": < e.g. ""1945.399479"" >}. The value must be in kilometers and no explanation, just the answer!'}, {'role': 'user', 'content': 'What is the distance between nador, Morocco and mixco, Guatemala?'}]","{""distance"": ""7945.123134""}"
cu,holguin,319114,20.887222199999997,-76.2630556,ro,brasov,276089,45.633333,25.583333,9251.54913370544,"[{'role': 'system', 'content': 'Answer in json format only: {""distance"": < e.g. ""1945.399479"" >}. The value must be in kilometers and no explanation, just the answer!'}, {'role': 'user', 'content': 'What is the distance between holguin, Cuba and brasov, Romania?'}]","{""distance"": ""8947.148225""}"
fr,nancy,106857,48.69211,6.187755999999999,ph,cabanatuan,220095,15.4867,120.9676,10442.963260490344,"[{'role': 'system', 'content': 'Answer in json format only: {""distance"": < e.g. ""1945.399479"" >}. The value must be in kilometers and no explanation, just the answer!'}, {'role': 'user', 'content': 'What is the distance between nancy, France and cabanatuan, Philippines?'}]","{""distance"": ""10457.011""}"
in,bijapur,271087,16.833333,75.7,ru,krasnodar,649860,45.0488,38.9725,4632.972917459453,"[{'role': 'system', 'content': 'Answer in json format only: {""distance"": < e.g. ""1945.399479"" >}. The value must be in kilometers and no explanation, just the answer!'}, {'role': 'user', 'content': 'What is the distance between bijapur, India and krasnodar, Russian Federation?'}]","{""distance"": ""4615.405""}"
pe,piura,326592,-5.2,-80.6333333,us,corpus christi,280382,27.8002778,-97.39611109999998,4071.3836378208625,"[{'role': 'system', 'content': 'Answer in json format only: {""distance"": < e.g. ""1945.399479"" >}. The value must be in kilometers and no explanation, just the answer!'}, {'role': 'user', 'content': 'What is the distance between piura, Peru and corpus christi, United States?'}]","{""distance"": ""3935.783""}"
ir,shahr-e kord,129167,32.325556,50.864444,cn,baoji,438295,34.365907,107.359045,5194.444038388598,"[{'role': 'system', 'content': 'Answer in json format only: {""distance"": < e.g. ""1945.399479"" >}. The value must be in kilometers and no explanation, just the answer!'}, {'role': 'user', 'content': 'What is the distance between shahr-e kord, Iran, Islamic Republic of and baoji, China?'}]","{""distance"": ""5431.174219""}"
ca,montreal,3268513,45.5,-73.583333,cn,hebi,244662,35.899167,114.1925,10955.399032539264,"[{'role': 'system', 'content': 'Answer in json format only: {""distance"": < e.g. ""1945.399479"" >}. The value must be in kilometers and no explanation, just the answer!'}, {'role': 'user', 'content': 'What is the distance between montreal, Canada and hebi, China?'}]","{""distance"": ""10558.591""}"
in,kharagpur,219686,22.333333,87.333333,ar,mar del plata,645771,-38.002278,-57.557539,16252.469238252135,"[{'role': 'system', 'content': 'Answer in json format only: {""distance"": < e.g. ""1945.399479"" >}. The value must be in kilometers and no explanation, just the answer!'}, {'role': 'user', 'content': 'What is the distance between kharagpur, India and mar del plata, Argentina?'}]","{""distance"": ""17457.041""}"
jp,toda,118733,35.809444,139.6925,cn,wuwei,109319,37.928056,102.641389,3290.2920169702684,"[{'role': 'system', 'content': 'Answer in json format only: {""distance"": < e.g. ""1945.399479"" >}. The value must be in kilometers and no explanation, just the answer!'}, {'role': 'user', 'content': 'What is the distance between toda, Japan and wuwei, China?'}]","{""distance"": ""3344.556201""}"
jp,urasoe,110284,26.259023,127.730124,cn,nehe,108253,48.483333,124.833333,2479.4864798123012,"[{'role': 'system', 'content': 'Answer in json format only: {""distance"": < e.g. ""1945.399479"" >}. The value must be in kilometers and no explanation, just the answer!'}, {'role': 'user', 'content': 'What is the distance between urasoe, Japan and nehe, China?'}]","{""distance"": ""2284.658171""}"
in,kapra,198349,17.486667,78.56611099999999,ar,resistencia,406967,-27.460559999999997,-58.983886,15547.011988724298,"[{'role': 'system', 'content': 'Answer in json format only: {""distance"": < e.g. ""1945.399479"" >}. The value must be in kilometers and no explanation, just the answer!'}, {'role': 'user', 'content': 'What is the distance between kapra, India and resistencia, Argentina?'}]","{""distance"": ""17417.411134""}"
us,topeka,121570,39.0483333,-95.6777778,id,singkawang,101851,0.9,109.0,14919.3817355782,"[{'role': 'system', 'content': 'Answer in json format only: {""distance"": < e.g. ""1945.399479"" >}. The value must be in kilometers and no explanation, just the answer!'}, {'role': 'user', 'content': 'What is the distance between topeka, United States and singkawang, Indonesia?'}]","{""distance"": ""15347.949052""}"
ma,asfi,328883,32.299392,-9.237181,eg,talkha,157756,31.053055600000004,31.373888899999997,3830.194585617706,"[{'role': 'system', 'content': 'Answer in json format only: {""distance"": < e.g. ""1945.399479"" >}. The value must be in kilometers and no explanation, just the answer!'}, {'role': 'user', 'content': 'What is the distance between asfi, Morocco and talkha, Egypt?'}]","{""distance"": ""4034.741648""}"
cm,mokolo,275750,10.7402778,13.8027778,ng,modakeke,119537,7.383333,4.266667,1112.0163523132123,"[{'role': 'system', 'content': 'Answer in json format only: {""distance"": < e.g. ""1945.399479"" >}. The value must be in kilometers and no explanation, just the answer!'}, {'role': 'user', 'content': 'What is the distance between mokolo, Cameroon and modakeke, Nigeria?'}]","{""distance"": ""843.212""}"
tz,tabora,145291,-5.0166667,32.8,cn,shaoxing,421283,30.011019,120.571528,10076.747959401566,"[{'role': 'system', 'content': 'Answer in json format only: {""distance"": < e.g. ""1945.399479"" >}. The value must be in kilometers and no explanation, just the answer!'}, {'role': 'user', 'content': 'What is the distance between tabora, Tanzania, United Republic of and shaoxing, China?'}]","{""distance"": ""8731.899979""}"
jp,suzuka,191479,34.883333,136.583333,us,washington,552433,38.895,-77.0366667,11136.082673713365,"[{'role': 'system', 'content': 'Answer in json format only: {""distance"": < e.g. ""1945.399479"" >}. The value must be in kilometers and no explanation, just the answer!'}, {'role': 'user', 'content': 'What is the distance between suzuka, Japan and washington, United States?'}]","{""distance"": ""10755.491""}"
cn,zhangdian,669770,36.790556,118.063333,id,tegal,237110,-6.8694,109.1402,4921.6946579681535,"[{'role': 'system', 'content': 'Answer in json format only: {""distance"": < e.g. ""1945.399479"" >}. The value must be in kilometers and no explanation, just the answer!'}, {'role': 'user', 'content': 'What is the distance between zhangdian, China and tegal, Indonesia?'}]","{""distance"": ""4546.419099""}"
ec,manta,183166,-0.95,-80.7333333,cn,hailun,109881,47.45,126.933333,14204.02211791852,"[{'role': 'system', 'content': 'Answer in json format only: {""distance"": < e.g. ""1945.399479"" >}. The value must be in kilometers and no explanation, just the answer!'}, {'role': 'user', 'content': 'What is the distance between manta, Ecuador and hailun, China?'}]","{""distance"": ""17421.041666""}"
nl,emmen,112333,52.792471,6.894744,cv,praia,111611,14.9166667,-23.5166667,4981.905824695804,"[{'role': 'system', 'content': 'Answer in json format only: {""distance"": < e.g. ""1945.399479"" >}. The value must be in kilometers and no explanation, just the answer!'}, {'role': 'user', 'content': 'What is the distance between emmen, Netherlands and praia, Cabo Verde?'}]","{""distance"": ""4467.068111""}"
jp,hiratsuka,259056,35.323056,139.342222,in,madanapalle,108605,13.55,78.5,6515.334656134595,"[{'role': 'system', 'content': 'Answer in json format only: {""distance"": < e.g. ""1945.399479"" >}. The value must be in kilometers and no explanation, just the answer!'}, {'role': 'user', 'content': 'What is the distance between hiratsuka, Japan and madanapalle, India?'}]","{""distance"": ""6057.296011""}"
us,thousand oaks,127942,34.17055560000001,-118.8366667,za,pietersburg,123754,-23.904485,29.468851,16752.2091878053,"[{'role': 'system', 'content': 'Answer in json format only: {""distance"": < e.g. ""1945.399479"" >}. The value must be in kilometers and no explanation, just the answer!'}, {'role': 'user', 'content': 'What is the distance between thousand oaks, United States and pietersburg, South Africa?'}]","{""distance"": ""17411.415342""}"
cn,jinchang,144363,38.495278000000006,102.173889,us,vancouver,157517,45.6388889,-122.6602778,9668.451538052574,"[{'role': 'system', 'content': 'Answer in json format only: {""distance"": < e.g. ""1945.399479"" >}. The value must be in kilometers and no explanation, just the answer!'}, {'role': 'user', 'content': 'What is the distance between jinchang, China and vancouver, United States?'}]","{""distance"": ""8720.041196""}"
in,allahabad,1073544,25.45,81.85,ph,cavite,115920,14.477831,120.893222,4245.726131073677,"[{'role': 'system', 'content': 'Answer in json format only: {""distance"": < e.g. ""1945.399479"" >}. The value must be in kilometers and no explanation, just the answer!'}, {'role': 'user', 'content': 'What is the distance between allahabad, India and cavite, Philippines?'}]","{""distance"": ""4346.441""}"
us,santa ana,343054,33.7455556,-117.8669444,mx,texcoco,115384,19.516667,-98.883333,2453.5591725027175,"[{'role': 'system', 'content': 'Answer in json format only: {""distance"": < e.g. ""1945.399479"" >}. The value must be in kilometers and no explanation, just the answer!'}, {'role': 'user', 'content': 'What is the distance between santa ana, United States and texcoco, Mexico?'}]","{""distance"": ""2267.261""}"
in,srinagar,975926,34.092222,74.802222,ru,podolsk,175326,55.424184999999994,37.554717,3709.943297326793,"[{'role': 'system', 'content': 'Answer in json format only: {""distance"": < e.g. ""1945.399479"" >}. The value must be in kilometers and no explanation, just the answer!'}, {'role': 'user', 'content': 'What is the distance between srinagar, India and podolsk, Russian Federation?'}]","{""distance"": ""4027.271""}"
ir,gonbad-e qabus,131427,37.250042,55.167207999999995,de,ingolstadt,120598,48.766667,11.433333,3728.575841150564,"[{'role': 'system', 'content': 'Answer in json format only: {""distance"": < e.g. ""1945.399479"" >}. The value must be in kilometers and no explanation, just the answer!'}, {'role': 'user', 'content': 'What is the distance between gonbad-e qabus, Iran, Islamic Republic of and ingolstadt, Germany?'}]","{""distance"": ""3947.669113""}"
es,jerez,189230,36.686454,-6.136063,in,barakpur,148188,22.761389,88.371944,8915.235215362287,"[{'role': 'system', 'content': 'Answer in json format only: {""distance"": < e.g. ""1945.399479"" >}. The value must be in kilometers and no explanation, just the answer!'}, {'role': 'user', 'content': 'What is the distance between jerez, Spain and barakpur, India?'}]","{""distance"": ""7945.399479""}"
id,taman,181626,-6.9,109.383333,ng,ikere,103062,7.491328,5.232248,11670.665411739834,"[{'role': 'system', 'content': 'Answer in json format only: {""distance"": < e.g. ""1945.399479"" >}. The value must be in kilometers and no explanation, just the answer!'}, {'role': 'user', 'content': 'What is the distance between taman, Indonesia and ikere, Nigeria?'}]","{""distance"": ""12925.641""}"
es,a coruna,236010,43.366609,-8.406812,ve,cabimas,200859,10.4019444,-71.4461111,7049.804186422527,"[{'role': 'system', 'content': 'Answer in json format only: {""distance"": < e.g. ""1945.399479"" >}. The value must be in kilometers and no explanation, just the answer!'}, {'role': 'user', 'content': 'What is the distance between a coruna, Spain and cabimas, Venezuela, Bolivarian Republic of?'}]","{""distance"": ""6587.641""}"
jp,matsubara,130857,34.566666999999995,135.55,ir,marv dasht,129483,29.8742,52.8025,7589.408872517008,"[{'role': 'system', 'content': 'Answer in json format only: {""distance"": < e.g. ""1945.399479"" >}. The value must be in kilometers and no explanation, just the answer!'}, {'role': 'user', 'content': 'What is the distance between matsubara, Japan and marv dasht, Iran, Islamic Republic of?'}]","{""distance"": ""7436.391647""}"
ro,bacau,171397,46.566666999999995,26.9,cn,tongliao,261110,43.6125,122.265278,7022.074266598528,"[{'role': 'system', 'content': 'Answer in json format only: {""distance"": < e.g. ""1945.399479"" >}. The value must be in kilometers and no explanation, just the answer!'}, {'role': 'user', 'content': 'What is the distance between bacau, Romania and tongliao, China?'}]","{""distance"": ""6945.531""}"
mx,chilpancingo,165257,17.55,-99.5,us,brownsville,168015,25.9013889,-97.4972222,947.6036241634704,"[{'role': 'system', 'content': 'Answer in json format only: {""distance"": < e.g. ""1945.399479"" >}. The value must be in kilometers and no explanation, just the answer!'}, {'role': 'user', 'content': 'What is the distance between chilpancingo, Mexico and brownsville, United States?'}]","{""distance"": ""1437.911""}"
cn,jinhua,142206,29.107778000000003,119.654722,cn,zhuhai,501199,22.276944,113.567778,972.1936323560254,"[{'role': 'system', 'content': 'Answer in json format only: {""distance"": < e.g. ""1945.399479"" >}. The value must be in kilometers and no explanation, just the answer!'}, {'role': 'user', 'content': 'What is the distance between jinhua, China and zhuhai, China?'}]","{""distance"": ""1248.313081""}"
in,bharuch,153538,21.7,72.966667,de,berlin,3398362,52.516667000000005,13.4,6073.0307874846,"[{'role': 'system', 'content': 'Answer in json format only: {""distance"": < e.g. ""1945.399479"" >}. The value must be in kilometers and no explanation, just the answer!'}, {'role': 'user', 'content': 'What is the distance between bharuch, India and berlin, Germany?'}]","{""distance"": ""6456.491""}"
us,springfield,152227,42.1013889,-72.5902778,ru,almetyevsk,142727,54.904424,52.315397,8059.419659542854,"[{'role': 'system', 'content': 'Answer in json format only: {""distance"": < e.g. ""1945.399479"" >}. The value must be in kilometers and no explanation, just the answer!'}, {'role': 'user', 'content': 'What is the distance between springfield, United States and almetyevsk, Russian Federation?'}]","{""distance"": ""8567.415251""}"
br,vitoria da conquista,253144,-14.85,-40.85,lv,riga,742570,56.95,24.1,9938.447699111666,"[{'role': 'system', 'content': 'Answer in json format only: {""distance"": < e.g. ""1945.399479"" >}. The value must be in kilometers and no explanation, just the answer!'}, {'role': 'user', 'content': 'What is the distance between vitoria da conquista, Brazil and riga, Latvia?'}]","{""distance"": ""10117.411""}"
br,campina grande,348943,-7.216667,-35.883333,in,shahjahanpur,320466,27.883333,79.916667,12922.095421520253,"[{'role': 'system', 'content': 'Answer in json format only: {""distance"": < e.g. ""1945.399479"" >}. The value must be in kilometers and no explanation, just the answer!'}, {'role': 'user', 'content': 'What is the distance between campina grande, Brazil and shahjahanpur, India?'}]","{""distance"": ""14316.778691""}"
jp,hirakata,406335,34.8,135.633333,cn,binzhou,115893,37.366667,118.016667,1609.5814139873494,"[{'role': 'system', 'content': 'Answer in json format only: {""distance"": < e.g. ""1945.399479"" >}. The value must be in kilometers and no explanation, just the answer!'}, {'role': 'user', 'content': 'What is the distance between hirakata, Japan and binzhou, China?'}]","{""distance"": ""1945.399479""}"
ro,cluj-napoca,316749,46.766667,23.6,in,nangloi jat,194381,28.683333,77.06666700000001,5009.471171062585,"[{'role': 'system', 'content': 'Answer in json format only: {""distance"": < e.g. ""1945.399479"" >}. The value must be in kilometers and no explanation, just the answer!'}, {'role': 'user', 'content': 'What is the distance between cluj-napoca, Romania and nangloi jat, India?'}]","{""distance"": ""5274.741867""}"
in,bihar,244256,25.183333,85.516667,in,delhi,10928270,28.666666999999997,77.216667,909.9029227089344,"[{'role': 'system', 'content': 'Answer in json format only: {""distance"": < e.g. ""1945.399479"" >}. The value must be in kilometers and no explanation, just the answer!'}, {'role': 'user', 'content': 'What is the distance between bihar, India and delhi, India?'}]","{""distance"": ""794.263157""}"
jp,misato,129695,35.860597,139.864486,jp,yachiyo,182894,35.735306,140.12445300000002,27.30329563485592,"[{'role': 'system', 'content': 'Answer in json format only: {""distance"": < e.g. ""1945.399479"" >}. The value must be in kilometers and no explanation, just the answer!'}, {'role': 'user', 'content': 'What is the distance between misato, Japan and yachiyo, Japan?'}]","{""distance"": ""41.387419""}"
ng,ikorodu,313468,6.615483,3.5086730000000004,ru,chita,308294,52.031712,113.500867,10770.17495468768,"[{'role': 'system', 'content': 'Answer in json format only: {""distance"": < e.g. ""1945.399479"" >}. The value must be in kilometers and no explanation, just the answer!'}, {'role': 'user', 'content': 'What is the distance between ikorodu, Nigeria and chita, Russian Federation?'}]","{""distance"": ""8267.741""}"
in,ongole,172891,15.5,80.05,pl,elblag,127558,54.1522,19.408841,6723.477579521275,"[{'role': 'system', 'content': 'Answer in json format only: {""distance"": < e.g. ""1945.399479"" >}. The value must be in kilometers and no explanation, just the answer!'}, {'role': 'user', 'content': 'What is the distance between ongole, India and elblag, Poland?'}]","{""distance"": ""6481.419351""}"
ru,ukhta,102188,63.567054000000006,53.683478,il,bat yam,130973,32.023056,34.750278,3749.8234105220017,"[{'role': 'system', 'content': 'Answer in json format only: {""distance"": < e.g. ""1945.399479"" >}. The value must be in kilometers and no explanation, just the answer!'}, {'role': 'user', 'content': 'What is the distance between ukhta, Russian Federation and bat yam, Israel?'}]","{""distance"": ""4145.367""}"
mx,cordoba,134409,18.883333,-96.933333,id,ciomas,152335,-6.601389,106.771389,17123.615454590406,"[{'role': 'system', 'content': 'Answer in json format only: {""distance"": < e.g. ""1945.399479"" >}. The value must be in kilometers and no explanation, just the answer!'}, {'role': 'user', 'content': 'What is the distance between cordoba, Mexico and ciomas, Indonesia?'}]","{""distance"": ""17441.629509""}"
cn,kashi,274717,39.454722,75.979722,sa,buraydah,341981,26.325986,43.974965999999995,3305.8593582012586,"[{'role': 'system', 'content': 'Answer in json format only: {""distance"": < e.g. ""1945.399479"" >}. The value must be in kilometers and no explanation, just the answer!'}, {'role': 'user', 'content': 'What is the distance between kashi, China and buraydah, Saudi Arabia?'}]","{""distance"": ""5835.641""}"
es,badalona,222413,41.447145,2.244789,id,waru,147506,-7.36,112.724722,12255.004400932798,"[{'role': 'system', 'content': 'Answer in json format only: {""distance"": < e.g. ""1945.399479"" >}. The value must be in kilometers and no explanation, just the answer!'}, {'role': 'user', 'content': 'What is the distance between badalona, Spain and waru, Indonesia?'}]","{""distance"": ""12057.061""}"
us,pittsburgh,319494,40.4405556,-79.9961111,pl,gliwice,198835,50.297612,18.676582999999997,7225.136548573525,"[{'role': 'system', 'content': 'Answer in json format only: {""distance"": < e.g. ""1945.399479"" >}. The value must be in kilometers and no explanation, just the answer!'}, {'role': 'user', 'content': 'What is the distance between pittsburgh, United States and gliwice, Poland?'}]","{""distance"": ""6937.892""}"
ua,vinnitsa,332400,49.232776,28.480968,gb,bournemouth,175017,50.716667,-1.883333,2169.0107954596924,"[{'role': 'system', 'content': 'Answer in json format only: {""distance"": < e.g. ""1945.399479"" >}. The value must be in kilometers and no explanation, just the answer!'}, {'role': 'user', 'content': 'What is the distance between vinnitsa, Ukraine and bournemouth, United Kingdom?'}]","{""distance"": ""2437.746141""}"
nl,the hague,476587,52.083333,4.3,il,tel aviv-yafo,370480,32.067778000000004,34.764722,3317.5171188907043,"[{'role': 'system', 'content': 'Answer in json format only: {""distance"": < e.g. ""1945.399479"" >}. The value must be in kilometers and no explanation, just the answer!'}, {'role': 'user', 'content': 'What is the distance between the hague, Netherlands and tel aviv-yafo, Israel?'}]","{""distance"": ""3295.117""}"
za,pietermaritzburg,750864,-29.616784999999997,30.39278,th,ubon ratchathani,122533,15.23844,104.848659,9397.998173737762,"[{'role': 'system', 'content': 'Answer in json format only: {""distance"": < e.g. ""1945.399479"" >}. The value must be in kilometers and no explanation, just the answer!'}, {'role': 'user', 'content': 'What is the distance between pietermaritzburg, South Africa and ubon ratchathani, Thailand?'}]","{""distance"": ""9175.761975""}"
in,pudukkottai,112128,10.383333,78.81666700000001,in,tenali,151793,16.25,80.583333,676.6614696942452,"[{'role': 'system', 'content': 'Answer in json format only: {""distance"": < e.g. ""1945.399479"" >}. The value must be in kilometers and no explanation, just the answer!'}, {'role': 'user', 'content': 'What is the distance between pudukkottai, India and tenali, India?'}]","{""distance"": ""761.211165""}"
us,coral springs,131674,26.2708333,-80.27083329999999,ng,jimeta,248166,9.283333,12.466667,9833.686911410156,"[{'role': 'system', 'content': 'Answer in json format only: {""distance"": < e.g. ""1945.399479"" >}. The value must be in kilometers and no explanation, just the answer!'}, {'role': 'user', 'content': 'What is the distance between coral springs, United States and jimeta, Nigeria?'}]","{""distance"": ""9645.071121""}"
de,freiburg,213920,48.0,7.85,ro,suceava,105797,47.633333,26.25,1375.2936221008868,"[{'role': 'system', 'content': 'Answer in json format only: {""distance"": < e.g. ""1945.399479"" >}. The value must be in kilometers and no explanation, just the answer!'}, {'role': 'user', 'content': 'What is the distance between freiburg, Germany and suceava, Romania?'}]","{""distance"": ""1214.741""}"
jp,obihiro,173892,42.917221999999995,143.204444,br,porto seguro,123196,-16.433332999999998,-39.083333,17060.091174937395,"[{'role': 'system', 'content': 'Answer in json format only: {""distance"": < e.g. ""1945.399479"" >}. The value must be in kilometers and no explanation, just the answer!'}, {'role': 'user', 'content': 'What is the distance between obihiro, Japan and porto seguro, Brazil?'}]","{""distance"": ""17956.391945""}"
za,virginia,122542,-28.10391,26.86593,jp,machida,399971,35.540278,139.45083300000002,13711.511300190983,"[{'role': 'system', 'content': 'Answer in json format only: {""distance"": < e.g. ""1945.399479"" >}. The value must be in kilometers and no explanation, just the answer!'}, {'role': 'user', 'content': 'What is the distance between virginia, South Africa and machida, Japan?'}]","{""distance"": ""17517.411586""}"
mx,piedras negras,139624,28.7,-100.516667,us,rialto,101523,34.1063889,-117.36944440000002,1708.4728192719442,"[{'role': 'system', 'content': 'Answer in json format only: {""distance"": < e.g. ""1945.399479"" >}. The value must be in kilometers and no explanation, just the answer!'}, {'role': 'user', 'content': 'What is the distance between piedras negras, Mexico and rialto, United States?'}]","{""distance"": ""1945.399479""}"
il,haifa,269961,32.815556,34.989167,mm,lashio,131033,22.9333333,97.75,6189.249713262043,"[{'role': 'system', 'content': 'Answer in json format only: {""distance"": < e.g. ""1945.399479"" >}. The value must be in kilometers and no explanation, just the answer!'}, {'role': 'user', 'content': 'What is the distance between haifa, Israel and lashio, Myanmar?'}]","{""distance"": ""6441.658466""}"
za,east london,421562,-33.011051,27.910049,in,begusarai,103071,25.416667,86.133333,8934.9999999113,"[{'role': 'system', 'content': 'Answer in json format only: {""distance"": < e.g. ""1945.399479"" >}. The value must be in kilometers and no explanation, just the answer!'}, {'role': 'user', 'content': 'What is the distance between east london, South Africa and begusarai, India?'}]","{""distance"": ""8477.414006""}"
ph,angeles,298948,15.1406,120.591,cn,zhuozhou,116310,39.481111,115.963333,2734.934127825504,"[{'role': 'system', 'content': 'Answer in json format only: {""distance"": < e.g. ""1945.399479"" >}. The value must be in kilometers and no explanation, just the answer!'}, {'role': 'user', 'content': 'What is the distance between angeles, Philippines and zhuozhou, China?'}]","{""distance"": ""2157.391""}"
mx,cancun,542156,21.166667,-86.833333,cn,lasa,118721,29.65,91.1,14376.768618409096,"[{'role': 'system', 'content': 'Answer in json format only: {""distance"": < e.g. ""1945.399479"" >}. The value must be in kilometers and no explanation, just the answer!'}, {'role': 'user', 'content': 'What is the distance between cancun, Mexico and lasa, China?'}]","{""distance"": ""15371.491""}"
us,gainesville,125684,29.651388899999997,-82.325,us,denton,100975,33.214722200000004,-97.1327778,1460.670253394415,"[{'role': 'system', 'content': 'Answer in json format only: {""distance"": < e.g. ""1945.399479"" >}. The value must be in kilometers and no explanation, just the answer!'}, {'role': 'user', 'content': 'What is the distance between gainesville, United States and denton, United States?'}]","{""distance"": ""1274.841""}"
ru,ust-ilimsk,100272,58.000556,102.661944,ru,ulan-ude,360281,51.826053,107.609794,756.5800621500628,"[{'role': 'system', 'content': 'Answer in json format only: {""distance"": < e.g. ""1945.399479"" >}. The value must be in kilometers and no explanation, just the answer!'}, {'role': 'user', 'content': 'What is the distance between ust-ilimsk, Russian Federation and ulan-ude, Russian Federation?'}]","{""distance"": ""2895.367""}"
ng,gashua,125827,12.871,11.0482,in,kamarhati,332997,22.671111,88.37472199999999,8188.936669465117,"[{'role': 'system', 'content': 'Answer in json format only: {""distance"": < e.g. ""1945.399479"" >}. The value must be in kilometers and no explanation, just the answer!'}, {'role': 'user', 'content': 'What is the distance between gashua, Nigeria and kamarhati, India?'}]","{""distance"": ""7945.567""}"
pk,kamoke,199589,31.974444,74.22444399999999,us,salt lake city,178026,40.7608333,-111.8902778,11926.518852116951,"[{'role': 'system', 'content': 'Answer in json format only: {""distance"": < e.g. ""1945.399479"" >}. The value must be in kilometers and no explanation, just the answer!'}, {'role': 'user', 'content': 'What is the distance between kamoke, Pakistan and salt lake city, United States?'}]","{""distance"": ""12525.641""}"
in,rohtak,317266,28.9,76.56666700000001,ca,kitchener,409111,43.45,-80.5,11659.634633627276,"[{'role': 'system', 'content': 'Answer in json format only: {""distance"": < e.g. ""1945.399479"" >}. The value must be in kilometers and no explanation, just the answer!'}, {'role': 'user', 'content': 'What is the distance between rohtak, India and kitchener, Canada?'}]","{""distance"": ""11791.782""}"
jp,ebina,123667,35.381212,139.396515,br,sete lagoas,201337,-19.45,-44.233333,18203.824270996374,"[{'role': 'system', 'content': 'Answer in json format only: {""distance"": < e.g. ""1945.399479"" >}. The value must be in kilometers and no explanation, just the answer!'}, {'role': 'user', 'content': 'What is the distance between ebina, Japan and sete lagoas, Brazil?'}]","{""distance"": ""18341.899146""}"
id,rantauprapat,103011,2.1,99.833333,sn,saint-louis,176048,16.0188889,-16.495277800000004,12754.165384764174,"[{'role': 'system', 'content': 'Answer in json format only: {""distance"": < e.g. ""1945.399479"" >}. The value must be in kilometers and no explanation, just the answer!'}, {'role': 'user', 'content': 'What is the distance between rantauprapat, Indonesia and saint-louis, Senegal?'}]","{""distance"": ""14371.74187""}"
ir,neyshabur,220954,36.213288,58.79575500000001,in,korba,419326,22.35,82.68333299999999,2771.1352780795537,"[{'role': 'system', 'content': 'Answer in json format only: {""distance"": < e.g. ""1945.399479"" >}. The value must be in kilometers and no explanation, just the answer!'}, {'role': 'user', 'content': 'What is the distance between neyshabur, Iran, Islamic Republic of and korba, India?'}]","{""distance"": ""2544.658121""}"
ng,ilorin,814246,8.5,4.55,cn,huaibei,903039,33.974444,116.791667,11485.291313288122,"[{'role': 'system', 'content': 'Answer in json format only: {""distance"": < e.g. ""1945.399479"" >}. The value must be in kilometers and no explanation, just the answer!'}, {'role': 'user', 'content': 'What is the distance between ilorin, Nigeria and huaibei, China?'}]","{""distance"": ""9907.491""}"
us,greensboro,231769,36.0725,-79.79222220000001,cn,xianyang,1034081,34.33778,108.70261,12159.769211349709,"[{'role': 'system', 'content': 'Answer in json format only: {""distance"": < e.g. ""1945.399479"" >}. The value must be in kilometers and no explanation, just the answer!'}, {'role': 'user', 'content': 'What is the distance between greensboro, United States and xianyang, China?'}]","{""distance"": ""11856.191""}"
us,portland,540513,45.5236111,-122.675,de,dresden,480801,51.05,13.75,8515.39987495711,"[{'role': 'system', 'content': 'Answer in json format only: {""distance"": < e.g. ""1945.399479"" >}. The value must be in kilometers and no explanation, just the answer!'}, {'role': 'user', 'content': 'What is the distance between portland, United States and dresden, Germany?'}]","{""distance"": ""7947.758251""}"
gb,norwich,177636,52.63333299999999,1.3,us,toledo,306974,41.6638889,-83.5552778,6168.428063730106,"[{'role': 'system', 'content': 'Answer in json format only: {""distance"": < e.g. ""1945.399479"" >}. The value must be in kilometers and no explanation, just the answer!'}, {'role': 'user', 'content': 'What is the distance between norwich, United Kingdom and toledo, United States?'}]","{""distance"": ""5947.413391""}"
tg,sokode,108373,8.983333300000002,1.1333333,br,porto alegre,1372763,-30.033333,-51.2,7066.7201022985155,"[{'role': 'system', 'content': 'Answer in json format only: {""distance"": < e.g. ""1945.399479"" >}. The value must be in kilometers and no explanation, just the answer!'}, {'role': 'user', 'content': 'What is the distance between sokode, Togo and porto alegre, Brazil?'}]","{""distance"": ""6945.563947""}"
in,faizabad,153062,26.783333,82.133333,us,lafayette,112197,30.223888899999995,-92.0197222,13665.0045845604,"[{'role': 'system', 'content': 'Answer in json format only: {""distance"": < e.g. ""1945.399479"" >}. The value must be in kilometers and no explanation, just the answer!'}, {'role': 'user', 'content': 'What is the distance between faizabad, India and lafayette, United States?'}]","{""distance"": ""12756.851""}"
cn,nanyang,251532,32.994721999999996,112.532778,za,potgietersrus,101090,-24.201369,28.986761,10877.084970120986,"[{'role': 'system', 'content': 'Answer in json format only: {""distance"": < e.g. ""1945.399479"" >}. The value must be in kilometers and no explanation, just the answer!'}, {'role': 'user', 'content': 'What is the distance between nanyang, China and potgietersrus, South Africa?'}]","{""distance"": ""10411.637121""}"
in,porbandar,138881,21.633333,69.6,fi,helsinki,558457,60.17555600000001,24.934167,5512.168070211183,"[{'role': 'system', 'content': 'Answer in json format only: {""distance"": < e.g. ""1945.399479"" >}. The value must be in kilometers and no explanation, just the answer!'}, {'role': 'user', 'content': 'What is the distance between porbandar, India and helsinki, Finland?'}]","{""distance"": ""6367.415712""}"
ar,parana,299257,-31.731966999999997,-60.523802,ru,kirov,457387,58.596654,49.660068,14108.588046561905,"[{'role': 'system', 'content': 'Answer in json format only: {""distance"": < e.g. ""1945.399479"" >}. The value must be in kilometers and no explanation, just the answer!'}, {'role': 'user', 'content': 'What is the distance between parana, Argentina and kirov, Russian Federation?'}]","{""distance"": ""14371.411""}"
cn,heihe,109427,50.266667,127.466667,ma,marrakesh,942631,31.631485,-8.008281,9932.4238306995,"[{'role': 'system', 'content': 'Answer in json format only: {""distance"": < e.g. ""1945.399479"" >}. The value must be in kilometers and no explanation, just the answer!'}, {'role': 'user', 'content': 'What is the distance between heihe, China and marrakesh, Morocco?'}]","{""distance"": ""8306.414213""}"
ru,zelenodolsk,101131,55.84376,48.517837,in,phagwara,100154,31.217778000000003,75.769444,3466.2125546131538,"[{'role': 'system', 'content': 'Answer in json format only: {""distance"": < e.g. ""1945.399479"" >}. The value must be in kilometers and no explanation, just the answer!'}, {'role': 'user', 'content': 'What is the distance between zelenodolsk, Russian Federation and phagwara, India?'}]","{""distance"": ""4037.388262""}"
za,johannesburg,2026466,-26.205171,28.049815,mz,maputo,1191613,-25.965277800000003,32.5891667,454.8946228747907,"[{'role': 'system', 'content': 'Answer in json format only: {""distance"": < e.g. ""1945.399479"" >}. The value must be in kilometers and no explanation, just the answer!'}, {'role': 'user', 'content': 'What is the distance between johannesburg, South Africa and maputo, Mozambique?'}]","{""distance"": ""470.556""}"
fr,montpellier,238887,43.61092,3.87723,us,clearwater,108064,27.965555600000005,-82.80027779999999,7673.14243224815,"[{'role': 'system', 'content': 'Answer in json format only: {""distance"": < e.g. ""1945.399479"" >}. The value must be in kilometers and no explanation, just the answer!'}, {'role': 'user', 'content': 'What is the distance between montpellier, France and clearwater, United States?'}]","{""distance"": ""7134.743""}"
my,bukit mertajam,212387,5.363014,100.466701,zm,ndola,394559,-12.9666667,28.633333299999997,8195.512848771694,"[{'role': 'system', 'content': 'Answer in json format only: {""distance"": < e.g. ""1945.399479"" >}. The value must be in kilometers and no explanation, just the answer!'}, {'role': 'user', 'content': 'What is the distance between bukit mertajam, Malaysia and ndola, Zambia?'}]","{""distance"": ""8471.469119""}"
cn,zaozhuang,183665,34.864722,117.554167,ru,cherepovets,311854,59.13333299999999,37.9,6186.267114205577,"[{'role': 'system', 'content': 'Answer in json format only: {""distance"": < e.g. ""1945.399479"" >}. The value must be in kilometers and no explanation, just the answer!'}, {'role': 'user', 'content': 'What is the distance between zaozhuang, China and cherepovets, Russian Federation?'}]","{""distance"": ""6261.415842""}"
cn,yingzhong,108883,31.166110999999997,112.583056,pt,braga,121393,41.550323,-8.420052,9943.238229477183,"[{'role': 'system', 'content': 'Answer in json format only: {""distance"": < e.g. ""1945.399479"" >}. The value must be in kilometers and no explanation, just the answer!'}, {'role': 'user', 'content': 'What is the distance between yingzhong, China and braga, Portugal?'}]","{""distance"": ""9446.741053""}"
cn,houma,100630,35.61358,111.356601,uz,tashkent,1978078,41.3166667,69.25,3692.078563229137,"[{'role': 'system', 'content': 'Answer in json format only: {""distance"": < e.g. ""1945.399479"" >}. The value must be in kilometers and no explanation, just the answer!'}, {'role': 'user', 'content': 'What is the distance between houma, China and tashkent, Uzbekistan?'}]","{""distance"": ""4457.011""}"
ru,murom,126932,55.575,42.0426,ke,mombasa,799727,-4.05,39.6666667,6612.681309839147,"[{'role': 'system', 'content': 'Answer in json format only: {""distance"": < e.g. ""1945.399479"" >}. The value must be in kilometers and no explanation, just the answer!'}, {'role': 'user', 'content': 'What is the distance between murom, Russian Federation and mombasa, Kenya?'}]","{""distance"": ""7436.411""}"
np,kathmandu,790612,27.7166667,85.3166667,cl,puerto montt,160055,-41.469848,-72.944745,17519.26245801662,"[{'role': 'system', 'content': 'Answer in json format only: {""distance"": < e.g. ""1945.399479"" >}. The value must be in kilometers and no explanation, just the answer!'}, {'role': 'user', 'content': 'What is the distance between kathmandu, Nepal and puerto montt, Chile?'}]","{""distance"": ""17924.789219""}"
id,jakarta,8540306,-6.174444,106.829444,us,richmond,190886,37.553611100000005,-77.46055559999999,16502.04141670859,"[{'role': 'system', 'content': 'Answer in json format only: {""distance"": < e.g. ""1945.399479"" >}. The value must be in kilometers and no explanation, just the answer!'}, {'role': 'user', 'content': 'What is the distance between jakarta, Indonesia and richmond, United States?'}]","{""distance"": ""17457.759""}"
cn,jieshi,137444,22.813377,115.825742,es,pamplona,191549,42.814075,-1.641153,10334.17648699903,"[{'role': 'system', 'content': 'Answer in json format only: {""distance"": < e.g. ""1945.399479"" >}. The value must be in kilometers and no explanation, just the answer!'}, {'role': 'user', 'content': 'What is the distance between jieshi, China and pamplona, Spain?'}]","{""distance"": ""9445.924199""}"
cn,huadian,139047,42.963333,126.747778,in,raiganj,170268,25.616667,88.116667,3995.402940325389,"[{'role': 'system', 'content': 'Answer in json format only: {""distance"": < e.g. ""1945.399479"" >}. The value must be in kilometers and no explanation, just the answer!'}, {'role': 'user', 'content': 'What is the distance between huadian, China and raiganj, India?'}]","{""distance"": ""2514.211757""}"
jp,ogaki,150572,35.35,136.616667,br,sumare,227982,-22.8,-47.283333,18564.085144634613,"[{'role': 'system', 'content': 'Answer in json format only: {""distance"": < e.g. ""1945.399479"" >}. The value must be in kilometers and no explanation, just the answer!'}, {'role': 'user', 'content': 'What is the distance between ogaki, Japan and sumare, Brazil?'}]","{""distance"": ""18647.819""}"
ng,nsukka,111026,6.8561,7.3927,br,guaiba,101026,-30.111111,-51.316666999999995,7477.538235232364,"[{'role': 'system', 'content': 'Answer in json format only: {""distance"": < e.g. ""1945.399479"" >}. The value must be in kilometers and no explanation, just the answer!'}, {'role': 'user', 'content': 'What is the distance between nsukka, Nigeria and guaiba, Brazil?'}]","{""distance"": ""7476.667531""}"
us,syracuse,141830,43.048055600000005,-76.1477778,dz,medea,147710,36.2675,2.75,6559.789537758994,"[{'role': 'system', 'content': 'Answer in json format only: {""distance"": < e.g. ""1945.399479"" >}. The value must be in kilometers and no explanation, just the answer!'}, {'role': 'user', 'content': 'What is the distance between syracuse, United States and medea, Algeria?'}]","{""distance"": ""6947.492121""}"
so,jamame,185270,0.0722222,42.750555600000006,bj,djougou,202834,9.705,1.6669444,4673.643039820514,"[{'role': 'system', 'content': 'Answer in json format only: {""distance"": < e.g. ""1945.399479"" >}. The value must be in kilometers and no explanation, just the answer!'}, {'role': 'user', 'content': 'What is the distance between jamame, Somalia and djougou, Benin?'}]","{""distance"": ""6173.784039""}"
eg,cairo,7734602,30.05,31.25,id,citeureup,110162,-6.362778,106.675278,8978.213087768667,"[{'role': 'system', 'content': 'Answer in json format only: {""distance"": < e.g. ""1945.399479"" >}. The value must be in kilometers and no explanation, just the answer!'}, {'role': 'user', 'content': 'What is the distance between cairo, Egypt and citeureup, Indonesia?'}]","{""distance"": ""8467.641""}"
nl,amersfoort,139208,52.156022,5.389526,jp,tajimi,107819,35.316666999999995,137.133333,9243.341433467423,"[{'role': 'system', 'content': 'Answer in json format only: {""distance"": < e.g. ""1945.399479"" >}. The value must be in kilometers and no explanation, just the answer!'}, {'role': 'user', 'content': 'What is the distance between amersfoort, Netherlands and tajimi, Japan?'}]","{""distance"": ""9195.517""}"
hr,zagreb,698967,45.8,16.0,us,jackson,176696,32.2986111,-90.1847222,8621.622364411276,"[{'role': 'system', 'content': 'Answer in json format only: {""distance"": < e.g. ""1945.399479"" >}. The value must be in kilometers and no explanation, just the answer!'}, {'role': 'user', 'content': 'What is the distance between zagreb, Croatia and jackson, United States?'}]","{""distance"": ""8287.492677""}"
mm,yenangyaung,110567,20.4666667,94.8833333,jp,akita,320071,39.716667,140.116667,4789.927266108156,"[{'role': 'system', 'content': 'Answer in json format only: {""distance"": < e.g. ""1945.399479"" >}. The value must be in kilometers and no explanation, just the answer!'}, {'role': 'user', 'content': 'What is the distance between yenangyaung, Myanmar and akita, Japan?'}]","{""distance"": ""5147.682321""}"
fr,caen,115358,49.197188,-0.326822,hu,gyor,129009,47.687281,17.637616,1336.4485192004902,"[{'role': 'system', 'content': 'Answer in json format only: {""distance"": < e.g. ""1945.399479"" >}. The value must be in kilometers and no explanation, just the answer!'}, {'role': 'user', 'content': 'What is the distance between caen, France and gyor, Hungary?'}]","{""distance"": ""1047.073""}"
cn,yangzhou,539715,32.397222,119.435833,id,yogyakarta,636711,-7.782778,110.360833,4549.72135683575,"[{'role': 'system', 'content': 'Answer in json format only: {""distance"": < e.g. ""1945.399479"" >}. The value must be in kilometers and no explanation, just the answer!'}, {'role': 'user', 'content': 'What is the distance between yangzhou, China and yogyakarta, Indonesia?'}]","{""distance"": ""4587.391""}"
mx,san nicolas de los garza,507837,25.75,-100.3,pk,khanewal,154407,30.3,71.93333299999999,13746.913846260208,"[{'role': 'system', 'content': 'Answer in json format only: {""distance"": < e.g. ""1945.399479"" >}. The value must be in kilometers and no explanation, just the answer!'}, {'role': 'user', 'content': 'What is the distance between san nicolas de los garza, Mexico and khanewal, Pakistan?'}]","{""distance"": ""14317.399479""}"
ht,port-au-prince,1234750,18.5391667,-72.335,gb,kingston upon hull,302297,53.716667,-0.333333,7184.988589587185,"[{'role': 'system', 'content': 'Answer in json format only: {""distance"": < e.g. ""1945.399479"" >}. The value must be in kilometers and no explanation, just the answer!'}, {'role': 'user', 'content': 'What is the distance between port-au-prince, Haiti and kingston upon hull, United Kingdom?'}]","{""distance"": ""7147.481667""}"
ir,bandar-e anzali,110834,37.4727,49.4622,au,geelong,150438,-38.153461,144.358093,12820.960066530097,"[{'role': 'system', 'content': 'Answer in json format only: {""distance"": < e.g. ""1945.399479"" >}. The value must be in kilometers and no explanation, just the answer!'}, {'role': 'user', 'content': 'What is the distance between bandar-e anzali, Iran, Islamic Republic of and geelong, Australia?'}]","{""distance"": ""11947.417395""}"
au,townsville,138959,-19.26639,146.805695,in,nandyal,165355,15.483332999999998,78.483333,8409.950503821865,"[{'role': 'system', 'content': 'Answer in json format only: {""distance"": < e.g. ""1945.399479"" >}. The value must be in kilometers and no explanation, just the answer!'}, {'role': 'user', 'content': 'What is the distance between townsville, Australia and nandyal, India?'}]","{""distance"": ""7731.492321""}"
in,bhimavaram,142979,16.533333,81.533333,ru,severodvinsk,194295,64.5635,39.8302,6184.787118012438,"[{'role': 'system', 'content': 'Answer in json format only: {""distance"": < e.g. ""1945.399479"" >}. The value must be in kilometers and no explanation, just the answer!'}, {'role': 'user', 'content': 'What is the distance between bhimavaram, India and severodvinsk, Russian Federation?'}]","{""distance"": ""5763.036738""}"
ar,comodoro rivadavia,142597,-45.864135,-67.496558,cn,yulin,148485,22.633333,110.15,17418.226524355134,"[{'role': 'system', 'content': 'Answer in json format only: {""distance"": < e.g. ""1945.399479"" >}. The value must be in kilometers and no explanation, just the answer!'}, {'role': 'user', 'content': 'What is the distance between comodoro rivadavia, Argentina and yulin, China?'}]","{""distance"": ""19317.413317""}"
tw,shulin,179136,25.0,121.4166667,il,ashdod,202681,31.736056,34.655944,8308.172171421418,"[{'role': 'system', 'content': 'Answer in json format only: {""distance"": < e.g. ""1945.399479"" >}. The value must be in kilometers and no explanation, just the answer!'}, {'role': 'user', 'content': 'What is the distance between shulin, Taiwan, Province of China and ashdod, Israel?'}]","{""distance"": ""7857.303087""}"
jp,niiza,153591,35.797915,139.52539099999998,hu,pecs,156661,46.075363,18.232845,9205.25163215078,"[{'role': 'system', 'content': 'Answer in json format only: {""distance"": < e.g. ""1945.399479"" >}. The value must be in kilometers and no explanation, just the answer!'}, {'role': 'user', 'content': 'What is the distance between niiza, Japan and pecs, Hungary?'}]","{""distance"": ""8957.848""}"
ru,kamensk-uralskiy,181884,56.4185,61.9329,us,providence,177595,41.8238889,-71.4133333,8271.85965787625,"[{'role': 'system', 'content': 'Answer in json format only: {""distance"": < e.g. ""1945.399479"" >}. The value must be in kilometers and no explanation, just the answer!'}, {'role': 'user', 'content': 'What is the distance between kamensk-uralskiy, Russian Federation and providence, United States?'}]","{""distance"": ""8367.41566""}"
br,barreiras,158296,-12.133333,-45.0,rs,prizren,159145,42.213889,20.739722,8997.786809678384,"[{'role': 'system', 'content': 'Answer in json format only: {""distance"": < e.g. ""1945.399479"" >}. The value must be in kilometers and no explanation, just the answer!'}, {'role': 'user', 'content': 'What is the distance between barreiras, Brazil and prizren, Serbia?'}]","{""distance"": ""9446.741117""}"
mx,chalco,164003,19.266667,-98.9,de,mulheim,172779,51.433333000000005,6.883333,9396.922079888727,"[{'role': 'system', 'content': 'Answer in json format only: {""distance"": < e.g. ""1945.399479"" >}. The value must be in kilometers and no explanation, just the answer!'}, {'role': 'user', 'content': 'What is the distance between chalco, Mexico and mulheim, Germany?'}]","{""distance"": ""9446.481""}"
ru,kursk,409435,51.737328999999995,36.187349,pl,radom,226794,51.400963,21.15809,1040.886593899046,"[{'role': 'system', 'content': 'Answer in json format only: {""distance"": < e.g. ""1945.399479"" >}. The value must be in kilometers and no explanation, just the answer!'}, {'role': 'user', 'content': 'What is the distance between kursk, Russian Federation and radom, Poland?'}]","{""distance"": ""1034.211""}"
